Fix,Provider,LatitudeDegrees,LongitudeDegrees,AltitudeMeters,SpeedMps,AccuracyMeters,BearingDegrees,UnixTimeMillis,SpeedAccuracyMps,BearingAccuracyDegrees,elapsedRealtimeNanos,VerticalAccuracyMeters,MockLocation,NumberOfUsedSignals,VerticalSpeedAccuracyMps,SolutionType

Fix,GPS,45.8109990500,8.6287181200,264.0789794921875,0.0,3.7900925,,1710238293000,0.086023256,,15170207298778,3.4632657,0,,,
Fix,GPS,45.8110004300,8.6287184200,263.924560546875,0.0,3.7900925,,1710238294000,0.086023256,,15171207298987,3.4536002,0,,,
Fix,GPS,45.8110002700,8.6287183500,263.9542236328125,0.0,3.7900925,,1710238295000,0.086023256,,15172207298986,3.4707122,0,,,
Fix,GPS,45.8110004100,8.6287185800,263.94970703125,0.0,3.7900925,,1710238296000,0.086023256,,15173207298830,3.5060508,0,,,
Fix,GPS,45.8110002100,8.6287185900,263.9892578125,0.0,3.7900925,,1710238297000,0.086023256,,15174207299039,3.6481388,0,,,
Fix,GPS,45.8110001900,8.6287185800,264.000732421875,0.0,3.7900925,,1710238298000,0.086023256,,15175207299352,3.5770519,0,,,
Fix,GPS,45.8110020700,8.6287191200,263.75225830078125,0.0,3.7900925,,1710238299000,0.086023256,,15176207299404,3.5590758,0,,,
Fix,GPS,45.8110020100,8.6287191300,263.7586669921875,0.0,3.7900925,,1710238300000,0.086023256,,15177207298987,3.426167,0,,,
Fix,GPS,45.8110017100,8.6287191300,263.80377197265625,0.0,3.7900925,,1710238301000,0.086023256,,15178207299143,3.2101948,0,,,
Fix,GPS,45.8110013500,8.6287190600,263.8699951171875,0.0,3.7900925,,1710238302000,0.086023256,,15179207299091,3.161828,0,,,
Fix,GPS,45.8110006100,8.6287188700,264.00726318359375,0.0,3.7900925,,1710238303000,0.086023256,,15180207299091,3.3171895,0,,,
Fix,GPS,45.8110019500,8.6287192700,263.8433837890625,0.0,3.7900925,,1710238304000,0.086023256,,15181207298362,3.4960904,0,,,
Fix,GPS,45.8110024400,8.6287192200,263.7181396484375,0.0,3.8065412,,1710238305000,0.086023256,,15182207298778,3.460707,0,,,
Fix,GPS,45.8110019600,8.6287067300,264.2684326171875,0.87,3.7900925,283.8,1710238306000,1.1473883,57.884056,15183207298727,3.188632,0,,,
Fix,GPS,45.8110016700,8.6286913000,264.4627685546875,1.41,3.7900925,275.3,1710238307000,1.1610771,27.151434,15184207298779,3.064694,0,,,
Fix,GPS,45.8110003700,8.6286768000,264.85546875,1.51,3.7900925,266.3,1710238308000,1.0822661,6.947625,15185207298987,2.9554372,0,,,
Fix,GPS,45.8109926600,8.6286517300,265.81915283203125,1.85,3.7900925,254.6,1710238309000,1.0890822,12.250519,15186207299195,2.892415,0,,,
Fix,GPS,45.8109900800,8.6286245900,266.757568359375,1.95,3.7900925,270.2,1710238310000,0.90426767,21.903605,15187207298986,2.8685975,0,,,
Fix,GPS,45.8109866900,8.6285977100,266.39788818359375,2.13,3.7900925,260.3,1710238311000,0.840595,21.435303,15188207298830,2.8335438,0,,,
Fix,GPS,45.8109813900,8.6285666500,267.084228515625,2.36,3.7900925,259.1,1710238312000,0.840595,19.422594,15189207298883,2.7528496,0,,,
Fix,GPS,45.8109767500,8.6285351700,267.4049072265625,2.27,3.7900925,264.4,1710238313000,1.0462314,23.779886,15190207298987,2.6720927,0,,,
Fix,GPS,45.8109744800,8.6284996200,267.4100341796875,2.58,3.7900925,267.3,1710238314000,1.1337107,24.061413,15191207299247,2.5,0,,,
Fix,GPS,45.8109724400,8.6284613800,267.48883056640625,2.66,3.7900925,269.0,1710238315000,1.1337107,23.36963,15192207299143,2.5,0,,,
Fix,GPS,45.8109695200,8.6284228400,267.81585693359375,2.92,3.7900925,268.3,1710238316000,1.1337107,21.360153,15193207299143,2.5,0,,,
Fix,GPS,45.8109655600,8.6283832400,267.94384765625,2.98,3.7900925,263.5,1710238317000,1.1337107,20.949741,15194207298727,2.5,0,,,
Fix,GPS,45.8109610400,8.6283419200,268.2899169921875,3.17,3.7900925,263.5,1710238318000,1.1337107,19.817078,15195207298726,2.5,0,,,
Fix,GPS,45.8109586600,8.6283020800,268.3773193359375,3.03,3.7900925,266.6,1710238319000,1.1337107,20.674257,15196207299039,2.5,0,,,
Fix,GPS,45.8109569300,8.6282638500,268.2552490234375,3.14,3.7900925,269.1,1710238320000,1.1337107,19.96037,15197207298935,2.5,0,,,
Fix,GPS,45.8109606900,8.6282242000,267.93658447265625,3.17,3.7900925,280.0,1710238321000,0.09433981,1.023784,15198207299404,2.5,0,,,
Fix,GPS,45.8109859500,8.6281990900,268.05322265625,3.11,3.916624,305.8,1710238322000,0.3679674,5.6588006,15199207298778,2.5,0,,,
Fix,GPS,45.8110109700,8.6281919600,268.3179931640625,3.11,3.9012067,337.8,1710238323000,0.3330165,5.285827,15200207299091,2.5,0,,,
Fix,GPS,45.8110378000,8.6281884600,268.4344482421875,3.13,3.7900925,353.0,1710238324000,1.1697009,19.813005,15201207298778,2.5,0,,,
Fix,GPS,45.8110665300,8.6281868200,268.21484375,3.24,3.7900925,356.1,1710238325000,1.1337107,17.228588,15202207299091,2.5,0,,,
Fix,GPS,45.8110946100,8.6281915100,268.02020263671875,3.2,3.7900925,357.2,1710238326000,1.1646888,20.07436,15203207298830,2.5,0,,,
Fix,GPS,45.8111252500,8.6281933000,267.577392578125,3.69,3.7900925,354.6,1710238327000,0.4455334,5.597685,15204207299404,2.5,0,,,
Fix,GPS,45.8111612400,8.6281878000,267.4390869140625,4.32,3.7900925,355.3,1710238328000,0.3828838,3.8069417,15205207298831,2.5,0,,,
Fix,GPS,45.8112022000,8.6281839000,266.769287109375,4.75,3.7900925,356.8,1710238329000,0.3905125,3.5128617,15206207299195,2.5,0,,,
Fix,GPS,45.8112449300,8.6281810700,266.7613525390625,4.93,3.7900925,356.9,1710238330000,0.50990194,4.514996,15207207299352,2.5,0,,,
Fix,GPS,45.8112882900,8.6281801000,266.2310791015625,4.72,3.7900925,357.2,1710238331000,0.3623534,3.271397,15208207298571,2.5,0,,,
Fix,GPS,45.8113308700,8.6281806300,266.32757568359375,4.86,3.7900925,359.2,1710238332000,0.20808652,1.6787755,15209207299039,2.5,0,,,
Fix,GPS,45.8113732500,8.6281803800,266.1429443359375,4.66,3.7900925,357.2,1710238333000,0.1360147,1.1760232,15210207299299,2.5,0,,,
Fix,GPS,45.8114161700,8.6281774900,265.89715576171875,4.86,3.7900925,356.5,1710238334000,0.086023256,0.7435262,15211207298726,2.5,0,,,
Fix,GPS,45.8114599800,8.6281765700,265.5657958984375,4.72,3.7900925,358.0,1710238335000,0.24207437,2.100325,15212207299039,2.5,0,,,
Fix,GPS,45.8115020600,8.6281750800,265.414306640625,4.57,3.7900925,356.1,1710238336000,0.22803509,2.1023314,15213207298622,2.5,0,,,
Fix,GPS,45.8115424200,8.6281717300,265.2779541015625,4.52,3.7900925,356.0,1710238337000,0.18601075,1.6288954,15214207299195,2.5,0,,,
Fix,GPS,45.8115838700,8.6281684700,265.46630859375,4.68,3.7900925,357.4,1710238338000,0.18601075,1.5711395,15215207299090,2.5,0,,,
Fix,GPS,45.8116237400,8.6281639900,265.5782470703125,4.68,3.7900925,355.9,1710238339000,0.06403124,0.5482662,15216207299091,2.5,0,,,
Fix,GPS,45.8116649500,8.6281594100,265.1943359375,4.67,3.7900925,356.1,1710238340000,0.06403124,0.55586725,15217207298674,2.5,0,,,
Fix,GPS,45.8117056000,8.6281576700,265.329833984375,4.67,3.7900925,0.2,1710238341000,0.072111025,0.6396184,15218207298570,2.5,0,,,
Fix,GPS,45.8117461800,8.6281671900,264.81414794921875,4.62,3.7900925,14.0,1710238342000,0.20248456,1.598384,15219207299299,2.5,0,,,
Fix,GPS,45.8117839000,8.6281949900,264.9583740234375,4.6,3.7900925,31.6,1710238343000,0.20248456,1.6182634,15220207299195,2.5,0,,,
Fix,GPS,45.8118179900,8.6282299900,265.11474609375,4.39,3.7900925,33.8,1710238344000,0.086023256,0.7351287,15221207298206,2.5,0,,,
Fix,GPS,45.8118559700,8.6282494800,265.2205810546875,4.73,3.7900925,13.0,1710238345000,0.080622576,0.5990856,15222207298257,2.5,0,,,
Fix,GPS,45.8118965900,8.6282404400,265.201416015625,4.75,3.7900925,347.3,1710238346000,0.058309518,0.506125,15223207298726,2.5,0,,,
Fix,GPS,45.8119311800,8.6282036800,265.46484375,4.94,3.7900925,319.9,1710238347000,0.072111025,0.52616197,15224207299352,2.5,0,,,
Fix,GPS,45.8119356100,8.6281262200,265.30963134765625,5.19,3.7900925,274.7,1710238348000,0.072111025,0.558405,15225207298882,2.5,0,,,
Fix,GPS,45.8119280600,8.6280660400,264.9332275390625,5.06,3.7900925,252.2,1710238349000,0.10630146,0.89145696,15226207299456,2.5,0,,,
Fix,GPS,45.8119157100,8.6280074600,265.3604736328125,5.05,3.7900925,239.3,1710238350000,0.12806249,1.0370765,15227207299039,2.5,0,,,
Fix,GPS,45.8119010400,8.6279467200,265.2110595703125,4.88,3.7900925,247.4,1710238351000,0.09433981,0.76134735,15228207299351,2.5,0,,,
Fix,GPS,45.8118902900,8.6278863500,265.3912353515625,4.86,3.7900925,255.6,1710238352000,0.080622576,0.6337952,15229207298779,2.5,0,,,
Fix,GPS,45.8118829500,8.6278234600,265.77569580078125,5.0,3.7900925,262.2,1710238353000,0.072111025,0.5332969,15230207298414,2.5,0,,,
Fix,GPS,45.8118765100,8.6277588500,265.675048828125,5.01,3.7900925,267.0,1710238354000,0.058309518,0.4743832,15231207298935,2.5,0,,,
Fix,GPS,45.8118764400,8.6276923500,265.72607421875,5.06,3.7900925,267.6,1710238355000,0.058309518,0.4749101,15232207298935,2.5,0,,,
Fix,GPS,45.8118771000,8.6276259300,265.75872802734375,5.07,3.7900925,270.4,1710238356000,0.058309518,0.46035576,15233207298883,2.5,0,,,
Fix,GPS,45.8118767500,8.6275615500,265.5950927734375,5.16,3.7900925,269.5,1710238357000,0.06403124,0.50339216,15234207299195,2.5,0,,,
Fix,GPS,45.8118727900,8.6274964700,265.73455810546875,5.15,3.7900925,267.7,1710238358000,0.06403124,0.57021755,15235207298726,2.5,0,,,
Fix,GPS,45.8118731900,8.6274335100,265.85198974609375,5.21,3.7900925,272.3,1710238359000,0.06403124,0.49525136,15236207298727,2.5,0,,,
Fix,GPS,45.8118716200,8.6273652700,266.123779296875,5.21,3.7900925,268.5,1710238360000,0.058309518,0.47525257,15237207298935,2.5,0,,,
Fix,GPS,45.8118685900,8.6272990700,266.308837890625,5.21,3.7900925,264.8,1710238361000,0.06403124,0.51784253,15238207299091,2.5,0,,,
Fix,GPS,45.8118637300,8.6272321000,266.2362060546875,5.17,3.7900925,264.8,1710238362000,0.06403124,0.54524606,15239207298987,2.5,0,,,
Fix,GPS,45.8118591500,8.6271624100,266.46063232421875,5.24,3.7900925,267.5,1710238363000,0.06403124,0.5099379,15240207299039,2.5,0,,,
Fix,GPS,45.8118534200,8.6270989700,266.695068359375,5.19,3.7900925,266.5,1710238364000,0.058309518,0.4854987,15241207299195,2.5,0,,,
Fix,GPS,45.8118495800,8.6270322200,266.71307373046875,5.15,3.7900925,266.8,1710238365000,0.072111025,0.53945017,15242207298986,2.5,0,,,
Fix,GPS,45.8118470200,8.6269665800,266.7298583984375,5.11,3.7900925,267.5,1710238366000,0.072111025,0.60372895,15243207298622,2.5,0,,,
Fix,GPS,45.8118460200,8.6268972300,266.89410400390625,5.12,3.7900925,268.3,1710238367000,0.086023256,0.6608291,15244207298674,2.5,0,,,
Fix,GPS,45.8118414100,8.6268324200,266.960205078125,5.0,3.7900925,265.2,1710238368000,0.072111025,0.57711214,15245207298987,2.5,0,,,
Fix,GPS,45.8118389100,8.6267679500,267.0283203125,4.97,3.7900925,265.1,1710238369000,0.072111025,0.5647181,15246207298987,2.5,0,,,
Fix,GPS,45.8118369800,8.6267036400,267.1324462890625,4.96,3.7900925,270.5,1710238370000,0.072111025,0.61262935,15247207299404,2.5,0,,,
Fix,GPS,45.8118360600,8.6266377600,267.349365234375,5.1,3.7900925,266.9,1710238371000,0.072111025,0.57546395,15248207298726,2.5,0,,,
Fix,GPS,45.8118327700,8.6265770900,267.458984375,4.94,3.7900925,266.7,1710238372000,0.072111025,0.5309765,15249207299039,2.5,0,,,
Fix,GPS,45.8118315200,8.6265101400,267.5880126953125,5.04,3.7900925,266.2,1710238373000,0.072111025,0.6170128,15250207298986,2.5,0,,,
Fix,GPS,45.8118328100,8.6264471600,267.5172119140625,4.97,3.7900925,271.0,1710238374000,0.086023256,0.7443085,15251207298362,2.5,0,,,
Fix,GPS,45.8118296000,8.6263862000,270.1864013671875,4.97,3.7900925,265.9,1710238375000,0.20808652,1.6373547,15252207298987,2.5,0,,,
Fix,GPS,45.8118264500,8.6263191100,269.31201171875,5.11,3.7900925,264.6,1710238376000,0.19416487,1.506955,15253207298935,2.5,0,,,
Fix,GPS,45.8118239500,8.6262555500,268.53759765625,4.95,3.7900925,266.4,1710238377000,0.06708204,0.51165247,15254207298778,2.5,0,,,
Fix,GPS,45.8118233000,8.6261948800,268.10986328125,5.02,3.7900925,270.5,1710238378000,0.072111025,0.5111925,15255207298987,2.5,0,,,
Fix,GPS,45.8118213900,8.6261319900,267.67535400390625,4.94,3.7900925,268.4,1710238379000,0.06403124,0.57992744,15256207299455,2.5,0,,,
Fix,GPS,45.8118147300,8.6260672600,267.814453125,5.11,3.7900925,260.8,1710238380000,0.07071068,0.6287376,15257207299143,2.5,0,,,
Fix,GPS,45.8118130500,8.6260008700,267.7576904296875,4.87,3.7900925,265.0,1710238381000,0.06403124,0.62048227,15258207298934,2.5,0,,,
Fix,GPS,45.8118084800,8.6259358800,267.81884765625,4.86,3.7900925,268.1,1710238382000,0.058309518,0.5227646,15259207298987,2.5,0,,,
Fix,GPS,45.8118088500,8.6258743900,267.7449951171875,4.73,3.7900925,270.8,1710238383000,0.0781025,0.6915868,15260207298778,2.5,0,,,
Fix,GPS,45.8118052700,8.6258093900,267.9027099609375,4.95,3.7900925,268.3,1710238384000,0.1,0.8823075,15261207298570,2.5,0,,,
Fix,GPS,45.8118058500,8.6257494700,267.447509765625,4.95,3.7900925,266.8,1710238385000,0.086023256,0.6527288,15262207298935,2.5,0,,,
Fix,GPS,45.8118057400,8.6256888200,267.120361328125,4.91,3.7900925,266.6,1710238386000,0.06708204,0.46996003,15263207298778,2.5,0,,,
Fix,GPS,45.8118014200,8.6256254700,266.9942626953125,5.01,3.7900925,265.2,1710238387000,0.080622576,0.5778043,15264207298726,2.5,0,,,
Fix,GPS,45.8117974700,8.6255612800,267.136474609375,5.05,3.7900925,264.1,1710238388000,0.080622576,0.5863878,15265207298882,2.5,0,,,
Fix,GPS,45.8117957100,8.6254929300,267.19091796875,4.99,3.7900925,267.2,1710238389000,0.0781025,0.65745485,15266207299299,2.5,0,,,
Fix,GPS,45.8117969000,8.6254273200,266.929931640625,5.04,3.7900925,272.0,1710238390000,0.086023256,0.7311816,15267207298986,2.5,0,,,
Fix,GPS,45.8117970700,8.6253670000,266.70550537109375,4.86,3.7900925,266.0,1710238391000,0.072111025,0.6396997,15268207298726,2.5,0,,,
Fix,GPS,45.8117918000,8.6253035800,266.711669921875,4.95,3.7900925,261.6,1710238392000,0.092195444,0.86171836,15269207298726,2.5,0,,,
Fix,GPS,45.8117908200,8.6252392200,266.66259765625,4.83,3.7900925,269.1,1710238393000,0.11313708,1.1251042,15270207298987,2.5,0,,,
Fix,GPS,45.8117874900,8.6251768100,266.48956298828125,4.93,3.7900925,267.1,1710238394000,0.11313708,1.0971416,15271207298883,2.5,0,,,
Fix,GPS,45.8117844600,8.6251140300,266.298583984375,4.81,3.7900925,268.1,1710238395000,0.11313708,1.074151,15272207298674,2.5,0,,,
Fix,GPS,45.8117774600,8.6250482200,266.262451171875,5.01,3.7900925,260.9,1710238396000,0.17804495,1.4852954,15273207299091,2.5,0,,,
Fix,GPS,45.8117761400,8.6249805700,266.0726318359375,5.11,3.7900925,266.4,1710238397000,0.1979899,1.7961237,15274207299091,2.5,0,,,
Fix,GPS,45.8117732100,8.6249168000,266.0831298828125,4.97,3.7900925,267.9,1710238398000,0.13453624,1.4023545,15275207299403,2.5,0,,,
Fix,GPS,45.8117719800,8.6248535400,266.0972900390625,5.0,3.7900925,266.9,1710238399000,1.1164676,12.532974,15276207299352,2.5,0,,,
Fix,GPS,45.8117694900,8.6247890900,266.473388671875,5.04,3.7900925,265.3,1710238400000,0.10630146,0.9287017,15277207298935,2.5,0,,,
Fix,GPS,45.8117655600,8.6247259500,266.465576171875,4.83,3.7900925,263.0,1710238401000,0.1,0.8850266,15278207298674,2.5,0,,,
Fix,GPS,45.8117697200,8.6246724700,266.3460693359375,4.93,3.7900925,270.9,1710238402000,0.086023256,0.7490158,15279207298414,2.5,0,,,
Fix,GPS,45.8117667100,8.6246097400,266.27569580078125,5.07,3.7900925,266.6,1710238403000,0.072111025,0.5076824,15280207298883,2.5,0,,,
Fix,GPS,45.8117648900,8.6245445500,266.1973876953125,4.98,3.7900925,267.0,1710238404000,0.058309518,0.44135094,15281207298049,2.5,0,,,
Fix,GPS,45.8117619800,8.6244803600,266.394287109375,5.02,3.7900925,265.4,1710238405000,0.080622576,0.54339004,15282207298831,2.5,0,,,
Fix,GPS,45.8117439900,8.6244186100,265.98388671875,4.87,3.7900925,244.5,1710238406000,0.1029563,0.6800733,15283207298934,2.5,0,,,
Fix,GPS,45.8117123200,8.6243705400,266.1015625,5.46,3.7900925,222.0,1710238407000,0.09433981,0.59041774,15284207298935,2.5,0,,,
Fix,GPS,45.8116714900,8.6243453200,265.361572265625,5.31,3.7900925,198.1,1710238408000,0.26627055,1.8391019,15285207298831,2.5,0,,,
Fix,GPS,45.8116245000,8.6243401000,265.4671630859375,5.49,3.7900925,177.2,1710238409000,0.26627055,1.7912899,15286207298466,2.5,0,,,
Fix,GPS,45.8115779700,8.6243370900,265.3990478515625,5.39,3.7900925,175.2,1710238410000,0.09433981,0.6614053,15287207298674,2.5,0,,,
Fix,GPS,45.8115281100,8.6243296300,265.2789306640625,5.48,3.7900925,181.7,1710238411000,0.28017852,1.9673609,15288207298726,2.5,0,,,
Fix,GPS,45.8114808000,8.6243361400,265.030517578125,5.36,3.7900925,176.9,1710238412000,0.4661545,3.2558687,15289207298935,2.5,0,,,
Fix,GPS,45.8114330900,8.6243399700,265.0423583984375,5.51,3.7900925,177.0,1710238413000,1.1337107,11.541752,15290207298986,2.5,0,,,
Fix,GPS,45.8113849800,8.6243424400,265.05450439453125,5.48,3.7900925,177.7,1710238414000,1.1337107,11.621311,15291207298935,2.5,0,,,
Fix,GPS,45.8113345800,8.6243398900,264.86962890625,5.71,3.7900925,178.9,1710238415000,0.12206556,0.83599275,15292207299143,2.5,0,,,
Fix,GPS,45.8112846100,8.6243390800,264.712890625,5.56,3.7900925,179.7,1710238416000,0.1,0.6974715,15293207299039,2.5,0,,,
Fix,GPS,45.8112325200,8.6243423000,264.4224853515625,5.52,3.7900925,176.2,1710238417000,0.1,0.69869494,15294207299091,2.5,0,,,
Fix,GPS,45.8111802900,8.6243451800,264.35455322265625,5.72,3.7900925,175.2,1710238418000,0.072111025,0.45730603,15295207298205,2.5,0,,,
Fix,GPS,45.8111312300,8.6243521700,264.126953125,5.75,3.7900925,174.0,1710238419000,0.080622576,0.49793375,15296207299351,2.5,0,,,
Fix,GPS,45.8110803900,8.6243619100,264.3140869140625,5.9,3.7900925,175.1,1710238420000,0.1029563,0.65248454,15297207299299,2.5,0,,,
Fix,GPS,45.8110274800,8.6243611700,264.3199462890625,5.82,3.7900925,177.5,1710238421000,0.1029563,0.6376095,15298207299195,2.5,0,,,
Fix,GPS,45.8109746400,8.6243652700,264.3160400390625,5.88,3.7900925,176.5,1710238422000,0.09433981,0.56134576,15299207299143,2.5,0,,,
Fix,GPS,45.8109208800,8.6243683700,264.1943359375,5.81,3.7900925,176.5,1710238423000,0.09433981,0.60441923,15300207298987,2.5,0,,,
Fix,GPS,45.8108675500,8.6243694600,264.222900390625,5.82,3.7900925,176.6,1710238424000,0.09433981,0.5592034,15301207298570,2.5,0,,,
Fix,GPS,45.8108113700,8.6243704900,264.38519287109375,5.88,3.7900925,179.8,1710238425000,0.1029563,0.6079022,15302207299039,2.5,0,,,
Fix,GPS,45.8107608100,8.6243654300,264.3587646484375,5.7,3.7900925,179.5,1710238426000,0.1029563,0.6357508,15303207298726,2.5,0,,,
Fix,GPS,45.8107095700,8.6243689000,264.8326416015625,5.58,3.7900925,176.2,1710238427000,0.09433981,0.6366438,15304207298935,2.5,0,,,
Fix,GPS,45.8106570700,8.6243701600,264.9031982421875,5.74,3.7900925,177.3,1710238428000,0.13416408,0.7488658,15305207298831,2.5,0,,,
Fix,GPS,45.8106054900,8.6243762000,265.16864013671875,5.52,3.7900925,176.5,1710238429000,0.16552946,0.87345964,15306207298831,2.5,0,,,
Fix,GPS,45.8105573200,8.6243787900,265.0087890625,5.34,3.7900925,178.5,1710238430000,0.13416408,0.8018671,15307207298987,2.5,0,,,
Fix,GPS,45.8105045000,8.6243885300,265.6285400390625,5.37,3.7900925,174.8,1710238431000,0.09433981,0.6292097,15308207298831,2.5,0,,,
Fix,GPS,45.8104609800,8.6243917500,265.32891845703125,5.5,3.7900925,177.2,1710238432000,0.08944272,0.57690156,15309207298883,2.5,0,,,
Fix,GPS,45.8104110300,8.6244014100,265.2371826171875,5.4,3.7900925,176.0,1710238433000,0.080622576,0.5876217,15310207299195,2.5,0,,,
Fix,GPS,45.8103601600,8.6244059400,265.1353759765625,5.39,3.7900925,178.7,1710238434000,0.1029563,0.67968696,15311207298935,2.5,0,,,
Fix,GPS,45.8103144700,8.6244061600,265.260009765625,5.28,3.7900925,177.4,1710238435000,0.13038404,0.92430013,15312207298726,2.5,0,,,
Fix,GPS,45.8102678600,8.6244156500,265.1197509765625,5.54,3.7900925,178.4,1710238436000,0.21633308,1.419892,15313207298727,2.5,0,,,
Fix,GPS,45.8102194500,8.6244234200,265.4117431640625,5.54,3.7900925,176.8,1710238437000,0.286007,1.9780161,15314207299143,2.5,0,,,
Fix,GPS,45.8101712300,8.6244238500,265.33453369140625,5.34,3.7900925,178.6,1710238438000,0.35,2.58756,15315207298622,2.5,0,,,
Fix,GPS,45.8101209300,8.6244235700,265.18255615234375,5.33,3.7900925,176.8,1710238439000,0.086023256,0.6533407,15316207298778,2.5,0,,,
Fix,GPS,45.8100733000,8.6244320500,264.953125,5.34,3.7900925,174.4,1710238440000,0.09433981,0.65833545,15317207298831,2.5,0,,,
Fix,GPS,45.8100244500,8.6244390900,264.8548583984375,5.37,3.7900925,175.1,1710238441000,0.12529965,0.7854397,15318207298726,2.5,0,,,
Fix,GPS,45.8099769000,8.6244437100,264.9825439453125,5.42,3.7900925,176.3,1710238442000,0.14764823,0.9250436,15319207298830,2.5,0,,,
Fix,GPS,45.8099268600,8.6244501800,265.06298828125,5.88,3.7900925,174.9,1710238443000,0.116619036,0.6988155,15320207298674,2.5,0,,,
Fix,GPS,45.8098789600,8.6244573800,264.673095703125,5.07,3.7900925,172.2,1710238444000,0.14422205,1.099147,15321207298935,2.5,0,,,
Fix,GPS,45.8098304200,8.6244534600,264.6513671875,5.45,3.7900925,180.2,1710238445000,0.32756677,2.0629923,15322207299247,2.5,0,,,
Fix,GPS,45.8097779700,8.6244579200,264.43377685546875,5.52,3.7900925,176.2,1710238446000,0.12529965,0.7799075,15323207299039,2.5,0,,,
Fix,GPS,45.8097260800,8.6244559300,264.93890380859375,5.54,3.7900925,179.2,1710238447000,0.4860041,3.4598181,15324207298986,2.5,0,,,
Fix,GPS,45.8096809400,8.6244566800,264.6590576171875,4.85,3.7900925,179.3,1710238448000,0.4404543,3.752949,15325207299091,2.5,0,,,
Fix,GPS,45.8096339800,8.6244473200,265.103515625,5.43,3.7900925,190.3,1710238449000,0.46227697,3.4746437,15326207298934,2.5,0,,,
Fix,GPS,45.8095875200,8.6244307300,265.48974609375,5.63,3.7900925,195.3,1710238450000,0.12206556,0.84429955,15327207298987,2.5,0,,,
Fix,GPS,45.8095458200,8.6244096800,266.0208740234375,5.25,3.7900925,203.4,1710238451000,0.09433981,0.71624273,15328207299143,2.5,0,,,
Fix,GPS,45.8095055400,8.6243872800,266.0264892578125,4.89,3.7900925,206.6,1710238452000,0.10816654,0.8270204,15329207298883,2.5,0,,,
Fix,GPS,45.8094615300,8.6243659800,266.231201171875,5.18,3.7900925,200.5,1710238453000,0.116619036,0.83703285,15330207297945,2.5,0,,,
Fix,GPS,45.8094135500,8.6243459400,266.45465087890625,5.4,3.7900925,193.4,1710238454000,0.28653097,1.74728,15331207298987,2.5,0,,,
Fix,GPS,45.8093661900,8.6243354200,266.0980224609375,5.26,3.7900925,187.5,1710238455000,1.1337107,12.05808,15332207299143,2.5,0,,,
Fix,GPS,45.8093240900,8.6243504900,266.072021484375,5.26,3.7900925,169.4,1710238456000,1.1337107,12.059865,15333207299247,2.5,0,,,
Fix,GPS,45.8092795000,8.6243803800,265.8414306640625,5.41,3.7900925,154.9,1710238457000,0.34205264,2.5360205,15334207298831,2.5,0,,,
Fix,GPS,45.8092422000,8.6244146200,265.7532958984375,5.51,3.7900925,149.0,1710238458000,0.41617304,2.9047103,15335207298986,2.5,0,,,
Fix,GPS,45.8091963700,8.6244395700,265.611328125,5.59,3.7900925,156.7,1710238459000,0.2607681,1.6402403,15336207299038,2.5,0,,,
Fix,GPS,45.8091505800,8.6244630300,265.392578125,5.42,3.7900925,161.2,1710238460000,0.2607681,1.7361833,15337207298362,2.5,0,,,
Fix,GPS,45.8091043400,8.6244884100,265.26788330078125,5.64,3.7900925,164.6,1710238461000,1.0429286,3.5290322,15338207298622,2.5,0,,,
Fix,GPS,45.8090517900,8.6245023900,265.3548583984375,5.7,3.7900925,169.2,1710238462000,1.0317461,6.1713386,15339207299143,2.5,0,,,
Fix,GPS,45.8090013600,8.6245084100,265.6617431640625,5.6,3.7900925,175.4,1710238463000,1.0317461,6.626403,15340207297424,2.5,0,,,
Fix,GPS,45.8089528600,8.6245133700,265.9393310546875,5.52,3.7900925,177.7,1710238464000,1.0151354,6.103117,15341207298571,2.5,0,,,
Fix,GPS,45.8088993700,8.6245215100,265.6307373046875,5.57,3.7900925,175.1,1710238465000,1.1337107,11.4027195,15342207299039,2.5,0,,,
Fix,GPS,45.8088453400,8.6245293100,265.77301025390625,5.49,3.7900925,176.4,1710238466000,0.080622576,0.5626648,15343207298362,2.5,0,,,
Fix,GPS,45.8087964900,8.6245320900,265.9876708984375,5.6,3.7900925,175.7,1710238467000,0.19209373,1.449863,15344207298935,2.5,0,,,
Fix,GPS,45.8087472900,8.6245346100,266.07861328125,5.46,3.7900925,178.2,1710238468000,0.21400934,1.545167,15345207299195,2.5,0,,,
Fix,GPS,45.8086988400,8.6245418400,265.9425048828125,5.45,3.7900925,175.0,1710238469000,0.072111025,0.5246558,15346207298674,2.5,0,,,
Fix,GPS,45.8086522500,8.6245441800,266.1370849609375,5.44,3.7900925,180.5,1710238470000,1.0151354,1.0253189,15347207298518,2.5,0,,,
Fix,GPS,45.8086031200,8.6245483300,266.136962890625,5.35,3.7900925,181.7,1710238471000,1.0068763,2.1206355,15348207298987,2.5,0,,,
Fix,GPS,45.8085549400,8.6245532200,266.0596923828125,5.27,3.7900925,178.3,1710238472000,0.97416633,3.1537495,15349207298935,2.5,0,,,
Fix,GPS,45.8085075000,8.6245583800,266.27374267578125,5.26,3.7900925,181.4,1710238473000,1.0234256,3.6784108,15350207299039,2.5,0,,,
Fix,GPS,45.8084643100,8.6245599800,266.491455078125,5.22,3.7900925,180.4,1710238474000,1.048475,4.218732,15351207298987,2.5,0,,,
Fix,GPS,45.8084201800,8.6245667400,266.322998046875,5.25,3.7900925,176.3,1710238475000,1.048475,4.614356,15352207298934,2.5,0,,,
Fix,GPS,45.8083727100,8.6245729500,266.16015625,5.21,3.7900925,178.7,1710238476000,1.048475,4.849093,15353207299143,2.5,0,,,
Fix,GPS,45.8083243400,8.6245746700,265.8218994140625,5.1,3.7900925,177.1,1710238477000,0.98229325,4.6731853,15354207298831,2.5,0,,,
Fix,GPS,45.8082778400,8.6245772700,265.673828125,4.94,3.7900925,177.8,1710238478000,1.0234256,4.4530582,15355207298623,2.5,0,,,
Fix,GPS,45.8082285100,8.6245830200,266.0274658203125,4.98,3.7900925,174.9,1710238479000,1.048475,4.4268665,15356207298987,2.5,0,,,
Fix,GPS,45.8081868300,8.6245839600,265.8743896484375,4.91,3.7900925,179.7,1710238480000,1.0068763,4.4512677,15357207298987,2.5,0,,,
Fix,GPS,45.8081436500,8.6245885200,266.19598388671875,4.89,3.7900925,178.1,1710238481000,1.012571,4.2161217,15358207298883,2.5,0,,,
Fix,GPS,45.8081006300,8.6245919000,266.5496826171875,4.86,3.7900925,178.0,1710238482000,1.0317461,4.104427,15359207298935,2.5,0,,,
Fix,GPS,45.8080558500,8.6245935000,266.795166015625,4.9,3.7900925,175.8,1710238483000,0.99864906,4.03085,15360207298935,2.5,0,,,
Fix,GPS,45.8080111000,8.6245966800,267.0113525390625,4.91,3.7900925,176.3,1710238484000,1.0068763,3.9117868,15361207298935,2.5,0,,,
Fix,GPS,45.8079669600,8.6245995900,267.2408447265625,4.79,3.7900925,176.2,1710238485000,0.99864906,3.7395363,15362207298101,2.5,0,,,
Fix,GPS,45.8079238100,8.6245995100,267.01904296875,4.6,3.7900925,180.5,1710238486000,1.0400962,3.8213255,15363207298831,2.5,0,,,
Fix,GPS,45.8078810600,8.6246025600,267.40570068359375,4.65,3.7900925,175.8,1710238487000,1.1337107,13.606777,15364207298778,2.5,0,,,
Fix,GPS,45.8078398800,8.6246038700,267.533935546875,4.33,3.7900925,179.2,1710238488000,0.080622576,0.61403096,15365207298206,2.5,0,,,
Fix,GPS,45.8078004100,8.6246077800,267.94793701171875,4.35,3.7900925,175.7,1710238489000,0.080622576,0.63758075,15366207298987,2.5,0,,,
Fix,GPS,45.8077636300,8.6246118600,268.41717529296875,4.2,3.7900925,176.4,1710238490000,0.06708204,0.5752399,15367207299039,2.5,0,,,
Fix,GPS,45.8077267500,8.6246126400,268.234619140625,4.25,3.7900925,180.5,1710238491000,0.058309518,0.48572895,15368207298987,2.5,0,,,
Fix,GPS,45.8076891300,8.6246125000,268.1373291015625,4.34,3.7900925,179.9,1710238492000,0.058309518,0.48053664,15369207298830,2.5,0,,,
Fix,GPS,45.8076508800,8.6246166800,268.463623046875,4.39,3.7900925,175.0,1710238493000,0.06708204,0.5303912,15370207298986,2.5,0,,,
Fix,GPS,45.8076144800,8.6246244700,268.524169921875,4.19,3.7900925,171.2,1710238494000,0.06708204,0.5784746,15371207298935,2.5,0,,,
Fix,GPS,45.8075784400,8.6246360800,268.62896728515625,4.26,3.7900925,167.4,1710238495000,0.080622576,0.653088,15372207298779,2.5,0,,,
Fix,GPS,45.8075424000,8.6246530800,268.445556640625,4.29,3.7900925,162.9,1710238496000,0.1029563,0.76866084,15373207299039,2.5,0,,,
Fix,GPS,45.8075084700,8.6246721900,268.42706298828125,4.17,3.7900925,162.3,1710238497000,0.99045444,0.43116724,15374207298831,2.5,0,,,
Fix,GPS,45.8074757300,8.6246925700,268.7037353515625,4.15,3.7900925,157.3,1710238498000,0.75,0.58874863,15375207298727,2.5,0,,,
Fix,GPS,45.8074420000,8.6247120500,268.883544921875,4.27,3.7900925,158.8,1710238499000,0.76609397,0.7987455,15376207298830,2.5,0,,,
Fix,GPS,45.8074075900,8.6247307500,269.06787109375,4.24,3.7900925,161.7,1710238500000,0.7988116,1.0280969,15377207298934,2.5,0,,,
Fix,GPS,45.8073737000,8.6247499300,269.1463623046875,4.21,3.7900925,158.1,1710238501000,0.75,1.2641053,15378207298935,2.5,0,,,
Fix,GPS,45.8073400500,8.6247743600,269.4296875,4.19,3.7900925,152.0,1710238502000,0.80709356,1.505051,15379207299404,2.5,0,,,
Fix,GPS,45.8073066300,8.6247987000,269.45263671875,4.16,3.7900925,154.2,1710238503000,0.77420926,1.7358403,15380207298830,2.5,0,,,
Fix,GPS,45.8072736400,8.6248247300,269.2579345703125,4.24,3.7900925,152.2,1710238504000,0.76609397,1.9473016,15381207299195,2.5,0,,,
Fix,GPS,45.8072402100,8.6248528600,269.34521484375,4.38,3.7900925,149.3,1710238505000,0.7823682,2.1483579,15382207299195,2.5,0,,,
Fix,GPS,45.8072070400,8.6248825500,269.48046875,4.35,3.7900925,149.4,1710238506000,0.8060397,2.3221905,15383207299091,2.5,0,,,
Fix,GPS,45.8071770400,8.6249119500,269.6553955078125,4.02,3.7900925,147.6,1710238507000,0.7881624,10.395338,15384207298883,2.5,0,,,
Fix,GPS,45.8071490400,8.6249444600,269.8983154296875,3.98,3.7900925,139.5,1710238508000,0.7988116,0.53649,15385207299039,2.5,0,,,
Fix,GPS,45.8071233900,8.6249804100,270.0159912109375,3.89,3.7900925,136.1,1710238509000,0.75,0.66380227,15386207298935,2.5,0,,,
Fix,GPS,45.8070980200,8.6250150000,270.1754150390625,3.82,3.7900925,136.1,1710238510000,0.7823682,0.8482328,15387207298934,2.5,0,,,
Fix,GPS,45.8070742000,8.6250503000,270.0196533203125,3.8,3.7900925,134.9,1710238511000,0.7823682,1.059574,15388207298831,2.5,0,,,
Fix,GPS,45.8070501800,8.6250849400,269.8829345703125,3.79,3.7900925,136.0,1710238512000,0.77420926,1.282259,15389207298935,2.5,0,,,
Fix,GPS,45.8070272600,8.6251236900,270.15875244140625,3.95,3.7900925,128.4,1710238513000,0.7988116,1.5104518,15390207299091,2.5,0,,,
Fix,GPS,45.8070073000,8.6251646300,270.51251220703125,3.81,3.7900925,125.2,1710238514000,0.7640026,1.7314476,15391207299404,2.5,0,,,
Fix,GPS,45.8069866200,8.6252024900,270.7423095703125,3.66,3.7900925,128.4,1710238515000,0.7823682,1.9553285,15392207299455,2.5,0,,,
Fix,GPS,45.8069652500,8.6252373500,270.75689697265625,3.53,3.7900925,129.9,1710238516000,0.76609397,2.165188,15393207299351,2.5,0,,,
Fix,GPS,45.8069474700,8.6252684800,270.63824462890625,2.95,3.7900925,126.5,1710238517000,0.846286,2.3926153,15394207299299,2.5,0,,,
Fix,GPS,45.8069321300,8.6253077300,270.73162841796875,3.42,3.7900925,120.3,1710238518000,0.82800967,2.5979784,15395207298726,2.5,0,,,
Fix,GPS,45.8069148800,8.6253471500,271.10693359375,3.46,3.7900925,123.4,1710238519000,0.75802374,2.7656424,15396207298726,2.5,0,,,
Fix,GPS,45.8068957200,8.6253855100,271.125,3.51,3.7900925,127.7,1710238520000,0.80709356,2.9600549,15397207298778,2.5,0,,,
Fix,GPS,45.8068795500,8.6254200500,270.9202880859375,3.08,3.7900925,123.0,1710238521000,0.8102469,3.1400557,15398207298570,2.5,0,,,
Fix,GPS,45.8068637900,8.6254576700,271.350830078125,3.42,3.7900925,123.3,1710238522000,0.76609397,3.2300158,15399207298726,2.5,0,,,
Fix,GPS,45.8068517500,8.6254941700,271.21856689453125,3.07,3.7900925,117.6,1710238523000,0.7905694,3.4114072,15400207299038,2.5,0,,,
Fix,GPS,45.8068420100,8.6255367600,271.177978515625,3.47,3.7900925,110.9,1710238524000,0.8440379,3.527303,15401207299039,2.5,0,,,
Fix,GPS,45.8068361600,8.6255803900,270.986083984375,3.34,3.7900925,107.2,1710238525000,0.7905694,3.6339374,15402207298935,2.5,0,,,
Fix,GPS,45.8068292400,8.6256222800,270.8885498046875,3.32,3.7900925,109.1,1710238526000,0.81271154,3.7807257,15403207298935,2.5,0,,,
Fix,GPS,45.8068218800,8.6256664200,271.08697509765625,3.43,3.7900925,107.3,1710238527000,0.75802374,3.7672992,15404207299299,2.5,0,,,
Fix,GPS,45.8068130800,8.6257096200,271.3126220703125,3.48,3.7900925,106.5,1710238528000,0.8741853,3.9482749,15405207298987,2.5,0,,,
Fix,GPS,45.8068066400,8.6257540200,271.654541015625,3.45,3.7900925,101.0,1710238529000,0.80709356,4.03624,15406207298726,2.5,0,,,
Fix,GPS,45.8068034900,8.6257970300,271.65087890625,3.3,3.7900925,98.2,1710238530000,0.76609397,4.0615134,15407207298986,2.5,0,,,
Fix,GPS,45.8068061900,8.6258410000,271.7138671875,3.37,3.7900925,85.6,1710238531000,0.82377183,4.207128,15408207298935,2.5,0,,,
Fix,GPS,45.8068189600,8.6258840800,271.49481201171875,3.43,3.7900925,70.4,1710238532000,0.86608315,4.310158,15409207298934,2.5,0,,,
Fix,GPS,45.8068401800,8.6259284100,271.19696044921875,4.0,3.7900925,63.3,1710238533000,0.7823682,4.3099976,15410207298935,2.5,0,,,
Fix,GPS,45.8068581100,8.6259786800,270.9921875,4.35,3.7900925,73.4,1710238534000,0.815414,4.3383594,15411207298935,2.5,0,,,
Fix,GPS,45.8068663300,8.6260346700,270.463134765625,4.43,3.7900925,83.5,1710238535000,0.81608826,4.313864,15412207298674,2.5,0,,,
Fix,GPS,45.8068753900,8.6260965400,270.53216552734375,4.84,3.7900925,82.3,1710238536000,0.85802096,4.277817,15413207299143,2.5,0,,,
Fix,GPS,45.8068888600,8.6261640400,270.38128662109375,5.01,3.7900925,83.7,1710238537000,0.99624294,3.9559133,15414207299091,2.5,0,,,
Fix,GPS,45.8068996000,8.6262283000,269.8759765625,4.91,3.7900925,80.3,1710238538000,0.7940403,3.5816472,15415207299351,2.5,0,,,
Fix,GPS,45.8069056500,8.6262951600,270.0322265625,5.21,3.7900925,82.7,1710238539000,0.99045444,3.3991952,15416207298883,2.5,0,,,
Fix,GPS,45.8069079900,8.6263596300,270.0107421875,5.14,3.7900925,82.5,1710238540000,1.0568823,3.304647,15417207299299,2.5,0,,,
Fix,GPS,45.8069230500,8.6264306900,270.65814208984375,5.41,3.7900925,81.2,1710238541000,1.0151354,3.2235544,15418207298675,2.5,0,,,
Fix,GPS,45.8069290800,8.6265014200,271.06231689453125,5.52,3.7900925,81.5,1710238542000,1.020784,3.1264644,15419207298935,2.5,0,,,
Fix,GPS,45.8069364700,8.6265704100,271.00360107421875,5.42,3.7900925,80.6,1710238543000,0.99864906,2.9671085,15420207298986,2.5,0,,,
Fix,GPS,45.8069456000,8.6266439300,271.07861328125,5.55,3.7900925,80.6,1710238544000,0.97416633,2.8557181,15421207298935,2.5,0,,,
Fix,GPS,45.8069551700,8.6267222100,271.83984375,5.7,3.7900925,80.4,1710238545000,0.990202,2.6377306,15422207298727,2.5,0,,,
Fix,GPS,45.8069633300,8.6267913400,271.2755126953125,5.75,3.7900925,83.7,1710238546000,0.98812956,2.5107114,15423207298778,2.5,0,,,
Fix,GPS,45.8069684800,8.6268674600,271.449462890625,5.71,3.7900925,80.5,1710238547000,1.0568349,2.3675015,15424207299039,2.5,0,,,
Fix,GPS,45.8069743300,8.6269414300,271.6580810546875,5.82,3.7900925,79.4,1710238548000,0.99864906,2.3207066,15425207298831,2.5,0,,,
Fix,GPS,45.8069822600,8.6270178400,271.48345947265625,5.76,3.7900925,81.7,1710238549000,1.1387713,11.057069,15426207299091,2.5,0,,,
Fix,GPS,45.8069886400,8.6270920600,271.453369140625,5.72,3.7900925,80.9,1710238550000,1.1177208,2.318501,15427207299091,2.5,0,,,
Fix,GPS,45.8069955700,8.6271677500,271.5888671875,5.74,3.7900925,81.0,1710238551000,1.0234256,2.3011317,15428207298986,2.5,0,,,
Fix,GPS,45.8069975900,8.6272430700,271.8157958984375,5.71,3.7900925,82.5,1710238552000,1.0404326,2.3075585,15429207298987,2.5,0,,,
Fix,GPS,45.8070088400,8.6273147000,271.7347412109375,5.65,3.7900925,81.5,1710238553000,1.0068763,2.2683403,15430207298778,2.5,0,,,
Fix,GPS,45.8070169900,8.6273904000,271.84259033203125,5.71,3.7900925,78.4,1710238554000,0.116619036,0.7652572,15431207298830,2.5,0,,,
Fix,GPS,45.8070278500,8.6274641500,272.316162109375,5.92,3.7900925,78.8,1710238555000,0.2780288,1.9356192,15432207299091,2.5,0,,,
Fix,GPS,45.8070321200,8.6275321200,272.106201171875,5.49,3.7900925,82.9,1710238556000,0.23430748,1.8404242,15433207298778,2.5,0,,,
Fix,GPS,45.8070403800,8.6276065500,272.36761474609375,5.46,3.7900925,83.1,1710238557000,0.15811388,1.1214255,15434207299143,2.5,0,,,
Fix,GPS,45.8070461100,8.6276727200,271.73236083984375,5.25,3.7900925,80.9,1710238558000,0.5161395,3.7184792,15435207298518,2.5,0,,,
Fix,GPS,45.8070543000,8.6277447100,272.1912841796875,5.6,3.7900925,81.7,1710238559000,0.17804495,1.3593878,15436207299351,2.5,0,,,
Fix,GPS,45.8070604200,8.6278153900,272.09844970703125,5.47,3.7900925,83.0,1710238560000,0.092195444,0.7745914,15437207298986,2.5,0,,,
Fix,GPS,45.8070658400,8.6278907200,272.351318359375,5.4,3.7900925,82.2,1710238561000,0.086023256,0.6748349,15438207298831,2.5,0,,,
Fix,GPS,45.8070718800,8.6279565300,271.8341064453125,5.02,3.7900925,85.4,1710238562000,0.20615529,1.7013017,15439207298987,2.5,0,,,
Fix,GPS,45.8070802200,8.6280265700,271.86151123046875,5.59,3.7900925,80.5,1710238563000,0.2701851,1.9933277,15440207298727,2.5,0,,,
Fix,GPS,45.8070860100,8.6280912500,271.629638671875,5.25,3.7900925,83.3,1710238564000,0.092195444,0.745215,15441207298987,2.5,0,,,
Fix,GPS,45.8070888200,8.6281585900,272.0213623046875,5.14,3.7900925,82.1,1710238565000,0.114017546,0.888201,15442207298831,2.5,0,,,
Fix,GPS,45.8070911600,8.6282242800,271.523193359375,5.05,3.7900925,83.6,1710238566000,0.7017834,7.5757914,15443207298831,2.5,0,,,
Fix,GPS,45.8070978600,8.6282932500,271.72564697265625,5.17,3.7900925,81.4,1710238567000,1.1337107,12.278471,15444207299143,2.5,0,,,
Fix,GPS,45.8071019200,8.6283634100,271.75189208984375,5.1,3.7900925,82.3,1710238568000,1.1661904,12.7749605,15445207299039,2.5,0,,,
Fix,GPS,45.8071031400,8.6283951400,272.11749267578125,1.4,3.7900925,79.0,1710238569000,0.2720294,7.683296,15446207299039,2.5,0,,,
Fix,GPS,45.8071058300,8.6284218600,272.490478515625,1.34,3.7900925,80.6,1710238570000,0.086023256,2.58559,15447207298779,2.5,0,,,
Fix,GPS,45.8071058200,8.6284594100,272.77703857421875,2.93,3.7900925,84.9,1710238571000,0.6661081,11.969567,15448207299247,2.5,0,,,
Fix,GPS,45.8071071500,8.6285018000,273.2403564453125,3.46,3.7900925,83.8,1710238572000,0.086023256,1.0141815,15449207299038,2.5,0,,,
Fix,GPS,45.8071135600,8.6285496000,273.1229248046875,4.04,3.7900925,82.1,1710238573000,0.086023256,0.8206683,15450207298935,2.5,0,,,
Fix,GPS,45.8071191600,8.6285964600,272.97900390625,3.85,3.7900925,80.1,1710238574000,0.75,0.7376997,15451207297998,2.5,0,,,
Fix,GPS,45.8071240000,8.6286468600,273.19744873046875,3.94,3.7900925,80.3,1710238575000,0.8840814,0.8261047,15452207298987,2.5,0,,,
Fix,GPS,45.8071280600,8.6286967400,272.7911376953125,4.1,3.7900925,82.7,1710238576000,0.76609397,0.93541706,15453207298466,2.5,0,,,
Fix,GPS,45.8071352300,8.6287439900,272.27978515625,3.77,3.7900925,79.1,1710238577000,0.85428333,1.0625004,15454207298779,2.5,0,,,
Fix,GPS,45.8071435700,8.6287992900,272.86065673828125,4.41,3.7900925,81.1,1710238578000,0.82377183,10.22044,15455207299038,2.5,0,,,
Fix,GPS,45.8071518800,8.6288580500,272.75433349609375,4.57,3.7900925,79.4,1710238579000,0.080622576,0.6122969,15456207298882,2.5,0,,,
Fix,GPS,45.8071612100,8.6289167800,272.58636474609375,4.67,3.7900925,77.7,1710238580000,0.086023256,0.69504327,15457207298726,2.5,0,,,
Fix,GPS,45.8071704400,8.6289755000,272.3802490234375,4.72,3.7900925,79.4,1710238581000,0.086023256,0.7107482,15458207298675,2.5,0,,,
Fix,GPS,45.8071769700,8.6290366000,272.2906494140625,4.81,3.7900925,82.4,1710238582000,0.09433981,0.771719,15459207298518,2.5,0,,,
Fix,GPS,45.8071843500,8.6290970600,272.43017578125,4.73,3.7900925,80.1,1710238583000,0.13038404,1.03483,15460207299038,2.5,0,,,
Fix,GPS,45.8071982800,8.6291534100,272.45513916015625,4.83,3.7900925,69.1,1710238584000,0.114017546,0.94760895,15461207298987,2.5,0,,,
Fix,GPS,45.8072186800,8.6292069700,272.6025390625,4.81,3.7900925,62.7,1710238585000,0.072111025,0.6646814,15462207299039,2.5,0,,,
Fix,GPS,45.8072366500,8.6292612300,272.294921875,4.65,3.7900925,67.4,1710238586000,0.30610457,2.6680093,15463207299456,2.5,0,,,
Fix,GPS,45.8072467300,8.6293221700,272.0361328125,4.97,3.7900925,80.1,1710238587000,0.3860052,3.044196,15464207299352,2.5,0,,,
Fix,GPS,45.8072299900,8.6293830800,272.03704833984375,5.19,3.7900925,112.5,1710238588000,0.19235384,1.234931,15465207299403,2.5,0,,,
Fix,GPS,45.8072202300,8.6294431400,271.919921875,4.8,3.7900925,107.3,1710238589000,0.1118034,0.7949982,15466207298935,2.5,0,,,
Fix,GPS,45.8072235500,8.6295068900,271.546142578125,4.94,3.7900925,83.0,1710238590000,0.26907247,2.4224465,15467207298883,2.5,0,,,
Fix,GPS,45.8072329000,8.6295696200,272.1727294921875,5.05,3.7900925,73.2,1710238591000,0.29068884,2.5121145,15468207299351,2.5,0,,,
Fix,GPS,45.8072397300,8.6296320900,272.1312255859375,4.97,3.7900925,78.3,1710238592000,0.29,2.7192638,15469207299039,2.5,0,,,
Fix,GPS,45.8072443800,8.6296951200,272.01934814453125,4.92,3.7900925,87.5,1710238593000,0.26870057,2.6033442,15470207298934,2.5,0,,,
Fix,GPS,45.8072502700,8.6297591300,271.9609375,4.85,3.7900925,84.4,1710238594000,0.286007,2.2810287,15471207299247,2.5,0,,,
Fix,GPS,45.8072554000,8.6298230900,272.060546875,4.94,3.7900925,85.5,1710238595000,0.39204592,3.234268,15472207299247,2.5,0,,,
Fix,GPS,45.8072609300,8.6298822500,271.97821044921875,4.8,3.7900925,80.4,1710238596000,0.20615529,1.7731808,15473207299404,2.5,0,,,
Fix,GPS,45.8072664900,8.6299442700,271.9903564453125,4.9,3.7900925,82.1,1710238597000,0.10816654,0.82398486,15474207299247,2.5,0,,,
Fix,GPS,45.8072738800,8.6300063800,272.000732421875,4.81,3.7900925,80.8,1710238598000,0.09433981,0.7845516,15475207299404,2.5,0,,,
Fix,GPS,45.8072831000,8.6300689600,272.1376953125,4.85,3.7900925,79.6,1710238599000,0.10816654,0.88398093,15476207299404,2.5,0,,,
Fix,GPS,45.8072921000,8.6301298300,272.09381103515625,4.68,3.7900925,79.6,1710238600000,0.30479503,2.799346,15477207299351,2.5,0,,,
Fix,GPS,45.8073012800,8.6301893000,271.9598388671875,4.66,3.7900925,79.1,1710238601000,0.31890437,2.911924,15478207299403,2.5,0,,,
Fix,GPS,45.8073102900,8.6302489800,271.8365478515625,4.73,3.7900925,78.9,1710238602000,0.22627416,2.2912853,15479207299299,2.5,0,,,
Fix,GPS,45.8073202200,8.6303066800,272.08697509765625,4.54,3.7900925,76.4,1710238603000,0.20518285,2.2101786,15480207299404,2.5,0,,,
Fix,GPS,45.8073343300,8.6303620600,272.10211181640625,4.78,3.7900925,68.9,1710238604000,0.27658632,2.4339924,15481207299195,2.5,0,,,
Fix,GPS,45.8073486000,8.6304157400,271.95916748046875,4.59,3.7900925,70.0,1710238605000,0.77420926,0.58524853,15482207299351,2.5,0,,,
Fix,GPS,45.8073615800,8.6304702600,271.93902587890625,4.63,3.7900925,70.3,1710238606000,0.7920227,0.68125445,15483207299403,2.5,0,,,
Fix,GPS,45.8073746000,8.6305270600,272.345947265625,4.62,3.7900925,70.6,1710238607000,0.7823682,0.8261038,15484207299455,2.5,0,,,
Fix,GPS,45.8073879400,8.6305803500,272.148681640625,4.49,3.7900925,68.6,1710238608000,0.77420926,0.9960161,15485207298935,2.5,0,,,
Fix,GPS,45.8074037200,8.6306320200,272.16534423828125,4.47,3.7900925,66.5,1710238609000,0.77620876,1.1773962,15486207298726,2.5,0,,,
Fix,GPS,45.8074204600,8.6306780300,271.806396484375,4.11,3.7900925,63.1,1710238610000,0.81400245,1.3707671,15487207298987,2.5,0,,,
Fix,GPS,45.8074390000,8.6307262700,272.2806396484375,4.35,3.7900925,61.8,1710238611000,0.75802374,1.5469385,15488207298726,2.5,0,,,
Fix,GPS,45.8074573100,8.6307747800,272.05316162109375,4.28,3.7900925,62.6,1710238612000,0.7905694,1.7395298,15489207299039,2.5,0,,,
Fix,GPS,45.8074763700,8.6308215700,270.96453857421875,4.2,3.7900925,60.9,1710238613000,0.77420926,1.9055071,15490207299091,2.5,0,,,
Fix,GPS,45.8074979500,8.6308689100,271.4287109375,4.37,3.7900925,57.5,1710238614000,0.7823682,2.0684042,15491207298882,2.5,0,,,
Fix,GPS,45.8075208600,8.6309154900,271.5718994140625,4.37,3.7900925,55.4,1710238615000,0.77420926,2.2398598,15492207295705,2.5,0,,,
Fix,GPS,45.8075461800,8.6309627400,271.9598388671875,4.58,3.7900925,54.5,1710238616000,0.8440379,2.398209,15493207299039,2.5,0,,,
Fix,GPS,45.8075702200,8.6310099300,272.023193359375,4.4,3.7900925,55.8,1710238617000,0.8292768,4.629179,15494207299091,2.5,0,,,
Fix,GPS,45.8075949800,8.6310557500,271.7501220703125,4.41,3.7900925,53.7,1710238618000,0.906973,11.042541,15495207298674,2.5,0,,,
Fix,GPS,45.8076188800,8.6311013400,271.831298828125,4.38,3.7900925,53.6,1710238619000,0.28017852,2.4472365,15496207299299,2.5,0,,,
Fix,GPS,45.8076442400,8.6311456600,271.365966796875,4.37,3.7900925,50.9,1710238620000,0.12529965,0.9997663,15497207298987,2.5,0,,,
Fix,GPS,45.8076694300,8.6311886900,271.0521240234375,4.25,3.7900925,52.3,1710238621000,0.116619036,0.9960686,15498207299091,2.5,0,,,
Fix,GPS,45.8076900900,8.6312355300,271.27081298828125,4.17,3.7900925,60.2,1710238622000,0.388973,4.1971626,15499207298831,2.5,0,,,
Fix,GPS,45.8077083500,8.6312816500,271.24200439453125,3.95,3.7900925,60.7,1710238623000,0.81055534,10.465866,15500207298883,2.5,0,,,
Fix,GPS,45.8077288900,8.6313290000,271.963623046875,4.26,3.7900925,59.9,1710238624000,0.75073296,8.602517,15501207298987,2.5,0,,,
Fix,GPS,45.8077486200,8.6313708900,270.806396484375,3.7,3.7900925,58.3,1710238625000,0.3701351,4.01749,15502207298987,2.5,0,,,
Fix,GPS,45.8077703000,8.6314147700,271.02667236328125,4.15,3.7900925,57.6,1710238626000,0.114017546,1.1099565,15503207299143,2.5,0,,,
Fix,GPS,45.8077902100,8.6314592000,271.2291259765625,3.95,3.7900925,58.8,1710238627000,0.086023256,0.8732128,15504207298986,2.5,0,,,
Fix,GPS,45.8078108100,8.6315016100,271.3856201171875,3.86,3.7900925,55.7,1710238628000,0.086023256,0.8675169,15505207299038,2.5,0,,,
Fix,GPS,45.8078272200,8.6315395400,270.0899658203125,3.35,3.7900925,59.1,1710238629000,0.9,6.350905,15506207299455,2.5,0,,,
Fix,GPS,45.8078407400,8.6315858600,270.49359130859375,3.85,3.7900925,67.2,1710238630000,0.83006024,5.7889485,15507207299351,2.5,0,,,
Fix,GPS,45.8078514800,8.6316374400,270.712646484375,4.07,3.7900925,71.6,1710238631000,0.8626703,5.224612,15508207298882,2.5,0,,,
Fix,GPS,45.8078547400,8.6316885400,271.4940185546875,3.67,3.7900925,85.3,1710238632000,0.99864906,5.1617064,15509207298206,2.5,0,,,
Fix,GPS,45.8078507700,8.6317387500,272.0582275390625,3.67,3.7900925,92.3,1710238633000,0.7988116,4.966992,15510207299091,2.5,0,,,
Fix,GPS,45.8078459800,8.6317852900,272.97711181640625,3.39,3.7900925,91.6,1710238634000,0.76609397,4.7586794,15511207298831,2.5,0,,,
Fix,GPS,45.8078390800,8.6318288600,273.12066650390625,3.31,3.7900925,96.4,1710238635000,0.7823682,4.68381,15512207298466,2.5,0,,,
Fix,GPS,45.8078334300,8.6318719400,273.05108642578125,3.29,3.7900925,89.2,1710238636000,0.820975,4.6055336,15513207298778,2.5,0,,,
Fix,GPS,45.8078343700,8.6319147600,273.148193359375,3.29,3.7900925,81.2,1710238637000,0.80709356,4.5692415,15514207298414,2.5,0,,,
Fix,GPS,45.8078427000,8.6319569500,273.23345947265625,3.39,3.7900925,72.8,1710238638000,0.81271154,4.406513,15515207298987,2.5,0,,,
Fix,GPS,45.8078591800,8.6319970000,273.07421875,3.52,3.7900925,59.4,1710238639000,0.7905694,4.360506,15516207299351,2.5,0,,,
Fix,GPS,45.8078843500,8.6320311900,272.845947265625,3.78,3.7900925,44.7,1710238640000,0.89872134,4.4117174,15517207298986,2.5,0,,,
Fix,GPS,45.8079170100,8.6320598100,273.0511474609375,4.04,3.7900925,38.0,1710238641000,0.7823682,4.2919216,15518207299247,2.5,0,,,
Fix,GPS,45.8079541900,8.6320792400,272.81494140625,4.3,3.7900925,27.8,1710238642000,0.7905694,4.198391,15519207298883,2.5,0,,,
Fix,GPS,45.8079929900,8.6320928800,272.7606201171875,4.3,3.7900925,23.9,1710238643000,0.82200974,3.9424748,15520207298570,2.5,0,,,
Fix,GPS,45.8080352800,8.6321071000,272.7191162109375,4.65,3.7900925,22.2,1710238644000,0.77420926,3.528068,15521207298987,2.5,0,,,
Fix,GPS,45.8080762800,8.6321251000,272.55230712890625,4.68,3.7900925,26.9,1710238645000,0.7823682,3.4626756,15522207298778,2.5,0,,,
Fix,GPS,45.8081173100,8.6321442100,272.518310546875,4.72,3.7900925,23.7,1710238646000,0.76609397,3.30733,15523207298987,2.5,0,,,
Fix,GPS,45.8081573400,8.6321675400,272.341796875,4.74,3.7900925,26.8,1710238647000,0.7905694,3.286023,15524207298883,2.5,0,,,
Fix,GPS,45.8081953900,8.6321930100,272.2423095703125,4.68,3.7900925,29.0,1710238648000,0.77420926,3.2149103,15525207298206,2.5,0,,,
Fix,GPS,45.8082330700,8.6322203000,272.05010986328125,4.79,3.7900925,29.9,1710238649000,0.7988116,3.2203653,15526207299195,2.5,0,,,
Fix,GPS,45.8082690100,8.6322526600,271.9796142578125,4.74,3.7900925,34.8,1710238650000,0.80709356,3.2255538,15527207299403,2.5,0,,,
Fix,GPS,45.8083030200,8.6322890600,271.815673828125,4.86,3.7900925,34.8,1710238651000,0.76609397,3.186419,15528207299143,2.5,0,,,
Fix,GPS,45.8083349900,8.6323291800,271.5457763671875,4.84,3.7900925,38.5,1710238652000,0.77420926,3.096706,15529207298831,2.5,0,,,
Fix,GPS,45.8083626900,8.6323762500,271.35205078125,4.91,3.7900925,46.6,1710238653000,0.815414,3.1591322,15530207299247,2.5,0,,,
Fix,GPS,45.8083897900,8.6324261800,271.3109130859375,4.96,3.7900925,47.5,1710238654000,0.7905694,3.1605573,15531207299143,2.5,0,,,
Fix,GPS,45.8084198700,8.6324699100,271.23272705078125,4.72,3.7900925,38.2,1710238655000,0.086023256,0.7389613,15532207298778,2.5,0,,,
Fix,GPS,45.8084546000,8.6325033800,271.1624755859375,4.87,3.7900925,29.1,1710238656000,0.1,0.82945734,15533207298726,2.5,0,,,
Fix,GPS,45.8084932900,8.6325225900,271.2117919921875,4.69,3.7900925,16.3,1710238657000,0.10630146,0.9777432,15534207299039,2.5,0,,,
Fix,GPS,45.8085340400,8.6325264200,271.12548828125,4.58,3.7900925,4.0,1710238658000,0.82377183,4.8374677,15535207298987,2.5,0,,,
Fix,GPS,45.8085766400,8.6325302600,271.2432861328125,4.78,3.7900925,5.3,1710238659000,0.75802374,0.8170751,15536207298934,2.5,0,,,
Fix,GPS,45.8086165000,8.6325311500,270.8687744140625,4.44,3.7900925,359.6,1710238660000,0.77420926,0.98016363,15537207299091,2.5,0,,,
Fix,GPS,45.8086554600,8.6325428200,270.67620849609375,4.5,3.7900925,12.8,1710238661000,0.82377183,1.1622403,15538207298465,2.5,0,,,
Fix,GPS,45.8086951500,8.6325586100,270.7318115234375,4.57,3.7900925,7.1,1710238662000,0.7905694,1.3481053,15539207298518,2.5,0,,,
Fix,GPS,45.8087345700,8.6325768100,270.78509521484375,4.58,3.7900925,12.1,1710238663000,0.7988116,1.5318985,15540207299404,2.5,0,,,
Fix,GPS,45.8087731100,8.6326040100,270.6754150390625,4.66,3.7900925,17.7,1710238664000,0.7905694,1.712665,15541207299039,2.5,0,,,
Fix,GPS,45.8088104300,8.6326343200,270.7432861328125,4.55,3.7900925,18.6,1710238665000,0.75802374,1.876841,15542207298778,2.5,0,,,
Fix,GPS,45.8088480400,8.6326644100,270.73236083984375,4.65,3.7900925,17.9,1710238666000,0.7640026,2.0038388,15543207298726,2.5,0,,,
Fix,GPS,45.8088858800,8.6326976100,270.808349609375,4.69,3.7900925,20.9,1710238667000,0.7988116,2.15087,15544207298882,2.5,0,,,
Fix,GPS,45.8089221800,8.6327334700,270.92047119140625,4.7,3.7900925,23.9,1710238668000,0.76609397,2.2674627,15545207298778,2.5,0,,,
Fix,GPS,45.8089581100,8.6327704800,271.119873046875,4.72,3.7900925,24.8,1710238669000,0.77420926,2.368549,15546207299247,2.5,0,,,
Fix,GPS,45.8089951200,8.6328073400,271.0103759765625,4.87,3.7900925,25.4,1710238670000,0.7824321,2.4187832,15547207299143,2.5,0,,,
Fix,GPS,45.8090308000,8.6328460200,271.17047119140625,4.84,3.7900925,28.4,1710238671000,0.77420926,2.4581559,15548207298987,2.5,0,,,
Fix,GPS,45.8090654800,8.6328858100,271.0753173828125,4.92,3.7900925,29.4,1710238672000,0.75,2.449893,15549207298622,2.5,0,,,
Fix,GPS,45.8090960400,8.6329424800,271.2103271484375,4.98,3.7900925,31.0,1710238673000,1.0317461,2.5660179,15550207298518,2.5,0,,,
Fix,GPS,45.8091313900,8.6329821500,271.2667236328125,4.97,3.7900925,31.4,1710238674000,0.99864906,2.6059566,15551207298883,2.5,0,,,
Fix,GPS,45.8091656200,8.6330225500,271.2186279296875,5.01,3.7900925,32.9,1710238675000,0.97416633,2.5945299,15552207299195,2.5,0,,,
Fix,GPS,45.8092003600,8.6330623600,271.23968505859375,4.95,3.7900925,35.4,1710238676000,0.7823682,2.5491135,15553207298986,2.5,0,,,
Fix,GPS,45.8092359800,8.6331011500,271.158447265625,5.13,3.7900925,35.9,1710238677000,0.99045444,2.587233,15554207299404,2.5,0,,,
Fix,GPS,45.8092750100,8.6331441800,271.70159912109375,5.49,3.7900925,36.5,1710238678000,1.0650822,2.6117501,15555207299091,2.5,0,,,
Fix,GPS,45.8093113600,8.6331850700,271.757080078125,5.16,3.7900925,36.1,1710238679000,1.0625441,2.6798875,15556207299403,2.5,0,,,
Fix,GPS,45.8093468400,8.6332257600,271.7059326171875,5.24,3.7900925,38.3,1710238680000,1.0733593,2.7123294,15557207299351,2.5,0,,,
Fix,GPS,45.8093791900,8.6332742200,271.52813720703125,4.95,3.7900925,39.4,1710238681000,0.76609397,2.6498156,15558207299039,2.5,0,,,
Fix,GPS,45.8094107700,8.6333158900,271.555419921875,4.97,3.7900925,39.6,1710238682000,0.75802374,2.6815755,15559207299039,2.5,0,,,
Fix,GPS,45.8094475500,8.6333566800,271.75616455078125,4.95,3.7900925,38.3,1710238683000,0.7720104,2.6499171,15560207298518,2.5,0,,,
Fix,GPS,45.8094829200,8.6334034600,271.5863037109375,5.03,3.7900925,40.5,1710238684000,1.0486182,2.7261786,15561207298987,2.5,0,,,
Fix,GPS,45.8095199300,8.6334393500,271.704345703125,5.05,3.7900925,41.1,1710238685000,1.0429286,2.7006748,15562207299091,2.5,0,,,
Fix,GPS,45.8095533900,8.6334825300,271.56500244140625,5.05,3.7900925,40.5,1710238686000,0.97416633,2.6386852,15563207299091,2.5,0,,,
Fix,GPS,45.8095880000,8.6335192300,271.5147705078125,4.94,3.7900925,39.6,1710238687000,0.75802374,2.4903646,15564207298882,2.5,0,,,
Fix,GPS,45.8096246900,8.6335603300,271.67645263671875,4.99,3.7900925,40.0,1710238688000,0.75802374,2.4135041,15565207298726,2.5,0,,,
Fix,GPS,45.8096625300,8.6336054700,271.0482177734375,5.08,3.7900925,40.3,1710238689000,1.2093387,13.424854,15566207298414,2.5,0,,,
Fix,GPS,45.8096954900,8.6336457300,271.629638671875,5.04,3.7900925,43.6,1710238690000,0.97416633,2.3798332,15567207298935,2.5,0,,,
Fix,GPS,45.8097305800,8.6336883400,271.5703125,5.0,3.7900925,44.0,1710238691000,0.986002,2.3333743,15568207298675,2.5,0,,,
Fix,GPS,45.8097632500,8.6337351300,271.82830810546875,5.0,3.7900925,43.8,1710238692000,1.05,2.3606863,15569207298205,2.5,0,,,
Fix,GPS,45.8097966900,8.6337832100,272.28765869140625,5.26,3.7900925,46.4,1710238693000,1.012571,2.3496284,15570207298622,2.5,0,,,
Fix,GPS,45.8098316400,8.6338301900,272.451904296875,5.24,3.7900925,45.1,1710238694000,0.99864906,2.297859,15571207298831,2.5,0,,,
Fix,GPS,45.8098664000,8.6338805800,272.689208984375,5.28,3.7900925,46.8,1710238695000,0.99864906,2.32103,15572207298570,2.5,0,,,
Fix,GPS,45.8098973500,8.6339310800,272.540283203125,5.18,3.7900925,47.3,1710238696000,0.97416633,2.3066375,15573207298882,2.5,0,,,
Fix,GPS,45.8099286000,8.6339811500,272.090576171875,4.87,3.7900925,48.6,1710238697000,0.8021222,2.271426,15574207298935,2.5,0,,,
Fix,GPS,45.8099531300,8.6340305000,272.21624755859375,5.1,3.7900925,51.5,1710238698000,1.0907795,2.3650882,15575207299143,2.5,0,,,
Fix,GPS,45.8099803600,8.6340809400,272.15283203125,5.21,3.7900925,53.3,1710238699000,1.0160708,2.4054039,15576207298778,2.5,0,,,
Fix,GPS,45.8100051200,8.6341361900,272.05450439453125,5.18,3.7900925,58.3,1710238700000,0.9580188,0.7114683,15577207298935,2.5,0,,,
Fix,GPS,45.8100377200,8.6341910600,271.97125244140625,5.32,3.7900925,56.8,1710238701000,0.9660745,0.7862009,15578207298830,2.5,0,,,
Fix,GPS,45.8100645700,8.6342442300,272.0482177734375,5.24,3.7900925,52.6,1710238702000,1.1337107,12.104884,15579207298465,2.5,0,,,
Fix,GPS,45.8100894700,8.6342969800,272.04620361328125,5.36,3.7900925,54.9,1710238703000,0.09433981,0.6925631,15580207298675,2.5,0,,,
Fix,GPS,45.8101193400,8.6343547900,271.9337158203125,5.32,3.7900925,53.5,1710238704000,0.39661065,4.078162,15581207298570,2.5,0,,,
Fix,GPS,45.8101434700,8.6344086600,271.93206787109375,5.26,3.7900925,56.2,1710238705000,0.54671746,5.2327237,15582207298987,2.5,0,,,
Fix,GPS,45.8101673100,8.6344659200,271.8875732421875,5.04,3.7900925,62.3,1710238706000,0.25806975,2.0102947,15583207299300,2.5,0,,,
Fix,GPS,45.8101906600,8.6345231300,271.74200439453125,5.21,3.7900925,59.0,1710238707000,1.1337107,12.191925,15584207298779,2.5,0,,,
Fix,GPS,45.8102156500,8.6345843900,271.701171875,5.23,3.7900925,60.3,1710238708000,1.1337107,12.153347,15585207298935,2.5,0,,,
Fix,GPS,45.8102381100,8.6346428300,271.65875244140625,5.08,3.7900925,60.8,1710238709000,0.18384777,1.7175347,15586207299300,2.5,0,,,
Fix,GPS,45.8102661900,8.6346967800,271.59881591796875,4.91,3.7900925,54.2,1710238710000,0.38209945,3.6994793,15587207299247,2.5,0,,,
Fix,GPS,45.8102920900,8.6347461500,271.4061279296875,4.91,3.7900925,54.0,1710238711000,0.30413812,2.9052932,15588207298987,2.5,0,,,
Fix,GPS,45.8103183300,8.6347989800,271.4354248046875,4.85,3.7900925,55.2,1710238712000,0.6661081,7.2536874,15589207298883,2.5,0,,,
Fix,GPS,45.8103371100,8.6348518500,271.40966796875,4.86,3.7900925,61.1,1710238713000,0.086023256,0.71540284,15590207298830,2.5,0,,,
Fix,GPS,45.8103585900,8.6349029400,271.17303466796875,4.85,3.7900925,59.7,1710238714000,0.092195444,0.8138889,15591207298830,2.5,0,,,
Fix,GPS,45.8103768700,8.6349580900,270.949462890625,4.83,3.7900925,65.3,1710238715000,0.27658632,2.8657393,15592207299404,2.5,0,,,
Fix,GPS,45.8103930900,8.6350157900,270.5291748046875,4.81,3.7900925,67.7,1710238716000,0.27658632,2.8729951,15593207298987,2.5,0,,,
Fix,GPS,45.8104081600,8.6350741600,270.4456787109375,4.68,3.7900925,68.9,1710238717000,0.10630146,0.9616251,15594207299091,2.5,0,,,
Fix,GPS,45.8104256600,8.6351298000,270.21051025390625,4.69,3.7900925,63.4,1710238718000,0.1,0.8629239,15595207298987,2.5,0,,,
Fix,GPS,45.8104496500,8.6351809000,270.4080810546875,4.68,3.7900925,54.7,1710238719000,0.61400324,6.817556,15596207298362,2.5,0,,,
Fix,GPS,45.8104755600,8.6352299100,270.11444091796875,4.83,3.7900925,54.3,1710238720000,0.10816654,0.8704707,15597207298778,2.5,0,,,
Fix,GPS,45.8104988300,8.6352814900,269.88128662109375,4.91,3.7900925,58.8,1710238721000,0.086023256,0.68365103,15598207299039,2.5,0,,,
Fix,GPS,45.8105200900,8.6353345300,269.7706298828125,5.04,3.7900925,56.9,1710238722000,0.072111025,0.5613127,15599207298935,2.5,0,,,
Fix,GPS,45.8105453100,8.6353891400,270.09564208984375,5.14,3.7900925,55.8,1710238723000,0.072111025,0.5853724,15600207299195,2.5,0,,,
Fix,GPS,45.8105684000,8.6354424500,270.0946044921875,5.28,3.7900925,58.2,1710238724000,0.086023256,0.67495567,15601207298622,2.5,0,,,
Fix,GPS,45.8105979300,8.6355016700,270.2877197265625,5.28,3.7900925,54.3,1710238725000,0.086023256,0.623573,15602207298675,2.5,0,,,
Fix,GPS,45.8106206300,8.6355580900,269.9571533203125,5.24,3.7900925,58.0,1710238726000,0.086023256,0.61336064,15603207299299,2.5,0,,,
Fix,GPS,45.8106477700,8.6356209100,269.97686767578125,5.36,3.7900925,61.4,1710238727000,1.0317461,0.65994847,15604207298779,2.5,0,,,
Fix,GPS,45.8106732800,8.6356823900,269.84588623046875,5.37,3.7900925,61.9,1710238728000,1.0068763,0.77153903,15605207298935,2.5,0,,,
Fix,GPS,45.8107002300,8.6357435000,269.84442138671875,5.49,3.7900925,59.5,1710238729000,0.97416633,0.90198004,15606207299456,2.5,0,,,
Fix,GPS,45.8107272000,8.6357954700,269.630615234375,5.45,3.7900925,58.9,1710238730000,0.99045444,1.0389831,15607207299351,2.5,0,,,
Fix,GPS,45.8107562100,8.6358554200,269.64208984375,5.43,3.7900925,60.1,1710238731000,0.97416633,1.1826586,15608207298882,2.5,0,,,
Fix,GPS,45.8107886600,8.6359117200,269.9241943359375,5.34,3.7900925,59.4,1710238732000,1.012571,1.3298751,15609207299195,2.5,0,,,
Fix,GPS,45.8108237600,8.6359589900,269.97186279296875,5.47,3.7900925,54.3,1710238733000,0.97416633,1.4757987,15610207298986,2.5,0,,,
Fix,GPS,45.8108564800,8.6360102300,270.350341796875,5.43,3.7900925,54.7,1710238734000,0.97416633,1.5922353,15611207298986,2.5,0,,,
Fix,GPS,45.8108910600,8.6360656600,270.50506591796875,5.38,3.7900925,53.1,1710238735000,0.97416633,1.7151815,15612207299038,2.5,0,,,
Fix,GPS,45.8109234900,8.6361202900,270.37060546875,5.32,3.7900925,54.5,1710238736000,0.9580188,1.8258741,15613207298571,2.5,0,,,
Fix,GPS,45.8109536500,8.6361708900,270.35595703125,5.26,3.7900925,55.8,1710238737000,0.99864906,1.9459177,15614207291799,2.5,0,,,
Fix,GPS,45.8109884400,8.6362196100,270.784423828125,5.26,3.7900925,53.9,1710238738000,0.9660745,2.0135095,15615207298778,2.5,0,,,
Fix,GPS,45.8110228400,8.6362659700,270.8709716796875,5.03,3.7900925,50.4,1710238739000,0.99045444,2.1369214,15616207298934,2.5,0,,,
Fix,GPS,45.8110521900,8.6363129100,270.8084716796875,4.94,3.7900925,51.8,1710238740000,0.9580188,2.2108095,15617207298987,2.5,0,,,
Fix,GPS,45.8110860600,8.6363537800,270.6163330078125,5.02,3.7900925,47.4,1710238741000,0.99864906,2.2466998,15618207298675,2.5,0,,,
Fix,GPS,45.8111182500,8.6363954700,270.5396728515625,4.98,3.7900925,47.7,1710238742000,0.95,2.2711966,15619207299403,2.5,0,,,
Fix,GPS,45.8111542600,8.6364387000,270.497802734375,5.09,3.7900925,46.6,1710238743000,0.97416633,2.2294092,15620207298466,2.5,0,,,
Fix,GPS,45.8111855800,8.6364778300,270.3057861328125,5.11,3.7900925,46.6,1710238744000,1.0234256,2.2582507,15621207298883,2.5,0,,,
Fix,GPS,45.8112167500,8.6365286200,270.299560546875,5.12,3.7900925,47.7,1710238745000,0.9580188,2.3076942,15622207298987,2.5,0,,,
Fix,GPS,45.8112508400,8.6365763500,270.2646484375,5.14,3.7900925,46.7,1710238746000,0.99045444,2.2874987,15623207297789,2.5,0,,,
