Fix,Provider,LatitudeDegrees,LongitudeDegrees,AltitudeMeters,SpeedMps,AccuracyMeters,BearingDegrees,UnixTimeMillis,SpeedAccuracyMps,BearingAccuracyDegrees,elapsedRealtimeNanos,VerticalAccuracyMeters,MockLocation,NumberOfUsedSignals,VerticalSpeedAccuracyMps,SolutionType

Fix,GPS,45.8109747800,8.6287255500,295.653076171875,0.0,3.7900925,,1710233899000,0.086023256,,10776207298987,3.793985,0,,,
Fix,GPS,45.8109747500,8.6287256400,295.6451416015625,0.0,3.7900925,,1710233900000,0.086023256,,10777207298831,3.4445724,0,,,
Fix,GPS,45.8109740600,8.6287255100,295.8284912109375,0.0,3.7900925,,1710233901000,0.086023256,,10778207298779,3.1198535,0,,,
Fix,GPS,45.8109818900,8.6287268100,295.260498046875,0.0,3.7900925,,1710233902000,0.086023256,,10779207298934,3.5898495,0,,,
Fix,GPS,45.8109811500,8.6287264900,295.4854736328125,0.0,3.7900925,,1710233903000,0.086023256,,10780207299143,3.7347016,0,,,
Fix,GPS,45.8109804500,8.6287261100,295.6927490234375,0.0,3.7900925,,1710233904000,0.086023256,,10781207299039,3.942095,0,,,
Fix,GPS,45.8109797400,8.6287258200,295.8436279296875,0.0,3.7900925,,1710233905000,0.086023256,,10782207299039,3.9621966,0,,,
Fix,GPS,45.8109796800,8.6287258600,295.77288818359375,0.0,3.7900925,,1710233906000,0.086023256,,10783207298987,3.8815315,0,,,
Fix,GPS,45.8109871400,8.6287260300,295.2236328125,0.0,3.7900925,,1710233907000,0.086023256,,10784207298883,3.6230493,0,,,
Fix,GPS,45.8109865600,8.6287258600,295.3470458984375,0.0,3.7900925,,1710233908000,0.086023256,,10785207298622,3.863304,0,,,
Fix,GPS,45.8109864700,8.6287258800,295.30615234375,0.0,3.8169637,,1710233909000,0.086023256,,10786207298882,4.040375,0,,,
Fix,GPS,45.8109858100,8.6287257700,295.4329833984375,0.0,3.7900925,,1710233910000,0.086023256,,10787207299091,3.971895,0,,,
Fix,GPS,45.8109857300,8.6287261600,295.3837890625,0.0,3.9817748,,1710233911000,0.086023256,,10788207299143,4.293565,0,,,
Fix,GPS,45.8109933600,8.6287279200,294.69573974609375,0.0,4.035574,,1710233912000,0.086023256,,10789207298935,4.483659,0,,,
Fix,GPS,45.8109933100,8.6287278900,294.6358642578125,0.0,3.870824,,1710233913000,0.086023256,,10790207299038,4.1374683,0,,,
Fix,GPS,45.8109932100,8.6287279500,294.59130859375,0.0,3.7900925,,1710233914000,0.086023256,,10791207298987,3.8664846,0,,,
Fix,GPS,45.8109932500,8.6287277200,294.5487060546875,0.0,3.7900925,,1710233915000,0.086023256,,10792207299143,3.8190877,0,,,
Fix,GPS,45.8109932600,8.6287276600,294.5179443359375,0.0,3.7900925,,1710233916000,0.086023256,,10793207298830,3.6909578,0,,,
Fix,GPS,45.8109931300,8.6287325200,292.30615234375,0.31,3.7900925,244.3,1710233917000,1.1387713,87.16805,10794207299091,3.6254928,0,,,
Fix,GPS,45.8109891200,8.6287269600,291.5882568359375,0.39,3.7900925,266.9,1710233918000,1.1337107,82.29311,10795207298622,3.4424374,0,,,
Fix,GPS,45.8109806900,8.6287155100,292.1697998046875,0.69,3.7900925,263.6,1710233919000,1.121606,9.948064,10796207299143,3.2934237,0,,,
Fix,GPS,45.8109872000,8.6286974400,291.055908203125,0.8,3.7900925,262.0,1710233920000,1.104536,10.382646,10797207298935,3.1762152,0,,,
Fix,GPS,45.8109909900,8.6286851300,290.279541015625,0.86,3.7900925,259.6,1710233921000,0.8348653,11.376345,10798207298986,2.9642005,0,,,
Fix,GPS,45.8109935000,8.6286753500,288.7960205078125,0.63,3.7900925,263.7,1710233922000,0.8487638,12.744547,10799207298935,2.783462,0,,,
Fix,GPS,45.8109964700,8.6286703500,287.1300048828125,0.32,3.7900925,270.7,1710233923000,0.84905833,14.388072,10800207299039,2.6501062,0,,,
Fix,GPS,45.8109990700,8.6286705900,287.04827880859375,0.0,3.7900925,,1710233924000,0.086023256,,10801207299091,3.1863916,0,,,
Fix,GPS,45.8109998200,8.6286738600,286.7568359375,0.0,3.7900925,,1710233925000,0.086023256,,10802207298986,3.218499,0,,,
Fix,GPS,45.8110007200,8.6286744000,286.499755859375,0.0,3.7900925,,1710233926000,0.086023256,,10803207298518,2.9575856,0,,,
Fix,GPS,45.8110050200,8.6286753600,285.2572021484375,0.0,3.7900925,,1710233927000,0.086023256,,10804207299039,2.7663093,0,,,
Fix,GPS,45.8110084500,8.6286753100,284.9925537109375,0.0,3.7900925,,1710233928000,0.086023256,,10805207298987,2.664137,0,,,
Fix,GPS,45.8110092300,8.6286772000,284.59912109375,0.0,3.7900925,,1710233929000,0.086023256,,10806207298987,2.7898555,0,,,
Fix,GPS,45.8110095900,8.6286741500,284.2933349609375,0.2,3.7900925,277.5,1710233930000,0.87091905,25.908314,10807207299143,2.7610579,0,,,
Fix,GPS,45.8110091300,8.6286684900,283.9737548828125,0.44,3.7900925,270.5,1710233931000,0.85146934,28.95952,10808207299039,2.5,0,,,
Fix,GPS,45.8110107200,8.6286614200,282.7760009765625,0.61,3.7900925,274.7,1710233932000,0.820975,7.2653875,10809207299090,2.5,0,,,
Fix,GPS,45.8110107800,8.6286538000,282.96759033203125,0.76,3.7900925,271.2,1710233933000,0.8431489,8.994946,10810207299455,2.5,0,,,
Fix,GPS,45.8110114400,8.6286442800,281.21331787109375,0.91,3.7900925,265.6,1710233934000,0.83216584,9.359674,10811207299351,2.5,0,,,
Fix,GPS,45.8110117600,8.6286304900,281.23089599609375,1.16,3.7900925,268.8,1710233935000,0.8487638,9.77063,10812207299351,2.5,0,,,
Fix,GPS,45.8110127900,8.6286163800,280.9156494140625,1.13,3.7900925,265.7,1710233936000,0.8431489,10.234049,10813207299351,2.5,0,,,
Fix,GPS,45.8110133200,8.6285989700,280.266357421875,1.41,3.7900925,266.0,1710233937000,0.84599054,13.26241,10814207298986,2.5,0,,,
Fix,GPS,45.8110144200,8.6285729100,279.386474609375,2.01,3.7900925,258.0,1710233938000,1.1560277,16.754515,10815207298882,2.5,0,,,
Fix,GPS,45.8110155600,8.6285553600,278.764892578125,1.24,3.7900925,258.0,1710233939000,0.9291394,22.387415,10816207299039,2.5,0,,,
Fix,GPS,45.8110163500,8.6285425200,277.53173828125,1.06,3.7900925,258.0,1710233940000,0.9374433,25.738537,10817207299038,2.5,0,,,
Fix,GPS,45.8110186900,8.6285327000,276.245849609375,0.95,3.7900925,258.1,1710233941000,0.840595,25.690151,10818207298518,2.5,0,,,
Fix,GPS,45.8110199000,8.6285201200,275.9608154296875,1.15,3.7900925,258.1,1710233942000,0.84599054,27.49432,10819207298675,2.5,0,,,
Fix,GPS,45.8110231100,8.6285077700,274.8095703125,1.05,3.7900925,258.2,1710233943000,0.84599054,28.748682,10820207299508,2.5,0,,,
Fix,GPS,45.8110282200,8.6284944900,273.205322265625,1.01,3.7900925,258.3,1710233944000,0.840595,29.819267,10821207299455,2.5,0,,,
Fix,GPS,45.8110302800,8.6284802300,272.44915771484375,1.09,3.7900925,258.3,1710233945000,0.840595,31.149096,10822207299403,2.5,0,,,
Fix,GPS,45.8110308200,8.6284655700,271.656982421875,1.1,3.7900925,258.3,1710233946000,0.840595,32.358955,10823207299455,2.5,0,,,
Fix,GPS,45.8110306300,8.6284508200,270.6942138671875,1.2,3.7900925,258.3,1710233947000,0.84599054,33.802612,10824207299455,2.5,0,,,
Fix,GPS,45.8110291700,8.6284357700,269.60845947265625,1.2,3.7900925,258.3,1710233948000,0.84599054,35.090973,10825207298883,2.5,0,,,
Fix,GPS,45.8110276400,8.6284227500,268.30224609375,1.05,3.7900925,258.3,1710233949000,0.840595,35.96137,10826207299247,2.5,0,,,
Fix,GPS,45.8110275800,8.6284104700,267.7852783203125,1.04,3.7900925,258.3,1710233950000,0.84905833,37.07631,10827207299195,2.5,0,,,
Fix,GPS,45.8110280800,8.6283968200,266.1412353515625,1.08,3.7900925,258.3,1710233951000,0.840595,38.33702,10828207299091,2.5,0,,,
Fix,GPS,45.8110288800,8.6283833300,265.090087890625,1.0,3.7900925,258.4,1710233952000,0.84599054,39.03826,10829207299404,2.5,0,,,
Fix,GPS,45.8110285000,8.6283678100,264.7266845703125,1.15,3.7900925,263.8,1710233953000,0.840595,37.11215,10830207299352,2.5,0,,,
Fix,GPS,45.8110284800,8.6283548700,264.0655517578125,0.94,3.7900925,258.4,1710233954000,0.85982555,40.98867,10831207299404,2.5,0,,,
Fix,GPS,45.8110308600,8.6283405700,264.20391845703125,1.12,3.7900925,272.9,1710233955000,0.85982555,38.36277,10832207299507,2.5,0,,,
Fix,GPS,45.8110324600,8.6283285900,263.9783935546875,1.04,3.7900925,269.3,1710233956000,0.84599054,40.328316,10833207299143,2.5,0,,,
Fix,GPS,45.8110338400,8.6283177400,263.776123046875,0.94,3.7900925,258.4,1710233957000,0.8544004,43.74025,10834207299352,2.5,0,,,
Fix,GPS,45.8110340800,8.6283035500,263.7701416015625,1.08,3.7900925,269.5,1710233958000,0.840595,39.257805,10835207299300,2.5062118,0,,,
Fix,GPS,45.8110340000,8.6282873000,263.50469970703125,1.3,3.7900925,266.4,1710233959000,0.84599054,33.50978,10836207299143,2.5,0,,,
Fix,GPS,45.8110313800,8.6282700800,262.8480224609375,1.32,3.7900925,261.9,1710233960000,0.90972525,35.148132,10837207299038,2.5,0,,,
Fix,GPS,45.8110304300,8.6282590700,263.00128173828125,0.83,3.7900925,258.4,1710233961000,1.0346497,50.54712,10838207299403,2.5,0,,,
Fix,GPS,45.8110306400,8.6282442800,263.2926025390625,1.24,3.7900925,264.8,1710233962000,1.0317461,40.75914,10839207299039,2.5515304,0,,,
Fix,GPS,45.8110323200,8.6282306500,263.94061279296875,1.07,3.7900925,272.2,1710233963000,1.2093387,52.870766,10840207299299,2.7879715,0,,,
Fix,GPS,45.8110372700,8.6282208000,264.921142578125,0.77,3.7900925,290.1,1710233964000,1.020833,56.988903,10841207299455,2.7152674,0,,,
Fix,GPS,45.8110435300,8.6282108100,265.9351806640625,0.89,3.7900925,293.2,1710233965000,1.0151354,51.1263,10842207299455,2.7797916,0,,,
Fix,GPS,45.8110533700,8.6282035000,266.2698974609375,1.11,3.7900925,313.6,1710233966000,0.840595,38.30343,10843207299403,2.565945,0,,,
Fix,GPS,45.8110633700,8.6282016200,266.84912109375,1.03,3.7900925,332.2,1710233967000,0.89888823,42.883522,10844207299404,2.5,0,,,
Fix,GPS,45.8110745700,8.6282001000,267.131591796875,1.22,3.7900925,342.9,1710233968000,0.84905833,35.538246,10845207299299,2.5,0,,,
Fix,GPS,45.8110856300,8.6282012100,266.9482421875,1.11,3.7900925,353.7,1710233969000,0.8544004,38.66932,10846207299455,2.5,0,,,
Fix,GPS,45.8110986100,8.6282037900,266.7476806640625,1.31,3.7900925,357.9,1710233970000,0.8544004,33.572674,10847207299143,2.5,0,,,
Fix,GPS,45.8111114500,8.6282041200,266.8916015625,1.2,3.7900925,356.0,1710233971000,0.840595,35.978855,10848207299352,2.5,0,,,
Fix,GPS,45.8111236700,8.6282023800,267.1175537109375,1.13,3.7900925,353.3,1710233972000,0.9374433,40.741962,10849207299404,2.5,0,,,
Fix,GPS,45.8111373800,8.6282002200,266.6749267578125,1.33,3.7900925,356.0,1710233973000,0.84599054,33.017483,10850207299300,2.5,0,,,
Fix,GPS,45.8111503500,8.6281997800,266.96826171875,1.24,3.7900925,356.4,1710233974000,0.840595,35.02757,10851207299143,2.5,0,,,
Fix,GPS,45.8111616200,8.6282002500,267.0133056640625,1.25,3.7900925,357.4,1710233975000,0.840595,34.735374,10852207299351,2.5,0,,,
Fix,GPS,45.8111723200,8.6281996300,267.1270751953125,1.19,3.7900925,357.9,1710233976000,0.840595,36.24548,10853207299091,2.5,0,,,
Fix,GPS,45.8111821000,8.6281968300,267.42999267578125,1.13,3.7900925,354.0,1710233977000,0.90972525,39.78877,10854207299247,2.5,0,,,
Fix,GPS,45.8111918700,8.6281949600,266.45184326171875,1.34,3.7900925,352.9,1710233978000,0.840595,32.590343,10855207299299,2.5,0,,,
Fix,GPS,45.8112030200,8.6281930700,265.6380615234375,1.54,3.7900925,354.2,1710233979000,0.840595,28.827496,10856207299247,2.5,0,,,
Fix,GPS,45.8112167000,8.6281933700,265.34722900390625,1.77,3.7900925,358.5,1710233980000,0.840595,25.497004,10857207298987,2.5,0,,,
Fix,GPS,45.8112299400,8.6281940700,264.93841552734375,1.76,3.7900925,356.8,1710233981000,0.840595,25.64493,10858207299456,2.5,0,,,
Fix,GPS,45.8112438200,8.6281948300,264.9053955078125,1.71,3.7900925,356.7,1710233982000,0.840595,26.207315,10859207299403,2.5,0,,,
Fix,GPS,45.8112601000,8.6281957300,264.91796875,1.96,3.7900925,357.7,1710233983000,0.840595,23.17431,10860207299403,2.5,0,,,
Fix,GPS,45.8112728500,8.6281977700,263.4481201171875,1.71,3.7900925,357.1,1710233984000,0.840595,26.300293,10861207299456,2.5,0,,,
Fix,GPS,45.8112861100,8.6281993100,262.55889892578125,1.67,3.7900925,358.5,1710233985000,0.840595,26.83692,10862207299143,2.5,0,,,
Fix,GPS,45.8112988800,8.6281987400,262.253173828125,1.67,3.7900925,357.1,1710233986000,0.9013878,27.997288,10863207298831,2.5,0,,,
Fix,GPS,45.8113104800,8.6281987300,261.6094970703125,1.46,3.7900925,358.7,1710233987000,0.840595,30.363682,10864207298935,2.5,0,,,
Fix,GPS,45.8113242400,8.6281990000,261.67706298828125,1.53,3.7900925,0.2,1710233988000,0.840595,29.139782,10865207298986,2.5,0,,,
Fix,GPS,45.8113393000,8.6281980600,261.8900146484375,1.57,3.7900925,357.0,1710233989000,0.840595,28.37378,10866207298987,2.5,0,,,
Fix,GPS,45.8113546300,8.6281968900,262.070068359375,1.58,3.7900925,356.8,1710233990000,0.840595,28.32302,10867207299351,2.5,0,,,
Fix,GPS,45.8113686700,8.6281971400,261.6478271484375,1.54,3.7900925,357.2,1710233991000,0.840595,28.920284,10868207299039,2.5,0,,,
Fix,GPS,45.8113839900,8.6281959100,261.8118896484375,1.63,3.7900925,355.7,1710233992000,0.840595,27.38162,10869207298570,2.5,0,,,
Fix,GPS,45.8113986400,8.6281942400,262.02880859375,1.53,3.7900925,355.2,1710233993000,0.840595,29.069166,10870207299195,2.5,0,,,
Fix,GPS,45.8114132300,8.6281934700,262.19256591796875,1.55,3.7900925,357.0,1710233994000,0.840595,28.678629,10871207299299,2.5,0,,,
Fix,GPS,45.8114276900,8.6281943100,262.8509521484375,1.6,3.7900925,358.0,1710233995000,0.840595,27.989052,10872207299143,2.5,0,,,
Fix,GPS,45.8114411700,8.6281947900,262.9874267578125,1.4,3.7900925,357.3,1710233996000,0.90972525,33.354733,10873207298726,2.5,0,,,
Fix,GPS,45.8114560100,8.6281944600,263.19384765625,1.57,3.7900925,355.0,1710233997000,0.840595,28.364517,10874207299351,2.5,0,,,
Fix,GPS,45.8114720300,8.6281953300,263.4498291015625,1.55,3.7900925,357.4,1710233998000,0.840595,28.65552,10875207299404,2.5,0,,,
Fix,GPS,45.8114851800,8.6281959000,263.5245361328125,1.25,3.7900925,356.9,1710233999000,0.840595,34.654083,10876207299091,2.5,0,,,
Fix,GPS,45.8114989600,8.6281962800,263.7041015625,1.49,3.7900925,357.3,1710234000000,0.91525954,31.648508,10877207299247,2.5,0,,,
Fix,GPS,45.8115111200,8.6281967600,263.91552734375,1.25,3.7900925,358.1,1710234001000,0.84599054,34.802944,10878207299351,2.5,0,,,
Fix,GPS,45.8115240800,8.6281984700,264.05078125,1.44,3.7900925,2.2,1710234002000,0.840595,30.645126,10879207299455,2.5,0,,,
Fix,GPS,45.8115382600,8.6281992000,263.90447998046875,1.51,3.7900925,0.5,1710234003000,0.840595,29.51579,10880207299299,2.5,0,,,
Fix,GPS,45.8115521600,8.6281971100,264.1820068359375,1.54,3.7900925,357.8,1710234004000,0.840595,28.878658,10881207298935,2.5,0,,,
Fix,GPS,45.8115662100,8.6281939300,264.4034423828125,1.58,3.7900925,356.2,1710234005000,0.840595,28.217724,10882207298727,2.5,0,,,
Fix,GPS,45.8115792700,8.6281900800,264.35113525390625,1.53,3.7900925,354.7,1710234006000,0.840595,29.01212,10883207299195,2.5,0,,,
Fix,GPS,45.8115913300,8.6281860900,264.59466552734375,1.45,3.7900925,356.4,1710234007000,0.840595,30.409101,10884207298987,2.5,0,,,
Fix,GPS,45.8116014900,8.6281822300,264.6956787109375,1.37,3.7900925,356.3,1710234008000,0.840595,32.105614,10885207298935,2.5,0,,,
Fix,GPS,45.8116114400,8.6281777400,264.7369384765625,1.4,3.7900925,357.0,1710234009000,0.840595,31.393944,10886207298778,2.5,0,,,
Fix,GPS,45.8116225200,8.6281746600,264.755615234375,1.43,3.7900925,358.9,1710234010000,0.840595,30.764727,10887207299091,2.5,0,,,
Fix,GPS,45.8116348600,8.6281728900,264.87371826171875,1.5,3.7900925,358.7,1710234011000,0.840595,29.616093,10888207299507,2.5,0,,,
Fix,GPS,45.8116470800,8.6281707300,264.7099609375,1.47,3.7900925,358.2,1710234012000,0.840595,30.146751,10889207299456,2.5,0,,,
Fix,GPS,45.8116583100,8.6281682100,264.8970947265625,1.37,3.7900925,358.9,1710234013000,0.840595,32.073696,10890207299351,2.5,0,,,
Fix,GPS,45.8116709500,8.6281659400,264.9993896484375,1.5,3.7900925,359.4,1710234014000,0.840595,29.623537,10891207299247,2.5,0,,,
Fix,GPS,45.8116823000,8.6281644200,264.950927734375,1.51,3.7900925,358.1,1710234015000,0.840595,29.3077,10892207299455,2.5,0,,,
Fix,GPS,45.8116939900,8.6281625300,265.1541748046875,1.49,3.7900925,359.2,1710234016000,0.840595,29.74489,10893207299455,2.5,0,,,
Fix,GPS,45.8117061000,8.6281600100,265.2689208984375,1.53,3.7900925,357.1,1710234017000,0.840595,29.061638,10894207299351,2.5,0,,,
Fix,GPS,45.8117177800,8.6281572600,265.27825927734375,1.48,3.7900925,356.7,1710234018000,0.840595,29.872238,10895207298206,2.5,0,,,
Fix,GPS,45.8117300300,8.6281544500,265.68707275390625,1.45,3.7900925,355.9,1710234019000,0.840595,30.415564,10896207298935,2.5,0,,,
Fix,GPS,45.8117424600,8.6281524500,265.9854736328125,1.42,3.7900925,357.5,1710234020000,0.840595,31.039669,10897207298883,2.5,0,,,
Fix,GPS,45.8117529500,8.6281518100,266.2186279296875,1.27,3.7900925,357.7,1710234021000,0.840595,34.067192,10898207298779,2.5,0,,,
Fix,GPS,45.8117630500,8.6281508400,265.84588623046875,1.19,3.7900925,359.0,1710234022000,0.840595,36.07039,10899207299352,2.5,0,,,
Fix,GPS,45.8117717400,8.6281511100,265.663330078125,1.1,3.7900925,3.0,1710234023000,0.840595,38.453987,10900207299403,2.5,0,,,
Fix,GPS,45.8117812700,8.6281539500,265.4012451171875,1.13,3.7900925,11.0,1710234024000,0.840595,37.58668,10901207298935,2.5,0,,,
Fix,GPS,45.8117898300,8.6281581900,265.4312744140625,1.14,3.7900925,15.6,1710234025000,0.8682166,38.06799,10902207299352,2.5,0,,,
Fix,GPS,45.8118004900,8.6281631400,265.56146240234375,1.32,3.7900925,19.1,1710234026000,0.840595,32.996788,10903207299508,2.5,0,,,
Fix,GPS,45.8118102600,8.6281709000,265.409423828125,1.3,3.7900925,23.5,1710234027000,0.8544004,33.667583,10904207299403,2.5,0,,,
Fix,GPS,45.8118204800,8.6281781900,265.14599609375,1.41,3.7900925,24.6,1710234028000,0.840595,31.235415,10905207299404,2.5,0,,,
Fix,GPS,45.8118316300,8.6281846200,264.947998046875,1.48,3.7900925,26.2,1710234029000,0.840595,29.849379,10906207299091,2.5,0,,,
Fix,GPS,45.8118425100,8.6281932500,264.92205810546875,1.56,3.7900925,29.7,1710234030000,0.840595,28.47099,10907207298362,2.5,0,,,
Fix,GPS,45.8118533100,8.6282043100,264.82763671875,1.63,3.7900925,34.0,1710234031000,0.840595,27.347078,10908207299143,2.5,0,,,
Fix,GPS,45.8118647100,8.6282146600,264.72210693359375,1.6,3.7900925,29.5,1710234032000,0.840595,27.841864,10909207298727,2.5,0,,,
Fix,GPS,45.8118772400,8.6282225800,264.697021484375,1.61,3.7900925,21.8,1710234033000,0.840595,27.625498,10910207298831,2.5,0,,,
Fix,GPS,45.8118896300,8.6282284700,264.4710693359375,1.58,3.7900925,16.5,1710234034000,0.840595,28.173903,10911207299039,2.5,0,,,
Fix,GPS,45.8119025900,8.6282303000,264.35003662109375,1.58,3.7900925,7.7,1710234035000,0.840595,28.151949,10912207298987,2.5,0,,,
Fix,GPS,45.8119173900,8.6282285000,264.40142822265625,1.6,3.7900925,359.3,1710234036000,0.8682166,28.519367,10913207299247,2.5,0,,,
Fix,GPS,45.8119304200,8.6282244100,264.4874267578125,1.41,3.7900925,350.9,1710234037000,0.840595,31.146038,10914207299351,2.5,0,,,
Fix,GPS,45.8119427800,8.6282171300,264.57647705078125,1.41,3.7900925,339.8,1710234038000,0.840595,31.219986,10915207299352,2.5,0,,,
Fix,GPS,45.8119539100,8.6282080200,264.38018798828125,1.4,3.7900925,329.5,1710234039000,0.840595,31.331177,10916207299403,2.5,0,,,
Fix,GPS,45.8119658300,8.6281944000,264.29888916015625,1.58,3.7900925,323.7,1710234040000,1.1733712,38.35552,10917207298883,2.5,0,,,
Fix,GPS,45.8119749900,8.6281783900,264.0279541015625,1.41,3.7900925,310.6,1710234041000,0.840595,31.19244,10918207299456,2.5,0,,,
Fix,GPS,45.8119806600,8.6281592600,263.767578125,1.44,3.7900925,299.1,1710234042000,0.840595,30.638388,10919207299143,2.5,0,,,
Fix,GPS,45.8119854700,8.6281391700,263.8182373046875,1.45,3.7900925,291.3,1710234043000,0.840595,30.528374,10920207298779,2.5,0,,,
Fix,GPS,45.8119887200,8.6281192800,264.0146484375,1.45,3.7900925,282.6,1710234044000,0.840595,30.495163,10921207298414,2.5,0,,,
Fix,GPS,45.8119912600,8.6280975500,263.8446044921875,1.55,3.7900925,277.9,1710234045000,0.840595,28.795483,10922207299196,2.5,0,,,
Fix,GPS,45.8119945300,8.6280756600,263.94647216796875,1.61,3.7900925,277.3,1710234046000,0.840595,27.786068,10923207298935,2.5,0,,,
Fix,GPS,45.8119955200,8.6280552500,263.970947265625,1.58,3.7900925,272.1,1710234047000,0.840595,28.21978,10924207298935,2.5,0,,,
Fix,GPS,45.8119937300,8.6280352900,264.00341796875,1.58,3.7900925,264.6,1710234048000,0.840595,28.140924,10925207298987,2.5,0,,,
Fix,GPS,45.8119889800,8.6280168100,263.6494140625,1.54,3.7900925,257.3,1710234049000,0.840595,28.891663,10926207298935,2.5,0,,,
Fix,GPS,45.8119814000,8.6280007600,263.4342041015625,1.56,3.7900925,247.7,1710234050000,0.840595,28.502422,10927207298883,2.5,0,,,
Fix,GPS,45.8119719900,8.6279853500,263.362060546875,1.5,3.7900925,240.1,1710234051000,0.840595,29.627493,10928207298934,2.5,0,,,
Fix,GPS,45.8119631400,8.6279734800,263.2615966796875,1.25,3.7900925,237.2,1710234052000,0.88752466,35.822678,10929207299091,2.5,0,,,
Fix,GPS,45.8119550900,8.6279627500,263.1944580078125,1.32,3.7900925,233.1,1710234053000,0.840595,33.229725,10930207299299,2.5,0,,,
Fix,GPS,45.8119461200,8.6279510200,262.85089111328125,1.43,3.7900925,231.8,1710234054000,0.840595,30.98084,10931207298934,2.5,0,,,
Fix,GPS,45.8119390200,8.6279382300,262.7779541015625,1.39,3.7900925,236.7,1710234055000,0.840595,31.7717,10932207299039,2.5,0,,,
Fix,GPS,45.8119335600,8.6279239600,262.71551513671875,1.39,3.7900925,239.0,1710234056000,0.840595,31.646233,10933207298934,2.5,0,,,
Fix,GPS,45.8119293000,8.6279084000,262.42431640625,1.47,3.7900925,246.1,1710234057000,0.840595,30.135622,10934207299039,2.5,0,,,
Fix,GPS,45.8119275200,8.6278909100,262.524169921875,1.45,3.7900925,256.0,1710234058000,0.840595,30.508272,10935207299039,2.5,0,,,
Fix,GPS,45.8119274700,8.6278713800,262.7208251953125,1.45,3.7900925,262.3,1710234059000,0.840595,30.414337,10936207298987,2.5,0,,,
Fix,GPS,45.8119279100,8.6278526100,262.6339111328125,1.42,3.7900925,264.4,1710234060000,0.840595,31.048859,10937207298986,2.5,0,,,
Fix,GPS,45.8119262400,8.6278327000,262.7611083984375,1.38,3.7900925,261.5,1710234061000,0.840595,31.740032,10938207298935,2.5,0,,,
Fix,GPS,45.8119236900,8.6278146200,262.72381591796875,1.11,3.7900925,260.0,1710234062000,0.840595,38.19295,10939207298570,2.5,0,,,
Fix,GPS,45.8119220900,8.6277992100,262.8343505859375,0.97,3.7900925,262.7,1710234063000,0.840595,42.526947,10940207298935,2.5,0,,,
Fix,GPS,45.8119221200,8.6277844800,262.91326904296875,1.07,3.7900925,264.9,1710234064000,0.8736704,40.002884,10941207298883,2.5,0,,,
Fix,GPS,45.8119208500,8.6277666700,262.6859130859375,1.26,3.7900925,262.1,1710234065000,0.840595,34.4171,10942207298883,2.5,0,,,
Fix,GPS,45.8119200200,8.6277462300,262.760498046875,1.47,3.7900925,265.2,1710234066000,0.840595,30.037092,10943207298987,2.5,0,,,
Fix,GPS,45.8119199300,8.6277245500,262.73388671875,1.56,3.7900925,268.9,1710234067000,0.840595,28.577152,10944207298987,2.5,0,,,
Fix,GPS,45.8119202200,8.6277028900,262.85589599609375,1.58,3.7900925,271.9,1710234068000,0.840595,28.234072,10945207299038,2.5,0,,,
Fix,GPS,45.8119194400,8.6276817800,263.4117431640625,1.58,3.7900925,270.1,1710234069000,0.840595,28.20878,10946207298935,2.5,0,,,
Fix,GPS,45.8119183000,8.6276593700,263.3902587890625,1.59,3.7900925,268.2,1710234070000,0.840595,27.99192,10947207299039,2.5,0,,,
Fix,GPS,45.8119165200,8.6276381400,263.93408203125,1.51,3.7900925,266.7,1710234071000,0.840595,29.332634,10948207298883,2.5,0,,,
Fix,GPS,45.8119147400,8.6276177000,263.795166015625,1.53,3.7900925,266.0,1710234072000,0.840595,28.975086,10949207298935,2.5,0,,,
Fix,GPS,45.8119148400,8.6275988400,263.44903564453125,1.57,3.7900925,267.1,1710234073000,0.840595,28.382957,10950207298935,2.5,0,,,
Fix,GPS,45.8119143900,8.6275796300,263.4739990234375,1.56,3.7900925,264.8,1710234074000,0.840595,28.430853,10951207298935,2.5,0,,,
Fix,GPS,45.8119142400,8.6275633100,263.1507568359375,1.52,3.7900925,266.8,1710234075000,0.840595,29.123968,10952207299143,2.5,0,,,
Fix,GPS,45.8119146500,8.6275462800,263.118408203125,1.54,3.7900925,267.3,1710234076000,0.840595,28.902494,10953207298986,2.5,0,,,
Fix,GPS,45.8119148000,8.6275290100,263.4678955078125,1.54,3.7900925,267.6,1710234077000,0.840595,28.801323,10954207298986,2.5,0,,,
Fix,GPS,45.8119151300,8.6275110300,262.939453125,1.58,3.7900925,267.0,1710234078000,0.840595,28.270674,10955207298882,2.5,0,,,
Fix,GPS,45.8119143700,8.6274921400,263.0128173828125,1.55,3.7900925,267.7,1710234079000,0.840595,28.617352,10956207298935,2.5,0,,,
Fix,GPS,45.8119135800,8.6274727000,263.2750244140625,1.54,3.7900925,268.5,1710234080000,0.840595,28.777126,10957207298883,2.5,0,,,
Fix,GPS,45.8119127900,8.6274529700,263.35821533203125,1.5,3.7900925,268.5,1710234081000,0.840595,29.55306,10958207298883,2.5,0,,,
Fix,GPS,45.8119110200,8.6274332700,263.20831298828125,1.5,3.7900925,267.8,1710234082000,0.840595,29.562063,10959207298882,2.5,0,,,
Fix,GPS,45.8119096900,8.6274131200,263.4573974609375,1.48,3.7900925,266.3,1710234083000,0.840595,29.810148,10960207298935,2.5,0,,,
Fix,GPS,45.8119087400,8.6273939800,263.315673828125,1.43,3.7900925,266.3,1710234084000,0.840595,30.830883,10961207298987,2.5,0,,,
Fix,GPS,45.8119080700,8.6273752200,263.1859130859375,1.4,3.7900925,267.0,1710234085000,0.840595,31.383589,10962207298987,2.5,0,,,
Fix,GPS,45.8119075600,8.6273560000,263.245849609375,1.4,3.7900925,266.1,1710234086000,0.840595,31.463781,10963207299195,2.5,0,,,
Fix,GPS,45.8119066500,8.6273362000,263.21588134765625,1.44,3.7900925,266.0,1710234087000,0.840595,30.678902,10964207299143,2.5,0,,,
Fix,GPS,45.8119054400,8.6273164800,263.3302001953125,1.45,3.7900925,265.0,1710234088000,0.840595,30.348259,10965207298779,2.5,0,,,
Fix,GPS,45.8119046400,8.6272961900,263.3536376953125,1.51,3.7900925,265.4,1710234089000,0.840595,29.422874,10966207298882,2.5,0,,,
Fix,GPS,45.8119035600,8.6272754400,263.57159423828125,1.57,3.7900925,264.8,1710234090000,0.840595,28.32242,10967207298987,2.5,0,,,
Fix,GPS,45.8119026300,8.6272553200,263.6134033203125,1.53,3.7900925,264.6,1710234091000,0.840595,29.102964,10968207299143,2.5,0,,,
Fix,GPS,45.8119010300,8.6272360700,263.66650390625,1.45,3.7900925,261.4,1710234092000,0.840595,30.416933,10969207298935,2.5,0,,,
Fix,GPS,45.8118987500,8.6272159500,263.25201416015625,1.52,3.7900925,265.8,1710234093000,0.840595,29.170536,10970207298726,2.5,0,,,
Fix,GPS,45.8118969900,8.6271964500,263.428466796875,1.51,3.7900925,266.4,1710234094000,0.840595,29.369818,10971207298987,2.5,0,,,
Fix,GPS,45.8118951500,8.6271773700,263.33477783203125,1.42,3.7900925,266.2,1710234095000,0.840595,31.097145,10972207298987,2.5,0,,,
Fix,GPS,45.8118937000,8.6271595200,263.3192138671875,1.41,3.7900925,266.4,1710234096000,0.840595,31.288113,10973207298935,2.5,0,,,
Fix,GPS,45.8118931700,8.6271406700,263.6077880859375,1.49,3.7900925,269.8,1710234097000,0.840595,29.709387,10974207298830,2.5,0,,,
Fix,GPS,45.8118933100,8.6271220300,263.5206298828125,1.45,3.7900925,267.6,1710234098000,0.840595,30.362062,10975207298622,2.5,0,,,
Fix,GPS,45.8118933600,8.6271041900,263.6522216796875,1.44,3.7900925,268.2,1710234099000,0.840595,30.61028,10976207298883,2.5,0,,,
Fix,GPS,45.8118930100,8.6270858200,263.674560546875,1.43,3.7900925,268.7,1710234100000,0.840595,30.768461,10977207298935,2.5,0,,,
Fix,GPS,45.8118924800,8.6270776200,263.87103271484375,0.47,3.7900925,271.1,1710234101000,0.840595,67.9672,10978207298674,2.5,0,,,
Fix,GPS,45.8118918600,8.6270777100,263.86724853515625,0.0,3.7900925,,1710234102000,0.080622576,,10979207298935,2.5,0,,,
Fix,GPS,45.8118924400,8.6270647900,263.6015625,1.15,3.7900925,268.3,1710234103000,0.840595,37.02602,10980207299091,2.5,0,,,
Fix,GPS,45.8118921500,8.6270409800,263.5457763671875,1.85,3.7900925,268.1,1710234104000,0.840595,24.365252,10981207298987,2.5,0,,,
Fix,GPS,45.8118910300,8.6270159700,263.6253662109375,1.86,3.7900925,266.7,1710234105000,0.840595,24.293818,10982207299091,2.5,0,,,
Fix,GPS,45.8118900900,8.6269923400,263.551025390625,1.72,3.7900925,266.6,1710234106000,0.840595,26.124178,10983207299091,2.5,0,,,
Fix,GPS,45.8118891300,8.6269695600,263.45623779296875,1.64,3.7900925,268.1,1710234107000,0.840595,27.294817,10984207299143,2.5,0,,,
Fix,GPS,45.8118878400,8.6269474300,263.4149169921875,1.6,3.7900925,266.5,1710234108000,0.840595,27.857513,10985207298674,2.5,0,,,
Fix,GPS,45.8118861000,8.6269264600,263.45184326171875,1.61,3.7900925,265.4,1710234109000,0.840595,27.713598,10986207298883,2.5,0,,,
Fix,GPS,45.8118841100,8.6269061900,263.5869140625,1.63,3.7900925,266.0,1710234110000,0.840595,27.368334,10987207298882,2.5,0,,,
Fix,GPS,45.8118826300,8.6268862000,263.3497314453125,1.56,3.7900925,268.6,1710234111000,0.840595,28.45638,10988207298935,2.5,0,,,
Fix,GPS,45.8118815900,8.6268664600,263.198486328125,1.54,3.7900925,266.9,1710234112000,0.840595,28.814888,10989207298935,2.5,0,,,
Fix,GPS,45.8118798200,8.6268459100,263.2041015625,1.56,3.7900925,265.8,1710234113000,0.840595,28.446829,10990207298987,2.5,0,,,
Fix,GPS,45.8118780400,8.6268249800,263.13763427734375,1.58,3.7900925,267.3,1710234114000,0.840595,28.109207,10991207298987,2.5,0,,,
Fix,GPS,45.8118763000,8.6268045600,263.022216796875,1.59,3.7900925,267.2,1710234115000,0.840595,28.059679,10992207298934,2.5,0,,,
Fix,GPS,45.8118742800,8.6267848400,262.7864990234375,1.56,3.7900925,267.0,1710234116000,0.840595,28.428701,10993207299091,2.5,0,,,
Fix,GPS,45.8118724400,8.6267653400,262.90570068359375,1.53,3.7900925,266.1,1710234117000,0.840595,28.93873,10994207299299,2.5,0,,,
Fix,GPS,45.8118708700,8.6267466900,266.2222900390625,1.54,3.7900925,265.4,1710234118000,0.840595,28.75468,10995207298986,2.5,0,,,
Fix,GPS,45.8118687700,8.6267275000,265.0899658203125,1.56,3.7900925,265.3,1710234119000,0.840595,28.446297,10996207299455,2.5,0,,,
Fix,GPS,45.8118667700,8.6267071900,264.5184326171875,1.56,3.7900925,267.9,1710234120000,0.840595,28.52315,10997207299351,2.5,0,,,
Fix,GPS,45.8118651600,8.6266870300,264.09259033203125,1.5,3.7900925,268.6,1710234121000,0.840595,29.448698,10998207299039,2.5,0,,,
Fix,GPS,45.8118635500,8.6266664100,263.5819091796875,1.53,3.7900925,268.0,1710234122000,0.840595,28.98705,10999207298882,2.5,0,,,
Fix,GPS,45.8118617600,8.6266470900,263.4488525390625,1.56,3.7900925,265.0,1710234123000,0.840595,28.420942,11000207298986,2.5,0,,,
Fix,GPS,45.8118599900,8.6266273600,263.14117431640625,1.53,3.7900925,265.2,1710234124000,0.840595,28.988573,11001207298831,2.5,0,,,
Fix,GPS,45.8118586900,8.6266065000,262.8681640625,1.53,3.7900925,266.9,1710234125000,0.840595,28.931824,11002207298935,2.5,0,,,
Fix,GPS,45.8118578000,8.6265852400,262.5762939453125,1.57,3.7900925,267.2,1710234126000,0.840595,28.301893,11003207299039,2.5,0,,,
Fix,GPS,45.8118566700,8.6265647000,262.52685546875,1.57,3.7900925,266.0,1710234127000,0.840595,28.268866,11004207298935,2.5,0,,,
Fix,GPS,45.8118553900,8.6265446700,262.425537109375,1.57,3.7900925,267.0,1710234128000,0.840595,28.402838,11005207298934,2.5,0,,,
Fix,GPS,45.8118549500,8.6265248100,262.3201904296875,1.53,3.7900925,268.7,1710234129000,0.840595,28.961546,11006207299091,2.5,0,,,
Fix,GPS,45.8118533700,8.6265041800,262.13873291015625,1.55,3.7900925,266.4,1710234130000,0.840595,28.692362,11007207298935,2.5,0,,,
Fix,GPS,45.8118516800,8.6264833600,261.9600830078125,1.56,3.7900925,265.1,1710234131000,0.840595,28.47143,11008207298831,2.5,0,,,
Fix,GPS,45.8118508400,8.6264619600,261.9971923828125,1.6,3.7900925,269.7,1710234132000,0.840595,27.834385,11009207298883,2.5,0,,,
Fix,GPS,45.8118511900,8.6264405400,261.960205078125,1.55,3.7900925,270.0,1710234133000,0.840595,28.718298,11010207298987,2.5,0,,,
Fix,GPS,45.8118507800,8.6264189100,261.8516845703125,1.56,3.7900925,266.4,1710234134000,0.840595,28.463081,11011207298935,2.5,0,,,
Fix,GPS,45.8118495500,8.6263983800,261.99774169921875,1.61,3.7900925,265.6,1710234135000,0.840595,27.721535,11012207298987,2.5,0,,,
Fix,GPS,45.8118489600,8.6263773500,261.953857421875,1.66,3.7900925,266.7,1710234136000,0.840595,26.972363,11013207298830,2.5,0,,,
Fix,GPS,45.8118487000,8.6263563700,261.738037109375,1.55,3.7900925,268.4,1710234137000,0.840595,28.672796,11014207298674,2.5,0,,,
Fix,GPS,45.8118474300,8.6263369000,261.584228515625,1.54,3.7900925,266.6,1710234138000,0.840595,28.80562,11015207298727,2.5,0,,,
Fix,GPS,45.8118459500,8.6263168300,261.4693603515625,1.58,3.7900925,265.8,1710234139000,0.840595,28.131193,11016207298935,2.5,0,,,
Fix,GPS,45.8118445300,8.6262949100,261.528564453125,1.64,3.7900925,266.1,1710234140000,0.840595,27.251823,11017207298622,2.5,0,,,
Fix,GPS,45.8118432200,8.6262735200,261.61541748046875,1.62,3.7900925,267.1,1710234141000,0.840595,27.586039,11018207299039,2.5,0,,,
Fix,GPS,45.8118422200,8.6262521100,261.42041015625,1.55,3.7900925,267.8,1710234142000,0.840595,28.593351,11019207298674,2.5,0,,,
Fix,GPS,45.8118415200,8.6262308600,261.47998046875,1.57,3.7900925,266.1,1710234143000,0.840595,28.300192,11020207298935,2.5,0,,,
Fix,GPS,45.8118399700,8.6262106200,261.6502685546875,1.6,3.7900925,265.7,1710234144000,0.840595,27.852312,11021207298883,2.5,0,,,
Fix,GPS,45.8118386300,8.6261899500,261.7603759765625,1.59,3.7900925,266.2,1710234145000,0.840595,27.944029,11022207299091,2.5,0,,,
Fix,GPS,45.8118377400,8.6261690700,261.65765380859375,1.6,3.7900925,266.1,1710234146000,0.840595,27.828136,11023207298987,2.5,0,,,
Fix,GPS,45.8118376700,8.6261481200,261.73486328125,1.62,3.7900925,267.5,1710234147000,0.840595,27.594982,11024207298466,2.5,0,,,
Fix,GPS,45.8118381900,8.6261280700,261.36920166015625,1.61,3.7900925,268.2,1710234148000,0.840595,27.712141,11025207298727,2.5,0,,,
Fix,GPS,45.8118384100,8.6261078900,261.54852294921875,1.58,3.7900925,264.6,1710234149000,0.840595,28.23323,11026207298882,2.5,0,,,
Fix,GPS,45.8118373000,8.6260876300,261.67388916015625,1.58,3.7900925,263.6,1710234150000,0.840595,28.23901,11027207298883,2.5,0,,,
Fix,GPS,45.8118367700,8.6260668600,261.699462890625,1.59,3.7900925,265.7,1710234151000,0.840595,28.078453,11028207299143,2.5,0,,,
Fix,GPS,45.8118370000,8.6260454300,261.767333984375,1.58,3.7900925,267.1,1710234152000,0.840595,28.173485,11029207299195,2.5,0,,,
Fix,GPS,45.8118362700,8.6260255000,261.7398681640625,1.49,3.7900925,265.0,1710234153000,0.840595,29.732643,11030207298882,2.5,0,,,
Fix,GPS,45.8118355000,8.6260061700,261.7061767578125,1.51,3.7900925,265.5,1710234154000,0.840595,29.34445,11031207298883,2.5,0,,,
Fix,GPS,45.8118353600,8.6259860100,261.3961181640625,1.53,3.7900925,267.4,1710234155000,0.840595,29.056065,11032207298831,2.5,0,,,
Fix,GPS,45.8118346400,8.6259660100,261.1605224609375,1.52,3.7900925,268.0,1710234156000,0.840595,29.156275,11033207298727,2.5,0,,,
Fix,GPS,45.8118328600,8.6259467500,261.271240234375,1.57,3.7900925,267.0,1710234157000,0.840595,28.380484,11034207299247,2.5,0,,,
Fix,GPS,45.8118318000,8.6259272300,261.43389892578125,1.53,3.7900925,266.2,1710234158000,0.840595,28.950876,11035207298935,2.5,0,,,
Fix,GPS,45.8118313800,8.6259078400,261.5562744140625,1.52,3.7900925,264.0,1710234159000,0.840595,29.217548,11036207299039,2.5,0,,,
Fix,GPS,45.8118311100,8.6258895300,261.6492919921875,1.49,3.7900925,265.5,1710234160000,0.840595,29.74934,11037207298882,2.5,0,,,
Fix,GPS,45.8118303200,8.6258715100,261.6451416015625,1.4,3.7900925,266.0,1710234161000,0.840595,31.308016,11038207298882,2.5,0,,,
Fix,GPS,45.8118299100,8.6258532700,261.7568359375,1.39,3.7900925,266.1,1710234162000,0.840595,31.502645,11039207298986,2.5,0,,,
Fix,GPS,45.8118300200,8.6258324800,261.8392333984375,1.52,3.7900925,268.9,1710234163000,0.840595,29.134403,11040207298831,2.5,0,,,
Fix,GPS,45.8118293600,8.6258129900,261.91162109375,1.46,3.7900925,269.0,1710234164000,0.840595,30.154953,11041207298883,2.5,0,,,
Fix,GPS,45.8118289600,8.6257936500,261.999267578125,1.4,3.7900925,269.4,1710234165000,0.840595,31.36092,11042207298987,2.5,0,,,
Fix,GPS,45.8118297300,8.6257756800,261.78790283203125,1.42,3.7900925,271.0,1710234166000,0.840595,31.080595,11043207298987,2.5,0,,,
Fix,GPS,45.8118278900,8.6257588300,261.5540771484375,1.34,3.7900925,264.1,1710234167000,0.840595,32.704426,11044207298883,2.5,0,,,
Fix,GPS,45.8118279400,8.6257437000,261.3250732421875,1.25,3.7900925,266.0,1710234168000,0.840595,34.730507,11045207298883,2.5,0,,,
Fix,GPS,45.8118284700,8.6257268300,261.2398681640625,1.34,3.7900925,266.6,1710234169000,0.840595,32.567886,11046207298935,2.5,0,,,
Fix,GPS,45.8118284500,8.6257079500,261.2701416015625,1.43,3.7900925,264.7,1710234170000,0.840595,30.835281,11047207298726,2.5,0,,,
Fix,GPS,45.8118280000,8.6256876500,261.30682373046875,1.47,3.7900925,265.5,1710234171000,0.840595,29.967987,11048207299039,2.5,0,,,
Fix,GPS,45.8118253100,8.6256689800,261.3621826171875,1.38,3.7900925,261.8,1710234172000,0.840595,31.71195,11049207299039,2.5,0,,,
Fix,GPS,45.8118227000,8.6256522300,261.49273681640625,1.27,3.7900925,264.8,1710234173000,0.840595,34.043434,11050207299299,2.5,0,,,
Fix,GPS,45.8118218200,8.6256339700,261.461669921875,1.4,3.7900925,268.4,1710234174000,0.840595,31.300718,11051207298986,2.5,0,,,
Fix,GPS,45.8118212100,8.6256168700,261.43658447265625,1.36,3.7900925,266.6,1710234175000,0.840595,32.191933,11052207298935,2.5,0,,,
Fix,GPS,45.8118197800,8.6255992700,261.2685546875,1.52,3.7900925,265.9,1710234176000,0.840595,29.093624,11053207298883,2.5,0,,,
Fix,GPS,45.8118185200,8.6255867400,260.957275390625,1.01,3.7900925,266.9,1710234177000,1.1250777,52.031483,11054207298987,2.5,0,,,
Fix,GPS,45.8118174800,8.6255698300,260.9752197265625,1.43,3.7900925,268.5,1710234178000,0.840595,30.817377,11055207298935,2.5,0,,,
Fix,GPS,45.8118170500,8.6255516800,260.7034912109375,1.42,3.7900925,268.5,1710234179000,0.840595,31.051884,11056207299091,2.5,0,,,
Fix,GPS,45.8118153900,8.6255328800,260.382568359375,1.37,3.7900925,268.3,1710234180000,0.840595,31.929554,11057207299091,2.5,0,,,
Fix,GPS,45.8118144100,8.6255148300,260.61883544921875,1.41,3.7900925,267.8,1710234181000,0.840595,31.19763,11058207298986,2.5,0,,,
Fix,GPS,45.8118128400,8.6254975800,260.58251953125,1.4,3.7900925,264.9,1710234182000,0.840595,31.366041,11059207298987,2.5,0,,,
Fix,GPS,45.8118112900,8.6254795700,260.48114013671875,1.49,3.7900925,266.1,1710234183000,0.840595,29.734467,11060207299039,2.5,0,,,
Fix,GPS,45.8118105000,8.6254619600,260.5150146484375,1.41,3.7900925,268.6,1710234184000,0.8736704,32.056053,11061207298934,2.5,0,,,
Fix,GPS,45.8118105500,8.6254451600,260.25714111328125,1.45,3.7900925,266.7,1710234185000,0.840595,30.500689,11062207299039,2.5,0,,,
Fix,GPS,45.8118094600,8.6254278500,260.76409912109375,1.39,3.7900925,265.3,1710234186000,1.1337107,41.486427,11063207298779,2.5,0,,,
Fix,GPS,45.8118088100,8.6254094100,260.33404541015625,1.52,3.7900925,268.1,1710234187000,0.840595,29.22586,11064207298935,2.5,0,,,
Fix,GPS,45.8118098900,8.6253910100,260.02197265625,1.53,3.7900925,267.9,1710234188000,0.840595,29.031712,11065207299143,2.5,0,,,
Fix,GPS,45.8118101100,8.6253722800,260.6676025390625,1.49,3.7900925,269.6,1710234189000,0.84599054,29.854992,11066207298883,2.5,0,,,
Fix,GPS,45.8118104600,8.6253536000,260.50079345703125,1.52,3.7900925,268.7,1710234190000,0.840595,29.176895,11067207299091,2.5,0,,,
Fix,GPS,45.8118107200,8.6253352700,260.66058349609375,1.48,3.7900925,269.3,1710234191000,0.84599054,29.92914,11068207298883,2.5,0,,,
Fix,GPS,45.8118110800,8.6253179900,260.90374755859375,1.5,3.7900925,270.7,1710234192000,0.840595,29.648554,11069207298986,2.5,0,,,
Fix,GPS,45.8118121600,8.6252990800,261.0400390625,1.52,3.7900925,271.3,1710234193000,0.840595,29.316975,11070207298935,2.5,0,,,
Fix,GPS,45.8118125700,8.6252796500,261.0269775390625,1.54,3.7900925,268.8,1710234194000,0.840595,28.913904,11071207299195,2.5,0,,,
Fix,GPS,45.8118097000,8.6252591300,261.1497802734375,1.71,3.7900925,258.4,1710234195000,0.84905833,26.333214,11072207298987,2.5,0,,,
Fix,GPS,45.8118061800,8.6252387900,261.38323974609375,1.52,3.7900925,259.3,1710234196000,0.9709789,32.915607,11073207298831,2.5,0,,,
Fix,GPS,45.8118043300,8.6252188200,261.7734375,1.54,3.7900925,261.3,1710234197000,0.840595,28.93671,11074207298934,2.5,0,,,
Fix,GPS,45.8118031200,8.6252003800,261.888916015625,1.5,3.7900925,263.6,1710234198000,0.840595,29.54967,11075207298986,2.5,0,,,
Fix,GPS,45.8118033200,8.6251818100,261.908447265625,1.49,3.7900925,266.1,1710234199000,0.840595,29.666988,11076207298935,2.5,0,,,
Fix,GPS,45.8118038300,8.6251627300,261.94366455078125,1.51,3.7900925,265.4,1710234200000,0.88752466,30.424429,11077207299143,2.5,0,,,
Fix,GPS,45.8118030700,8.6251435400,261.9168701171875,1.52,3.7900925,264.3,1710234201000,0.89587945,30.541922,11078207298987,2.5,0,,,
Fix,GPS,45.8118030000,8.6251251900,262.04046630859375,1.5,3.7900925,266.1,1710234202000,0.840595,29.561934,11079207298987,2.5,0,,,
Fix,GPS,45.8118042100,8.6251060300,262.40625,1.58,3.7900925,262.9,1710234203000,0.8682166,28.841215,11080207299299,2.5,0,,,
Fix,GPS,45.8118030300,8.6250866100,262.0611572265625,1.51,3.7900925,263.8,1710234204000,0.840595,29.44724,11081207298882,2.5,0,,,
Fix,GPS,45.8118011700,8.6250663400,261.811767578125,1.52,3.7900925,266.0,1710234205000,0.840595,29.290173,11082207299091,2.5,0,,,
Fix,GPS,45.8117994500,8.6250441000,262.16259765625,1.63,3.7900925,266.5,1710234206000,0.840595,27.388407,11083207298987,2.5,0,,,
Fix,GPS,45.8117981500,8.6250224600,262.12152099609375,1.53,3.7900925,267.0,1710234207000,0.840595,29.037643,11084207298882,2.5,0,,,
Fix,GPS,45.8117974500,8.6250021200,262.25811767578125,1.51,3.7900925,266.1,1710234208000,0.84599054,29.50619,11085207299039,2.5,0,,,
Fix,GPS,45.8117961500,8.6249824000,262.6849365234375,1.42,3.7900925,263.6,1710234209000,0.840595,30.941471,11086207298934,2.5,0,,,
Fix,GPS,45.8117951100,8.6249630900,262.83612060546875,1.51,3.7900925,263.7,1710234210000,0.9347727,31.600225,11087207299039,2.5,0,,,
Fix,GPS,45.8117951900,8.6249439800,262.868408203125,1.44,3.7900925,266.0,1710234211000,0.95131487,33.462593,11088207299195,2.5,0,,,
Fix,GPS,45.8117962100,8.6249254700,262.88800048828125,1.45,3.7900925,267.3,1710234212000,0.840595,30.491371,11089207299038,2.5,0,,,
Fix,GPS,45.8117972500,8.6249074100,262.9951171875,1.42,3.7900925,265.7,1710234213000,0.840595,31.159224,11090207298987,2.5,0,,,
Fix,GPS,45.8117985200,8.6248877800,263.03399658203125,1.55,3.7900925,266.8,1710234214000,0.8544004,28.867907,11091207298883,2.5,0,,,
Fix,GPS,45.8117993100,8.6248680700,262.96295166015625,1.54,3.7900925,268.1,1710234215000,0.85982555,29.272627,11092207299143,2.5,0,,,
Fix,GPS,45.8117999900,8.6248468600,263.013916015625,1.58,3.7900925,269.1,1710234216000,0.840595,28.339195,11093207299039,2.5,0,,,
Fix,GPS,45.8117999700,8.6248263800,262.86907958984375,1.49,3.7900925,270.7,1710234217000,0.840595,29.730453,11094207298987,2.5,0,,,
Fix,GPS,45.8118004600,8.6248069500,262.9921875,1.5,3.7900925,266.7,1710234218000,0.840595,29.574665,11095207299039,2.5,0,,,
Fix,GPS,45.8118012000,8.6247947800,263.2412109375,0.65,3.7900925,271.0,1710234219000,0.88204306,57.545746,11096207299038,2.5,0,,,
Fix,GPS,45.8118027600,8.6247921700,263.28765869140625,0.0,3.7900925,,1710234220000,0.014142135,,11097207298883,2.5,0,,,
Fix,GPS,45.8118035200,8.6247753500,263.17608642578125,1.39,3.7900925,268.6,1710234221000,0.840595,31.557444,11098207298935,2.5,0,,,
Fix,GPS,45.8118026300,8.6247466000,263.46490478515625,2.25,3.7900925,265.2,1710234222000,0.840595,20.31224,11099207298882,2.5,0,,,
Fix,GPS,45.8118018700,8.6247183000,263.4510498046875,2.08,3.7900925,266.2,1710234223000,0.840595,21.968657,11100207299091,2.5,0,,,
Fix,GPS,45.8118023500,8.6246942400,263.49322509765625,1.82,3.7900925,267.2,1710234224000,0.840595,24.806381,11101207298934,2.5,0,,,
Fix,GPS,45.8118028500,8.6246727600,263.503662109375,1.64,3.7900925,267.5,1710234225000,0.8544004,27.526297,11102207298986,2.5,0,,,
Fix,GPS,45.8118023200,8.6246513000,263.7532958984375,1.62,3.7900925,267.3,1710234226000,0.84599054,27.57218,11103207298934,2.5,0,,,
Fix,GPS,45.8118008200,8.6246296000,263.875,1.66,3.7900925,264.0,1710234227000,0.840595,26.987446,11104207298987,2.5,0,,,
Fix,GPS,45.8117982500,8.6246074500,264.1488037109375,1.63,3.7900925,265.0,1710234228000,0.840595,27.469933,11105207298570,2.5,0,,,
Fix,GPS,45.8117980600,8.6245841500,264.2606201171875,1.68,3.7900925,268.3,1710234229000,0.840595,26.670141,11106207298935,2.5,0,,,
Fix,GPS,45.8117968900,8.6245601400,263.78564453125,1.66,3.7900925,269.9,1710234230000,0.840595,26.981728,11107207299039,2.5,0,,,
Fix,GPS,45.8117967000,8.6245372100,263.78656005859375,1.61,3.7900925,268.9,1710234231000,0.840595,27.718178,11108207299091,2.5,0,,,
Fix,GPS,45.8117961400,8.6245145300,263.84478759765625,1.59,3.7900925,264.9,1710234232000,0.840595,27.945341,11109207299039,2.5,0,,,
Fix,GPS,45.8117948800,8.6244926800,264.11376953125,1.6,3.7900925,264.2,1710234233000,0.840595,27.92439,11110207299039,2.5,0,,,
Fix,GPS,45.8117933200,8.6244718500,264.3878173828125,1.55,3.7900925,262.1,1710234234000,0.840595,28.615696,11111207298987,2.5,0,,,
Fix,GPS,45.8117896000,8.6244500700,264.34503173828125,1.61,3.7900925,257.2,1710234235000,0.840595,27.683619,11112207298934,2.5,0,,,
Fix,GPS,45.8117844000,8.6244289600,263.97943115234375,1.69,3.7900925,252.9,1710234236000,0.840595,26.5607,11113207299038,2.5,0,,,
Fix,GPS,45.8117775700,8.6244081000,264.05322265625,1.8,3.7900925,246.9,1710234237000,0.840595,25.15497,11114207298987,2.5,0,,,
Fix,GPS,45.8117687900,8.6243904500,264.10638427734375,1.73,3.7900925,238.9,1710234238000,0.840595,26.088373,11115207298831,2.5,0,,,
Fix,GPS,45.8117599900,8.6243754300,264.04229736328125,1.53,3.7900925,235.5,1710234239000,0.88752466,30.182333,11116207298883,2.5,0,,,
Fix,GPS,45.8117492700,8.6243590800,263.8927001953125,1.75,3.7900925,232.9,1710234240000,0.840595,25.64646,11117207298986,2.5,0,,,
Fix,GPS,45.8117381900,8.6243431700,263.987060546875,1.75,3.7900925,232.6,1710234241000,0.840595,25.722805,11118207298986,2.5,0,,,
Fix,GPS,45.8117266000,8.6243293500,263.995849609375,1.69,3.7900925,224.4,1710234242000,0.840595,26.559774,11119207298883,2.5,0,,,
Fix,GPS,45.8117128700,8.6243199500,263.9224853515625,1.6,3.7900925,211.6,1710234243000,0.85982555,28.346638,11120207299403,2.5,0,,,
Fix,GPS,45.8116987100,8.6243163900,263.7279052734375,1.45,3.7900925,201.9,1710234244000,0.840595,30.523743,11121207299195,2.5,0,,,
Fix,GPS,45.8116835900,8.6243143800,263.9217529296875,1.62,3.7900925,195.2,1710234245000,0.840595,27.585823,11122207298935,2.5,0,,,
Fix,GPS,45.8116684200,8.6243127100,263.578369140625,1.58,3.7900925,190.3,1710234246000,0.840595,28.307829,11123207298987,2.5,0,,,
Fix,GPS,45.8116511700,8.6243121300,263.2418212890625,1.73,3.7900925,186.2,1710234247000,0.840595,26.056099,11124207298830,2.5,0,,,
Fix,GPS,45.8116339300,8.6243134100,262.86773681640625,1.76,3.7900925,181.6,1710234248000,0.840595,25.515778,11125207298674,2.5,0,,,
Fix,GPS,45.8116178600,8.6243151600,262.7208251953125,1.59,3.7900925,179.9,1710234249000,0.84599054,28.075706,11126207298987,2.5,0,,,
Fix,GPS,45.8116025300,8.6243159700,262.84136962890625,1.53,3.7900925,180.7,1710234250000,0.840595,28.94125,11127207298883,2.5,0,,,
Fix,GPS,45.8115862100,8.6243158200,262.901611328125,1.61,3.7900925,178.4,1710234251000,0.840595,27.76465,11128207299038,2.5,0,,,
Fix,GPS,45.8115707700,8.6243174500,262.95855712890625,1.59,3.7900925,176.4,1710234252000,0.840595,27.972805,11129207298935,2.5,0,,,
Fix,GPS,45.8115547200,8.6243184100,262.79833984375,1.59,3.7900925,178.2,1710234253000,0.840595,28.079067,11130207298830,2.5,0,,,
Fix,GPS,45.8115385500,8.6243182400,262.86883544921875,1.54,3.7900925,178.7,1710234254000,0.840595,28.784565,11131207298882,2.5,0,,,
Fix,GPS,45.8115224100,8.6243175900,262.7552490234375,1.56,3.7900925,179.8,1710234255000,0.840595,28.441656,11132207298726,2.5,0,,,
Fix,GPS,45.8115063200,8.6243172100,262.622314453125,1.56,3.7900925,179.5,1710234256000,0.840595,28.624891,11133207298987,2.5,0,,,
Fix,GPS,45.8114905200,8.6243181900,262.2144775390625,1.58,3.7900925,178.3,1710234257000,0.840595,28.114927,11134207298830,2.5,0,,,
Fix,GPS,45.8114741900,8.6243201800,262.12677001953125,1.63,3.7900925,176.7,1710234258000,0.840595,27.425875,11135207298779,2.5,0,,,
Fix,GPS,45.8114586400,8.6243214300,262.052978515625,1.52,3.7900925,180.4,1710234259000,0.840595,29.179358,11136207298987,2.5,0,,,
Fix,GPS,45.8114437900,8.6243211500,261.7210693359375,1.45,3.7900925,181.8,1710234260000,0.840595,30.568827,11137207298934,2.5,0,,,
Fix,GPS,45.8114292300,8.6243238600,261.01519775390625,1.53,3.7900925,177.8,1710234261000,0.840595,28.946995,11138207299091,2.5,0,,,
Fix,GPS,45.8114137000,8.6243251100,260.9208984375,1.59,3.7900925,176.4,1710234262000,0.840595,27.958935,11139207298987,2.5,0,,,
Fix,GPS,45.8113996500,8.6243258200,260.4696044921875,1.53,3.7900925,177.6,1710234263000,0.840595,29.03273,11140207299038,2.5,0,,,
Fix,GPS,45.8113861700,8.6243262100,260.2841796875,1.56,3.7900925,176.2,1710234264000,0.840595,28.549051,11141207298986,2.5,0,,,
Fix,GPS,45.8113728900,8.6243269000,260.18011474609375,1.53,3.7900925,176.8,1710234265000,0.8544004,29.330664,11142207298935,2.5,0,,,
Fix,GPS,45.8113595500,8.6243261700,260.29473876953125,1.51,3.7900925,181.8,1710234266000,0.8653323,29.750095,11143207298674,2.5,0,,,
Fix,GPS,45.8113455600,8.6243244900,260.587158203125,1.57,3.7900925,183.1,1710234267000,0.840595,28.26556,11144207298934,2.5,0,,,
Fix,GPS,45.8113297700,8.6243245900,260.794189453125,1.66,3.7900925,181.7,1710234268000,0.840595,27.103582,11145207298934,2.5,0,,,
Fix,GPS,45.8113154300,8.6243253800,260.88330078125,1.52,3.7900925,180.3,1710234269000,0.840595,29.130981,11146207299039,2.5,0,,,
Fix,GPS,45.8113005600,8.6243288500,260.947265625,1.57,3.7900925,175.8,1710234270000,0.840595,28.359846,11147207298987,2.5,0,,,
Fix,GPS,45.8112858100,8.6243328100,261.211181640625,1.55,3.7900925,174.9,1710234271000,0.840595,28.709938,11148207298831,2.5,0,,,
Fix,GPS,45.8112728000,8.6243357400,261.1845703125,1.36,3.7900925,175.2,1710234272000,0.88204306,33.316616,11149207298987,2.5,0,,,
Fix,GPS,45.8112587400,8.6243383100,261.362060546875,1.56,3.7900925,177.8,1710234273000,0.840595,28.513775,11150207298830,2.5,0,,,
Fix,GPS,45.8112437800,8.6243397100,261.48883056640625,1.6,3.7900925,177.2,1710234274000,0.840595,27.81538,11151207298830,2.5,0,,,
Fix,GPS,45.8112302200,8.6243421600,261.516357421875,1.53,3.7900925,174.6,1710234275000,0.840595,29.094038,11152207298934,2.5,0,,,
Fix,GPS,45.8112163600,8.6243445500,261.50347900390625,1.57,3.7900925,175.7,1710234276000,0.8682166,29.141552,11153207298674,2.5,0,,,
Fix,GPS,45.8112029600,8.6243466300,261.6025390625,1.47,3.7900925,176.4,1710234277000,0.840595,30.003157,11154207298883,2.5,0,,,
Fix,GPS,45.8111886300,8.6243485200,261.625244140625,1.56,3.7900925,177.0,1710234278000,0.840595,28.438137,11155207298987,2.5,0,,,
Fix,GPS,45.8111732900,8.6243503300,261.026611328125,1.54,3.7900925,173.6,1710234279000,0.840595,28.909176,11156207299091,2.5,0,,,
Fix,GPS,45.8111573600,8.6243528500,261.1563720703125,1.64,3.7900925,174.0,1710234280000,0.840595,27.175285,11157207298935,2.5,0,,,
Fix,GPS,45.8111429600,8.6243549900,261.12396240234375,1.5,3.7900925,176.4,1710234281000,0.840595,29.48052,11158207298987,2.5,0,,,
Fix,GPS,45.8111284000,8.6243568300,260.83843994140625,1.54,3.7900925,173.9,1710234282000,0.840595,28.838917,11159207299143,2.5,0,,,
Fix,GPS,45.8111142000,8.6243592600,260.7747802734375,1.53,3.7900925,174.5,1710234283000,0.840595,29.057753,11160207298830,2.5,0,,,
Fix,GPS,45.8110999700,8.6243618200,261.0164794921875,1.54,3.7900925,175.3,1710234284000,0.840595,28.798557,11161207299143,2.5,0,,,
Fix,GPS,45.8110855500,8.6243639200,260.8233642578125,1.52,3.7900925,174.0,1710234285000,0.840595,29.18491,11162207299247,2.5,0,,,
Fix,GPS,45.8110712000,8.6243655900,260.5621337890625,1.54,3.7900925,176.4,1710234286000,0.840595,28.826178,11163207298987,2.5,0,,,
Fix,GPS,45.8110564800,8.6243666800,260.3646240234375,1.64,3.7900925,177.1,1710234287000,0.840595,27.270367,11164207298987,2.5,0,,,
Fix,GPS,45.8110425400,8.6243676700,260.556884765625,1.51,3.7900925,176.6,1710234288000,0.8544004,29.524784,11165207298726,2.5,0,,,
Fix,GPS,45.8110294500,8.6243687800,259.916748046875,1.44,3.7900925,177.1,1710234289000,0.88481635,31.0918,11166207298830,2.5,0,,,
Fix,GPS,45.8110161400,8.6243698400,259.734619140625,1.5,3.7900925,176.7,1710234290000,0.840595,29.464518,11167207298935,2.5,0,,,
Fix,GPS,45.8110019500,8.6243711500,259.8477783203125,1.54,3.7900925,174.6,1710234291000,0.840595,28.806469,11168207298414,2.5,0,,,
Fix,GPS,45.8109887600,8.6243718500,259.7490234375,1.52,3.7900925,178.7,1710234292000,0.840595,29.237486,11169207298987,2.5,0,,,
Fix,GPS,45.8109760800,8.6243726400,259.81585693359375,1.51,3.7900925,179.1,1710234293000,0.840595,29.376217,11170207299456,2.5,0,,,
Fix,GPS,45.8109620800,8.6243727800,260.1939697265625,1.58,3.7900925,175.0,1710234294000,0.840595,28.151999,11171207298830,2.5,0,,,
Fix,GPS,45.8109491100,8.6243730900,260.11181640625,1.53,3.7900925,175.7,1710234295000,0.840595,29.105608,11172207299039,2.5,0,,,
Fix,GPS,45.8109360700,8.6243728700,260.2894287109375,1.54,3.7900925,176.7,1710234296000,0.840595,28.919567,11173207298934,2.5,0,,,
Fix,GPS,45.8109221200,8.6243719700,260.7391357421875,1.6,3.7900925,179.8,1710234297000,0.840595,27.943495,11174207298987,2.5,0,,,
Fix,GPS,45.8109079500,8.6243707700,260.75250244140625,1.61,3.7900925,178.9,1710234298000,0.840595,27.727352,11175207298883,2.5,0,,,
Fix,GPS,45.8108945100,8.6243712800,260.6455078125,1.54,3.7900925,177.3,1710234299000,0.840595,28.892103,11176207298934,2.5,0,,,
Fix,GPS,45.8108808100,8.6243721700,260.83758544921875,1.56,3.7900925,176.7,1710234300000,0.840595,28.443216,11177207298882,2.5,0,,,
Fix,GPS,45.8108673700,8.6243713700,261.216552734375,1.49,3.7900925,176.6,1710234301000,0.840595,29.752502,11178207299352,2.5,0,,,
Fix,GPS,45.8108649800,8.6243696300,261.14923095703125,0.0,3.7900925,,1710234302000,0.840595,,11179207299143,2.5,0,,,
Fix,GPS,45.8108613100,8.6243675400,261.3419189453125,0.62,3.7900925,181.8,1710234303000,0.840595,58.14594,11180207299039,2.5,0,,,
Fix,GPS,45.8108489200,8.6243685800,261.710693359375,1.53,3.7900925,173.4,1710234304000,0.840595,29.08203,11181207298883,2.5,0,,,
Fix,GPS,45.8108342600,8.6243700200,261.26019287109375,1.74,3.7900925,173.8,1710234305000,0.85982555,26.113636,11182207298622,2.5,0,,,
Fix,GPS,45.8108199200,8.6243703300,261.07550048828125,1.64,3.7900925,177.6,1710234306000,0.840595,27.235252,11183207299039,2.5,0,,,
Fix,GPS,45.8108061900,8.6243709400,261.41339111328125,1.62,3.7900925,177.7,1710234307000,0.85982555,27.891638,11184207299143,2.5,0,,,
Fix,GPS,45.8107928000,8.6243724300,261.41680908203125,1.52,3.7900925,175.4,1710234308000,0.840595,29.107374,11185207298934,2.5,0,,,
Fix,GPS,45.8107790100,8.6243724400,261.5260009765625,1.51,3.7900925,177.3,1710234309000,0.840595,29.39965,11186207298882,2.5,0,,,
Fix,GPS,45.8107646100,8.6243718900,261.48876953125,1.59,3.7900925,178.9,1710234310000,0.840595,28.059938,11187207298518,2.5,0,,,
Fix,GPS,45.8107507400,8.6243726700,261.306884765625,1.53,3.7900925,176.2,1710234311000,0.840595,28.959373,11188207298883,2.5,0,,,
Fix,GPS,45.8107374800,8.6243746700,260.99810791015625,1.47,3.7900925,175.9,1710234312000,0.84599054,30.090197,11189207298675,2.5,0,,,
Fix,GPS,45.8107235900,8.6243760300,260.93438720703125,1.57,3.7900925,175.4,1710234313000,0.840595,28.37597,11190207299039,2.5,0,,,
Fix,GPS,45.8107101300,8.6243752300,260.6446533203125,1.6,3.7900925,175.0,1710234314000,0.840595,27.822346,11191207298987,2.5,0,,,
Fix,GPS,45.8106956700,8.6243748600,260.6251220703125,1.63,3.7900925,177.1,1710234315000,0.840595,27.349894,11192207299039,2.5,0,,,
Fix,GPS,45.8106811100,8.6243731000,260.48870849609375,1.58,3.7900925,182.3,1710234316000,0.840595,28.266804,11193207298727,2.5,0,,,
Fix,GPS,45.8106678200,8.6243726500,260.229736328125,1.44,3.7900925,177.6,1710234317000,0.840595,30.594322,11194207298987,2.5,0,,,
Fix,GPS,45.8106534900,8.6243749400,260.49981689453125,1.55,3.7900925,175.9,1710234318000,0.840595,28.632147,11195207299091,2.5,0,,,
Fix,GPS,45.8106394500,8.6243753400,260.6156005859375,1.55,3.7900925,177.4,1710234319000,0.840595,28.742676,11196207299143,2.5,0,,,
Fix,GPS,45.8106246400,8.6243755700,260.88909912109375,1.56,3.7900925,175.3,1710234320000,0.8736704,29.109573,11197207299091,2.5,0,,,
Fix,GPS,45.8106106500,8.6243785300,260.79766845703125,1.55,3.7900925,174.8,1710234321000,0.840595,28.778568,11198207298987,2.5,0,,,
Fix,GPS,45.8105957100,8.6243809900,260.60186767578125,1.51,3.7900925,175.8,1710234322000,0.840595,29.311436,11199207298935,2.5,0,,,
Fix,GPS,45.8105817500,8.6243831600,260.6781005859375,1.53,3.7900925,178.2,1710234323000,0.840595,29.044748,11200207298986,2.5,0,,,
Fix,GPS,45.8105672300,8.6243844900,260.68316650390625,1.53,3.7900925,177.3,1710234324000,0.840595,28.942114,11201207298935,2.5,0,,,
Fix,GPS,45.8105533000,8.6243861500,260.350830078125,1.49,3.7900925,176.6,1710234325000,0.840595,29.679487,11202207298987,2.5,0,,,
Fix,GPS,45.8105391800,8.6243875200,260.44281005859375,1.5,3.7900925,178.1,1710234326000,0.840595,29.510706,11203207299039,2.5,0,,,
Fix,GPS,45.8105266100,8.6243877300,260.64788818359375,1.43,3.7900925,177.9,1710234327000,0.88481635,31.667824,11204207299143,2.5,0,,,
Fix,GPS,45.8105126100,8.6243890100,260.49853515625,1.58,3.7900925,176.2,1710234328000,0.84905833,28.311577,11205207298934,2.5,0,,,
Fix,GPS,45.8104978800,8.6243910900,260.1937255859375,1.55,3.7900925,174.4,1710234329000,0.840595,28.74733,11206207298883,2.5,0,,,
Fix,GPS,45.8104834000,8.6243928600,260.2513427734375,1.6,3.7900925,175.2,1710234330000,0.840595,27.917986,11207207298674,2.5,0,,,
Fix,GPS,45.8104689700,8.6243935400,260.3297119140625,1.52,3.7900925,175.5,1710234331000,0.840595,29.205996,11208207298934,2.5,0,,,
Fix,GPS,45.8104557300,8.6243941900,260.28076171875,1.38,3.7900925,177.6,1710234332000,0.840595,31.917217,11209207299143,2.5,0,,,
Fix,GPS,45.8104432800,8.6243952600,260.43353271484375,1.37,3.7900925,174.8,1710234333000,0.9374433,34.74236,11210207298830,2.5,0,,,
Fix,GPS,45.8104302000,8.6243970300,260.57440185546875,1.43,3.7900925,175.1,1710234334000,0.840595,30.915901,11211207298830,2.5,0,,,
Fix,GPS,45.8104155300,8.6243994200,260.53125,1.62,3.7900925,175.9,1710234335000,0.840595,27.642204,11212207298986,2.5,0,,,
Fix,GPS,45.8104006600,8.6244027100,260.6517333984375,1.57,3.7900925,175.0,1710234336000,0.88752466,29.427515,11213207299195,2.5,0,,,
Fix,GPS,45.8103882900,8.6244076900,260.4324951171875,1.34,3.7900925,175.0,1710234337000,0.9265528,34.536427,11214207298831,2.5,0,,,
Fix,GPS,45.8103751600,8.6244116100,260.76708984375,1.46,3.7900925,176.9,1710234338000,0.84599054,30.216644,11215207298674,2.5,0,,,
Fix,GPS,45.8103606500,8.6244134900,260.8485107421875,1.63,3.7900925,179.7,1710234339000,0.840595,27.455288,11216207298987,2.5,0,,,
Fix,GPS,45.8103435500,8.6244137300,261.0211181640625,1.62,3.7900925,180.6,1710234340000,0.840595,27.478659,11217207299039,2.5,0,,,
Fix,GPS,45.8103280700,8.6244146300,260.80059814453125,1.4,3.7900925,180.0,1710234341000,0.840595,31.378283,11218207298934,2.5,0,,,
Fix,GPS,45.8103132800,8.6244169500,260.77685546875,1.52,3.7900925,176.6,1710234342000,0.840595,29.150742,11219207298622,2.5,0,,,
Fix,GPS,45.8102994500,8.6244187000,260.6263427734375,1.41,3.7900925,176.0,1710234343000,0.840595,31.174702,11220207298934,2.5,0,,,
Fix,GPS,45.8102849200,8.6244188500,260.67303466796875,1.47,3.7900925,177.8,1710234344000,0.840595,30.122463,11221207298674,2.5,0,,,
Fix,GPS,45.8102718900,8.6244184800,260.36712646484375,1.37,3.7900925,179.8,1710234345000,0.88752466,32.912724,11222207298830,2.5,0,,,
Fix,GPS,45.8102576400,8.6244177200,260.3336181640625,1.54,3.7900925,184.1,1710234346000,0.840595,28.815334,11223207298987,2.5,0,,,
Fix,GPS,45.8102425400,8.6244166500,260.22119140625,1.52,3.7900925,182.3,1710234347000,0.840595,29.258833,11224207299143,2.5,0,,,
Fix,GPS,45.8102280300,8.6244172400,260.42913818359375,1.52,3.7900925,179.7,1710234348000,0.8544004,29.272545,11225207298883,2.5,0,,,
Fix,GPS,45.8102133600,8.6244187600,260.3497314453125,1.53,3.7900925,183.5,1710234349000,0.840595,29.00893,11226207299091,2.5,0,,,
Fix,GPS,45.8101991600,8.6244206900,260.36395263671875,1.46,3.7900925,180.4,1710234350000,0.840595,30.31578,11227207298987,2.5,0,,,
Fix,GPS,45.8101848200,8.6244228500,260.52203369140625,1.49,3.7900925,181.6,1710234351000,0.840595,29.690453,11228207298831,2.5,0,,,
Fix,GPS,45.8101695300,8.6244245100,260.680908203125,1.64,3.7900925,177.9,1710234352000,0.90972525,28.981333,11229207299039,2.5,0,,,
Fix,GPS,45.8101572500,8.6244270800,260.396484375,1.37,3.7900925,178.7,1710234353000,0.840595,32.021145,11230207299039,2.5,0,,,
Fix,GPS,45.8101433200,8.6244298100,260.31317138671875,1.54,3.7900925,173.9,1710234354000,0.840595,28.842089,11231207298935,2.5,0,,,
Fix,GPS,45.8101297900,8.6244340900,260.2945556640625,1.48,3.7900925,175.9,1710234355000,0.840595,29.943262,11232207298935,2.5,0,,,
Fix,GPS,45.8101157400,8.6244340800,260.4000244140625,1.49,3.7900925,180.9,1710234356000,0.840595,29.682295,11233207298466,2.5,0,,,
