$GPRMC,150735.00,A,4548.66391,N,00837.72506,E,0.071,,110324,,,A*7A

$GPRMC,150735.10,A,4548.66389,N,00837.72505,E,0.112,,110324,,,A*75

$GPRMC,150735.20,A,4548.66389,N,00837.72506,E,0.068,,110324,,,A*79

$GPRMC,150735.30,A,4548.66390,N,00837.72507,E,0.026,,110324,,,A*7B

$GPRMC,150735.40,A,4548.66390,N,00837.72507,E,0.072,,110324,,,A*7D

$GPRMC,150735.50,A,4548.66390,N,00837.72508,E,0.054,,110324,,,A*77

$GPRMC,150735.60,A,4548.66390,N,00837.72509,E,0.067,,110324,,,A*75

$GPRMC,150735.70,A,4548.66390,N,00837.72509,E,0.061,,110324,,,A*72

$GPRMC,150735.80,A,4548.66390,N,00837.72510,E,0.078,,110324,,,A*7D

$GPRMC,150735.90,A,4548.66390,N,00837.72511,E,0.059,,110324,,,A*7E

$GPRMC,150736.00,A,4548.66391,N,00837.72512,E,0.098,,110324,,,A*7B

$GPRMC,150736.10,A,4548.66390,N,00837.72512,E,0.030,,110324,,,A*79

$GPRMC,150736.20,A,4548.66391,N,00837.72514,E,0.114,,110324,,,A*7A

$GPRMC,150736.30,A,4548.66391,N,00837.72514,E,0.055,,110324,,,A*7F

$GPRMC,150736.40,A,4548.66391,N,00837.72514,E,0.055,,110324,,,A*78

$GPRMC,150736.50,A,4548.66392,N,00837.72515,E,0.019,,110324,,,A*73

$GPRMC,150736.60,A,4548.66392,N,00837.72515,E,0.061,,110324,,,A*7F

$GPRMC,150736.70,A,4548.66391,N,00837.72515,E,0.156,,110324,,,A*78

$GPRMC,150736.80,A,4548.66392,N,00837.72515,E,0.130,,110324,,,A*74

$GPRMC,150736.90,A,4548.66392,N,00837.72515,E,0.278,,110324,,,A*7A

$GPRMC,150737.00,A,4548.66391,N,00837.72515,E,0.335,,110324,,,A*79

$GPRMC,150737.10,A,4548.66391,N,00837.72516,E,0.204,,110324,,,A*78

$GPRMC,150737.20,A,4548.66391,N,00837.72516,E,0.188,,110324,,,A*7C

$GPRMC,150737.30,A,4548.66390,N,00837.72515,E,0.237,,110324,,,A*78

$GPRMC,150737.40,A,4548.66391,N,00837.72516,E,0.114,,110324,,,A*7F

$GPRMC,150737.50,A,4548.66392,N,00837.72515,E,0.060,,110324,,,A*7C

$GPRMC,150737.60,A,4548.66393,N,00837.72515,E,0.106,,110324,,,A*7F

$GPRMC,150737.70,A,4548.66393,N,00837.72515,E,0.062,,110324,,,A*7D

$GPRMC,150737.80,A,4548.66394,N,00837.72515,E,0.102,,110324,,,A*72

$GPRMC,150737.90,A,4548.66394,N,00837.72515,E,0.135,,110324,,,A*77

$GPRMC,150738.00,A,4548.66395,N,00837.72516,E,0.074,,110324,,,A*77

$GPRMC,150738.10,A,4548.66395,N,00837.72516,E,0.101,,110324,,,A*75

$GPRMC,150738.20,A,4548.66395,N,00837.72516,E,0.064,,110324,,,A*74

$GPRMC,150738.30,A,4548.66395,N,00837.72516,E,0.097,,110324,,,A*79

$GPRMC,150738.40,A,4548.66396,N,00837.72515,E,0.110,,110324,,,A*70

$GPRMC,150738.50,A,4548.66397,N,00837.72516,E,0.049,,110324,,,A*7E

$GPRMC,150738.60,A,4548.66398,N,00837.72516,E,0.034,,110324,,,A*78

$GPRMC,150738.70,A,4548.66399,N,00837.72516,E,0.083,,110324,,,A*74

$GPRMC,150738.80,A,4548.66399,N,00837.72516,E,0.029,,110324,,,A*7B

$GPRMC,150738.90,A,4548.66400,N,00837.72515,E,0.087,,110324,,,A*7A

$GPRMC,150739.00,A,4548.66401,N,00837.72516,E,0.050,,110324,,,A*7A

$GPRMC,150739.10,A,4548.66402,N,00837.72517,E,0.020,,110324,,,A*7E

$GPRMC,150739.20,A,4548.66402,N,00837.72517,E,0.025,,110324,,,A*78

$GPRMC,150739.30,A,4548.66403,N,00837.72517,E,0.082,,110324,,,A*75

$GPRMC,150739.40,A,4548.66404,N,00837.72517,E,0.065,,110324,,,A*7C

$GPRMC,150739.50,A,4548.66405,N,00837.72518,E,0.029,,110324,,,A*7B

$GPRMC,150739.60,A,4548.66406,N,00837.72518,E,0.077,,110324,,,A*70

$GPRMC,150739.70,A,4548.66407,N,00837.72519,E,0.081,,110324,,,A*78

$GPRMC,150739.80,A,4548.66407,N,00837.72520,E,0.039,,110324,,,A*7E

$GPRMC,150739.90,A,4548.66408,N,00837.72520,E,0.076,,110324,,,A*7B

$GPRMC,150740.00,A,4548.66409,N,00837.72521,E,0.102,,110324,,,A*7E

$GPRMC,150740.10,A,4548.66409,N,00837.72521,E,0.159,,110324,,,A*71

$GPRMC,150740.20,A,4548.66410,N,00837.72522,E,0.122,,110324,,,A*75

$GPRMC,150740.30,A,4548.66410,N,00837.72523,E,0.111,,110324,,,A*75

$GPRMC,150740.40,A,4548.66410,N,00837.72523,E,0.146,,110324,,,A*70

$GPRMC,150740.50,A,4548.66412,N,00837.72525,E,0.041,,110324,,,A*73

$GPRMC,150740.60,A,4548.66412,N,00837.72526,E,0.042,,110324,,,A*70

$GPRMC,150740.70,A,4548.66412,N,00837.72526,E,0.128,,110324,,,A*7C

$GPRMC,150740.80,A,4548.66413,N,00837.72527,E,0.053,,110324,,,A*7E

$GPRMC,150740.90,A,4548.66414,N,00837.72527,E,0.095,,110324,,,A*72

$GPRMC,150741.00,A,4548.66415,N,00837.72528,E,0.049,,110324,,,A*75

$GPRMC,150741.10,A,4548.66416,N,00837.72529,E,0.084,,110324,,,A*77

$GPRMC,150741.20,A,4548.66418,N,00837.72531,E,0.101,,110324,,,A*7F

$GPRMC,150741.30,A,4548.66419,N,00837.72533,E,0.093,,110324,,,A*77

$GPRMC,150741.40,A,4548.66420,N,00837.72533,E,0.073,,110324,,,A*74

$GPRMC,150741.50,A,4548.66421,N,00837.72535,E,0.094,,110324,,,A*7B

$GPRMC,150741.60,A,4548.66422,N,00837.72536,E,0.089,,110324,,,A*74

$GPRMC,150741.70,A,4548.66423,N,00837.72537,E,0.040,,110324,,,A*70

$GPRMC,150741.80,A,4548.66424,N,00837.72539,E,0.091,,110324,,,A*7A

$GPRMC,150741.90,A,4548.66423,N,00837.72539,E,0.054,,110324,,,A*75

$GPRMC,150742.00,A,4548.66424,N,00837.72539,E,0.087,,110324,,,A*76

$GPRMC,150742.10,A,4548.66423,N,00837.72539,E,0.065,,110324,,,A*7C

$GPRMC,150742.20,A,4548.66424,N,00837.72540,E,0.055,,110324,,,A*75

$GPRMC,150742.30,A,4548.66423,N,00837.72540,E,0.178,,110324,,,A*7D

$GPRMC,150742.40,A,4548.66423,N,00837.72540,E,0.150,,110324,,,A*70

$GPRMC,150742.50,A,4548.66424,N,00837.72540,E,0.037,,110324,,,A*76

$GPRMC,150742.60,A,4548.66424,N,00837.72540,E,0.078,,110324,,,A*7E

$GPRMC,150742.70,A,4548.66424,N,00837.72540,E,0.054,,110324,,,A*71

$GPRMC,150742.80,A,4548.66425,N,00837.72540,E,0.074,,110324,,,A*7D

$GPRMC,150742.90,A,4548.66425,N,00837.72541,E,0.020,,110324,,,A*7C

$GPRMC,150743.00,A,4548.66426,N,00837.72541,E,0.052,,110324,,,A*72

$GPRMC,150743.10,A,4548.66427,N,00837.72542,E,0.096,,110324,,,A*79

$GPRMC,150743.20,A,4548.66427,N,00837.72543,E,0.055,,110324,,,A*74

$GPRMC,150743.30,A,4548.66427,N,00837.72543,E,0.093,,110324,,,A*7F

$GPRMC,150743.40,A,4548.66428,N,00837.72543,E,0.071,,110324,,,A*7B

$GPRMC,150743.50,A,4548.66429,N,00837.72544,E,0.089,,110324,,,A*7B

$GPRMC,150743.60,A,4548.66429,N,00837.72545,E,0.101,,110324,,,A*78

$GPRMC,150743.70,A,4548.66430,N,00837.72545,E,0.059,,110324,,,A*7D

$GPRMC,150743.80,A,4548.66430,N,00837.72545,E,0.057,,110324,,,A*7C

$GPRMC,150743.90,A,4548.66431,N,00837.72546,E,0.060,,110324,,,A*7B

$GPRMC,150744.00,A,4548.66431,N,00837.72547,E,0.022,,110324,,,A*72

$GPRMC,150744.10,A,4548.66431,N,00837.72547,E,0.022,,110324,,,A*73

$GPRMC,150744.20,A,4548.66432,N,00837.72548,E,0.034,,110324,,,A*7B

$GPRMC,150744.30,A,4548.66432,N,00837.72549,E,0.034,,110324,,,A*7B

$GPRMC,150744.40,A,4548.66432,N,00837.72549,E,0.062,,110324,,,A*7F

$GPRMC,150744.50,A,4548.66433,N,00837.72550,E,0.066,,110324,,,A*73

$GPRMC,150744.60,A,4548.66432,N,00837.72550,E,0.095,,110324,,,A*7D

$GPRMC,150744.70,A,4548.66433,N,00837.72551,E,0.121,,110324,,,A*72

$GPRMC,150744.80,A,4548.66433,N,00837.72552,E,0.098,,110324,,,A*7D

$GPRMC,150744.90,A,4548.66433,N,00837.72552,E,0.021,,110324,,,A*7E

$GPRMC,150745.00,A,4548.66433,N,00837.72552,E,0.066,,110324,,,A*75

$GPRMC,150745.10,A,4548.66433,N,00837.72553,E,0.068,,110324,,,A*7B

$GPRMC,150745.20,A,4548.66433,N,00837.72553,E,0.081,,110324,,,A*7F

$GPRMC,150745.30,A,4548.66433,N,00837.72553,E,0.067,,110324,,,A*76

$GPRMC,150745.40,A,4548.66433,N,00837.72554,E,0.029,,110324,,,A*7C

$GPRMC,150745.50,A,4548.66433,N,00837.72553,E,0.096,,110324,,,A*7E

$GPRMC,150745.60,A,4548.66433,N,00837.72554,E,0.113,,110324,,,A*76

$GPRMC,150745.70,A,4548.66432,N,00837.72554,E,0.147,,110324,,,A*77

$GPRMC,150745.80,A,4548.66432,N,00837.72555,E,0.063,,110324,,,A*7E

$GPRMC,150745.90,A,4548.66432,N,00837.72555,E,0.080,,110324,,,A*72

$GPRMC,150746.00,A,4548.66431,N,00837.72555,E,0.076,,110324,,,A*72

$GPRMC,150746.10,A,4548.66431,N,00837.72556,E,0.056,,110324,,,A*72

$GPRMC,150746.20,A,4548.66431,N,00837.72555,E,0.059,,110324,,,A*7D

$GPRMC,150746.30,A,4548.66431,N,00837.72556,E,0.060,,110324,,,A*75

$GPRMC,150746.40,A,4548.66431,N,00837.72557,E,0.006,,110324,,,A*73

$GPRMC,150746.50,A,4548.66431,N,00837.72557,E,0.070,,110324,,,A*73

$GPRMC,150746.60,A,4548.66430,N,00837.72557,E,0.074,,110324,,,A*75

$GPRMC,150746.70,A,4548.66431,N,00837.72558,E,0.067,,110324,,,A*78

$GPRMC,150746.80,A,4548.66431,N,00837.72558,E,0.022,,110324,,,A*76

$GPRMC,150746.90,A,4548.66430,N,00837.72558,E,0.136,,110324,,,A*72

$GPRMC,150747.00,A,4548.66430,N,00837.72558,E,0.043,,110324,,,A*79

$GPRMC,150747.10,A,4548.66431,N,00837.72559,E,0.094,,110324,,,A*72

$GPRMC,150747.20,A,4548.66430,N,00837.72559,E,0.062,,110324,,,A*79

$GPRMC,150747.30,A,4548.66430,N,00837.72559,E,0.073,,110324,,,A*78

$GPRMC,150747.40,A,4548.66431,N,00837.72559,E,0.104,,110324,,,A*7F

$GPRMC,150747.50,A,4548.66430,N,00837.72559,E,0.063,,110324,,,A*7F

$GPRMC,150747.60,A,4548.66430,N,00837.72559,E,0.044,,110324,,,A*79

$GPRMC,150747.70,A,4548.66430,N,00837.72558,E,0.110,,110324,,,A*79

$GPRMC,150747.80,A,4548.66430,N,00837.72559,E,0.069,,110324,,,A*78

$GPRMC,150747.90,A,4548.66431,N,00837.72560,E,0.157,,110324,,,A*7E

$GPRMC,150748.00,A,4548.66430,N,00837.72559,E,0.015,,110324,,,A*74

$GPRMC,150748.10,A,4548.66430,N,00837.72559,E,0.097,,110324,,,A*7F

$GPRMC,150748.20,A,4548.66431,N,00837.72559,E,0.054,,110324,,,A*72

$GPRMC,150748.30,A,4548.66431,N,00837.72559,E,0.054,,110324,,,A*73

$GPRMC,150748.40,A,4548.66431,N,00837.72559,E,0.023,,110324,,,A*74

$GPRMC,150748.50,A,4548.66430,N,00837.72559,E,0.041,,110324,,,A*70

$GPRMC,150748.60,A,4548.66430,N,00837.72559,E,0.025,,110324,,,A*71

$GPRMC,150748.70,A,4548.66431,N,00837.72559,E,0.024,,110324,,,A*70

$GPRMC,150748.80,A,4548.66430,N,00837.72559,E,0.107,,110324,,,A*7E

$GPRMC,150748.90,A,4548.66430,N,00837.72559,E,0.079,,110324,,,A*77

$GPRMC,150749.00,A,4548.66430,N,00837.72560,E,0.026,,110324,,,A*7F

$GPRMC,150749.10,A,4548.66430,N,00837.72560,E,0.031,,110324,,,A*78

$GPRMC,150749.20,A,4548.66430,N,00837.72561,E,0.064,,110324,,,A*7A

$GPRMC,150749.30,A,4548.66430,N,00837.72561,E,0.038,,110324,,,A*72

$GPRMC,150749.40,A,4548.66431,N,00837.72562,E,0.055,,110324,,,A*7C

$GPRMC,150749.50,A,4548.66430,N,00837.72561,E,0.076,,110324,,,A*7E

$GPRMC,150749.60,A,4548.66431,N,00837.72562,E,0.017,,110324,,,A*78

$GPRMC,150749.70,A,4548.66430,N,00837.72561,E,0.010,,110324,,,A*7C

$GPRMC,150749.80,A,4548.66430,N,00837.72561,E,0.038,,110324,,,A*79

$GPRMC,150749.90,A,4548.66430,N,00837.72561,E,0.138,,110324,,,A*79

$GPRMC,150750.00,A,4548.66429,N,00837.72560,E,0.269,,110324,,,A*76

$GPRMC,150750.10,A,4548.66430,N,00837.72561,E,0.030,,110324,,,A*70

$GPRMC,150750.20,A,4548.66429,N,00837.72560,E,0.150,,110324,,,A*7D

$GPRMC,150750.30,A,4548.66429,N,00837.72560,E,0.093,,110324,,,A*72

$GPRMC,150750.40,A,4548.66429,N,00837.72560,E,0.016,,110324,,,A*78

$GPRMC,150750.50,A,4548.66428,N,00837.72560,E,0.061,,110324,,,A*78

$GPRMC,150750.60,A,4548.66428,N,00837.72560,E,0.045,,110324,,,A*7D

$GPRMC,150750.70,A,4548.66428,N,00837.72560,E,0.152,,110324,,,A*7B

$GPRMC,150750.80,A,4548.66427,N,00837.72559,E,0.113,,110324,,,A*74

$GPRMC,150750.90,A,4548.66426,N,00837.72559,E,0.086,,110324,,,A*79

$GPRMC,150751.00,A,4548.66426,N,00837.72560,E,0.129,,110324,,,A*7F

$GPRMC,150751.10,A,4548.66426,N,00837.72560,E,0.197,,110324,,,A*7B

$GPRMC,150751.20,A,4548.66425,N,00837.72559,E,0.304,,110324,,,A*79

$GPRMC,150751.30,A,4548.66424,N,00837.72559,E,0.237,,110324,,,A*78

$GPRMC,150751.40,A,4548.66423,N,00837.72559,E,0.195,,110324,,,A*73

$GPRMC,150751.50,A,4548.66423,N,00837.72559,E,0.121,,110324,,,A*7D

$GPRMC,150751.60,A,4548.66422,N,00837.72560,E,0.085,,110324,,,A*7A

$GPRMC,150751.70,A,4548.66421,N,00837.72561,E,0.040,,110324,,,A*70

$GPRMC,150751.80,A,4548.66420,N,00837.72562,E,0.072,,110324,,,A*7C

$GPRMC,150751.90,A,4548.66419,N,00837.72562,E,0.052,,110324,,,A*75

$GPRMC,150752.00,A,4548.66419,N,00837.72563,E,0.140,,110324,,,A*7C

$GPRMC,150752.10,A,4548.66419,N,00837.72563,E,0.278,,110324,,,A*75

$GPRMC,150752.20,A,4548.66419,N,00837.72565,E,0.183,,110324,,,A*77

$GPRMC,150752.30,A,4548.66418,N,00837.72567,E,0.232,,110324,,,A*7C

$GPRMC,150752.40,A,4548.66416,N,00837.72566,E,0.069,,110324,,,A*78

$GPRMC,150752.50,A,4548.66414,N,00837.72566,E,0.125,,110324,,,A*72

$GPRMC,150752.60,A,4548.66413,N,00837.72567,E,0.041,,110324,,,A*74

$GPRMC,150752.70,A,4548.66413,N,00837.72567,E,0.092,,110324,,,A*7B

$GPRMC,150752.80,A,4548.66413,N,00837.72568,E,0.048,,110324,,,A*7C

$GPRMC,150752.90,A,4548.66411,N,00837.72569,E,0.051,,110324,,,A*76

$GPRMC,150753.00,A,4548.66411,N,00837.72571,E,0.077,,110324,,,A*73

$GPRMC,150753.10,A,4548.66410,N,00837.72571,E,0.110,,110324,,,A*73

$GPRMC,150753.20,A,4548.66409,N,00837.72572,E,0.142,,110324,,,A*7C

$GPRMC,150753.30,A,4548.66408,N,00837.72573,E,0.094,,110324,,,A*77

$GPRMC,150753.40,A,4548.66408,N,00837.72575,E,0.024,,110324,,,A*7D

$GPRMC,150753.50,A,4548.66408,N,00837.72576,E,0.069,,110324,,,A*76

$GPRMC,150753.60,A,4548.66407,N,00837.72577,E,0.059,,110324,,,A*78

$GPRMC,150753.70,A,4548.66407,N,00837.72577,E,0.071,,110324,,,A*73

$GPRMC,150753.80,A,4548.66407,N,00837.72578,E,0.012,,110324,,,A*76

$GPRMC,150753.90,A,4548.66406,N,00837.72579,E,0.034,,110324,,,A*73

$GPRMC,150754.00,A,4548.66406,N,00837.72580,E,0.104,,110324,,,A*79

$GPRMC,150754.10,A,4548.66406,N,00837.72580,E,0.089,,110324,,,A*7C

$GPRMC,150754.20,A,4548.66406,N,00837.72581,E,0.057,,110324,,,A*7D

$GPRMC,150754.30,A,4548.66405,N,00837.72581,E,0.136,,110324,,,A*79

$GPRMC,150754.40,A,4548.66405,N,00837.72582,E,0.104,,110324,,,A*7C

$GPRMC,150754.50,A,4548.66406,N,00837.72584,E,0.029,,110324,,,A*76

$GPRMC,150754.60,A,4548.66405,N,00837.72584,E,0.099,,110324,,,A*7D

$GPRMC,150754.70,A,4548.66406,N,00837.72585,E,0.056,,110324,,,A*7D

$GPRMC,150754.80,A,4548.66407,N,00837.72586,E,0.085,,110324,,,A*7E

$GPRMC,150754.90,A,4548.66407,N,00837.72587,E,0.046,,110324,,,A*71

$GPRMC,150755.00,A,4548.66407,N,00837.72588,E,0.145,,110324,,,A*74

$GPRMC,150755.10,A,4548.66407,N,00837.72588,E,0.097,,110324,,,A*7B

$GPRMC,150755.20,A,4548.66406,N,00837.72588,E,0.049,,110324,,,A*7A

$GPRMC,150755.30,A,4548.66407,N,00837.72588,E,0.083,,110324,,,A*7C

$GPRMC,150755.40,A,4548.66407,N,00837.72590,E,0.092,,110324,,,A*72

$GPRMC,150755.50,A,4548.66408,N,00837.72591,E,0.060,,110324,,,A*70

$GPRMC,150755.60,A,4548.66409,N,00837.72592,E,0.096,,110324,,,A*78

$GPRMC,150755.70,A,4548.66410,N,00837.72593,E,0.141,,110324,,,A*7B

$GPRMC,150755.80,A,4548.66410,N,00837.72594,E,0.025,,110324,,,A*70

$GPRMC,150755.90,A,4548.66410,N,00837.72595,E,0.113,,110324,,,A*74

$GPRMC,150756.00,A,4548.66411,N,00837.72596,E,0.130,,110324,,,A*7D

$GPRMC,150756.10,A,4548.66412,N,00837.72597,E,0.134,,110324,,,A*7A

$GPRMC,150756.20,A,4548.66413,N,00837.72598,E,0.151,,110324,,,A*74

$GPRMC,150756.30,A,4548.66413,N,00837.72599,E,0.150,,110324,,,A*75

$GPRMC,150756.40,A,4548.66412,N,00837.72599,E,0.097,,110324,,,A*79

$GPRMC,150756.50,A,4548.66412,N,00837.72599,E,0.036,,110324,,,A*73

$GPRMC,150756.60,A,4548.66413,N,00837.72599,E,0.004,,110324,,,A*70

$GPRMC,150756.70,A,4548.66412,N,00837.72599,E,0.031,,110324,,,A*76

$GPRMC,150756.80,A,4548.66413,N,00837.72600,E,0.038,,110324,,,A*72

$GPRMC,150756.90,A,4548.66412,N,00837.72599,E,0.104,,110324,,,A*7F

$GPRMC,150757.00,A,4548.66412,N,00837.72600,E,0.066,,110324,,,A*71

$GPRMC,150757.10,A,4548.66411,N,00837.72600,E,0.081,,110324,,,A*7A

$GPRMC,150757.20,A,4548.66411,N,00837.72601,E,0.094,,110324,,,A*7C

$GPRMC,150757.30,A,4548.66412,N,00837.72601,E,0.080,,110324,,,A*7B

$GPRMC,150757.40,A,4548.66412,N,00837.72602,E,0.077,,110324,,,A*77

$GPRMC,150757.50,A,4548.66412,N,00837.72602,E,0.089,,110324,,,A*77

$GPRMC,150757.60,A,4548.66412,N,00837.72602,E,0.102,,110324,,,A*76

$GPRMC,150757.70,A,4548.66413,N,00837.72603,E,0.061,,110324,,,A*73

$GPRMC,150757.80,A,4548.66412,N,00837.72604,E,0.050,,110324,,,A*78

$GPRMC,150757.90,A,4548.66413,N,00837.72604,E,0.009,,110324,,,A*74

$GPRMC,150758.00,A,4548.66412,N,00837.72604,E,0.139,,110324,,,A*71

$GPRMC,150758.10,A,4548.66412,N,00837.72604,E,0.072,,110324,,,A*7E

$GPRMC,150758.20,A,4548.66412,N,00837.72604,E,0.124,,110324,,,A*7F

$GPRMC,150758.30,A,4548.66412,N,00837.72605,E,0.081,,110324,,,A*71

$GPRMC,150758.40,A,4548.66412,N,00837.72605,E,0.034,,110324,,,A*78

$GPRMC,150758.50,A,4548.66412,N,00837.72605,E,0.092,,110324,,,A*75

$GPRMC,150758.60,A,4548.66412,N,00837.72605,E,0.055,,110324,,,A*7D

$GPRMC,150758.70,A,4548.66411,N,00837.72606,E,0.118,,110324,,,A*74

$GPRMC,150758.80,A,4548.66411,N,00837.72606,E,0.175,,110324,,,A*70

$GPRMC,150758.90,A,4548.66411,N,00837.72606,E,0.181,,110324,,,A*7A

$GPRMC,150759.00,A,4548.66412,N,00837.72607,E,0.072,,110324,,,A*7D

$GPRMC,150759.10,A,4548.66411,N,00837.72607,E,0.165,,110324,,,A*78

$GPRMC,150759.20,A,4548.66412,N,00837.72607,E,0.073,,110324,,,A*7E

$GPRMC,150759.30,A,4548.66411,N,00837.72607,E,0.117,,110324,,,A*7F

$GPRMC,150759.40,A,4548.66412,N,00837.72608,E,0.045,,110324,,,A*72

$GPRMC,150759.50,A,4548.66411,N,00837.72608,E,0.127,,110324,,,A*75

$GPRMC,150759.60,A,4548.66411,N,00837.72608,E,0.046,,110324,,,A*70

$GPRMC,150759.70,A,4548.66411,N,00837.72609,E,0.050,,110324,,,A*77

$GPRMC,150759.80,A,4548.66411,N,00837.72609,E,0.058,,110324,,,A*70

$GPRMC,150759.90,A,4548.66411,N,00837.72609,E,0.117,,110324,,,A*7B

$GPRMC,150800.00,A,4548.66411,N,00837.72609,E,0.136,,110324,,,A*72

$GPRMC,150800.10,A,4548.66411,N,00837.72610,E,0.130,,110324,,,A*7D

$GPRMC,150800.20,A,4548.66411,N,00837.72610,E,0.078,,110324,,,A*73

$GPRMC,150800.30,A,4548.66411,N,00837.72611,E,0.092,,110324,,,A*77

$GPRMC,150800.40,A,4548.66412,N,00837.72611,E,0.026,,110324,,,A*7C

$GPRMC,150800.50,A,4548.66411,N,00837.72611,E,0.075,,110324,,,A*78

$GPRMC,150800.60,A,4548.66412,N,00837.72612,E,0.011,,110324,,,A*79

$GPRMC,150800.70,A,4548.66411,N,00837.72611,E,0.094,,110324,,,A*75

$GPRMC,150800.80,A,4548.66411,N,00837.72612,E,0.056,,110324,,,A*77

$GPRMC,150800.90,A,4548.66411,N,00837.72612,E,0.055,,110324,,,A*75

$GPRMC,150801.00,A,4548.66411,N,00837.72613,E,0.008,,110324,,,A*74

$GPRMC,150801.10,A,4548.66410,N,00837.72613,E,0.056,,110324,,,A*7F

$GPRMC,150801.20,A,4548.66411,N,00837.72614,E,0.058,,110324,,,A*74

$GPRMC,150801.30,A,4548.66410,N,00837.72613,E,0.052,,110324,,,A*79

$GPRMC,150801.40,A,4548.66410,N,00837.72614,E,0.042,,110324,,,A*78

$GPRMC,150801.50,A,4548.66411,N,00837.72615,E,0.044,,110324,,,A*7F

$GPRMC,150801.60,A,4548.66410,N,00837.72615,E,0.029,,110324,,,A*76

$GPRMC,150801.70,A,4548.66410,N,00837.72615,E,0.051,,110324,,,A*78

$GPRMC,150801.80,A,4548.66410,N,00837.72616,E,0.048,,110324,,,A*7C

$GPRMC,150801.90,A,4548.66410,N,00837.72615,E,0.100,,110324,,,A*73

$GPRMC,150802.00,A,4548.66410,N,00837.72616,E,0.067,,110324,,,A*7A

$GPRMC,150802.10,A,4548.66409,N,00837.72617,E,0.063,,110324,,,A*76

$GPRMC,150802.20,A,4548.66410,N,00837.72617,E,0.035,,110324,,,A*7E

$GPRMC,150802.30,A,4548.66409,N,00837.72617,E,0.127,,110324,,,A*75

$GPRMC,150802.40,A,4548.66409,N,00837.72617,E,0.014,,110324,,,A*73

$GPRMC,150802.50,A,4548.66409,N,00837.72618,E,0.082,,110324,,,A*72

$GPRMC,150802.60,A,4548.66410,N,00837.72618,E,0.079,,110324,,,A*7D

$GPRMC,150802.70,A,4548.66409,N,00837.72619,E,0.096,,110324,,,A*74

$GPRMC,150802.80,A,4548.66410,N,00837.72619,E,0.064,,110324,,,A*7E

$GPRMC,150802.90,A,4548.66410,N,00837.72619,E,0.048,,110324,,,A*71

$GPRMC,150803.00,A,4548.66410,N,00837.72620,E,0.091,,110324,,,A*77

$GPRMC,150803.10,A,4548.66409,N,00837.72620,E,0.002,,110324,,,A*74

$GPRMC,150803.20,A,4548.66408,N,00837.72619,E,0.218,,110324,,,A*75

$GPRMC,150803.30,A,4548.66409,N,00837.72620,E,0.100,,110324,,,A*75

$GPRMC,150803.40,A,4548.66408,N,00837.72620,E,0.177,,110324,,,A*73

$GPRMC,150803.50,A,4548.66407,N,00837.72620,E,0.243,,110324,,,A*79

$GPRMC,150803.60,A,4548.66407,N,00837.72620,E,0.121,,110324,,,A*7D

$GPRMC,150803.70,A,4548.66406,N,00837.72620,E,0.136,,110324,,,A*7B

$GPRMC,150803.80,A,4548.66406,N,00837.72620,E,0.049,,110324,,,A*7D

$GPRMC,150803.90,A,4548.66405,N,00837.72621,E,0.048,,110324,,,A*7F

$GPRMC,150804.00,A,4548.66405,N,00837.72621,E,0.045,,110324,,,A*7C

$GPRMC,150804.10,A,4548.66404,N,00837.72621,E,0.079,,110324,,,A*73

$GPRMC,150804.20,A,4548.66405,N,00837.72621,E,0.081,,110324,,,A*76

$GPRMC,150804.30,A,4548.66403,N,00837.72621,E,0.096,,110324,,,A*77

$GPRMC,150804.40,A,4548.66403,N,00837.72621,E,0.145,,110324,,,A*7F

$GPRMC,150804.50,A,4548.66402,N,00837.72621,E,0.144,,110324,,,A*7E

$GPRMC,150804.60,A,4548.66403,N,00837.72622,E,0.027,,110324,,,A*7B

$GPRMC,150804.70,A,4548.66401,N,00837.72621,E,0.103,,110324,,,A*7C

$GPRMC,150804.80,A,4548.66401,N,00837.72621,E,0.021,,110324,,,A*72

$GPRMC,150804.90,A,4548.66400,N,00837.72621,E,0.040,,110324,,,A*75

$GPRMC,150805.00,A,4548.66399,N,00837.72621,E,0.022,,110324,,,A*7E

$GPRMC,150805.10,A,4548.66398,N,00837.72621,E,0.095,,110324,,,A*72

$GPRMC,150805.20,A,4548.66398,N,00837.72622,E,0.082,,110324,,,A*74

$GPRMC,150805.30,A,4548.66397,N,00837.72621,E,0.049,,110324,,,A*7E

$GPRMC,150805.40,A,4548.66396,N,00837.72621,E,0.054,,110324,,,A*74

$GPRMC,150805.50,A,4548.66395,N,00837.72622,E,0.017,,110324,,,A*72

$GPRMC,150805.60,A,4548.66394,N,00837.72621,E,0.055,,110324,,,A*75

$GPRMC,150805.70,A,4548.66393,N,00837.72622,E,0.048,,110324,,,A*7C

$GPRMC,150805.80,A,4548.66392,N,00837.72622,E,0.039,,110324,,,A*74

$GPRMC,150805.90,A,4548.66391,N,00837.72622,E,0.035,,110324,,,A*7A

$GPRMC,150806.00,A,4548.66390,N,00837.72622,E,0.039,,110324,,,A*7D

$GPRMC,150806.10,A,4548.66390,N,00837.72622,E,0.027,,110324,,,A*73

$GPRMC,150806.20,A,4548.66389,N,00837.72622,E,0.036,,110324,,,A*78

$GPRMC,150806.30,A,4548.66388,N,00837.72622,E,0.044,,110324,,,A*7D

$GPRMC,150806.40,A,4548.66388,N,00837.72622,E,0.019,,110324,,,A*72

$GPRMC,150806.50,A,4548.66387,N,00837.72622,E,0.010,,110324,,,A*75

$GPRMC,150806.60,A,4548.66386,N,00837.72622,E,0.035,,110324,,,A*70

$GPRMC,150806.70,A,4548.66385,N,00837.72622,E,0.010,,110324,,,A*75

$GPRMC,150806.80,A,4548.66384,N,00837.72622,E,0.120,,110324,,,A*79

$GPRMC,150806.90,A,4548.66384,N,00837.72622,E,0.026,,110324,,,A*7F

$GPRMC,150807.00,A,4548.66383,N,00837.72623,E,0.062,,110324,,,A*71

$GPRMC,150807.10,A,4548.66382,N,00837.72623,E,0.029,,110324,,,A*7E

$GPRMC,150807.20,A,4548.66381,N,00837.72623,E,0.038,,110324,,,A*7E

$GPRMC,150807.30,A,4548.66381,N,00837.72623,E,0.089,,110324,,,A*75

$GPRMC,150807.40,A,4548.66380,N,00837.72623,E,0.099,,110324,,,A*72

$GPRMC,150807.50,A,4548.66380,N,00837.72623,E,0.041,,110324,,,A*76

$GPRMC,150807.60,A,4548.66379,N,00837.72623,E,0.142,,110324,,,A*71

$GPRMC,150807.70,A,4548.66378,N,00837.72623,E,0.056,,110324,,,A*75

$GPRMC,150807.80,A,4548.66377,N,00837.72623,E,0.088,,110324,,,A*76

$GPRMC,150807.90,A,4548.66377,N,00837.72623,E,0.126,,110324,,,A*72

$GPRMC,150808.00,A,4548.66376,N,00837.72623,E,0.033,,110324,,,A*70

$GPRMC,150808.10,A,4548.66376,N,00837.72624,E,0.047,,110324,,,A*75

$GPRMC,150808.20,A,4548.66374,N,00837.72623,E,0.071,,110324,,,A*76

$GPRMC,150808.30,A,4548.66373,N,00837.72623,E,0.084,,110324,,,A*7A

$GPRMC,150808.40,A,4548.66373,N,00837.72624,E,0.133,,110324,,,A*77

$GPRMC,150808.50,A,4548.66372,N,00837.72624,E,0.102,,110324,,,A*75

$GPRMC,150808.60,A,4548.66371,N,00837.72623,E,0.069,,110324,,,A*7E

$GPRMC,150808.70,A,4548.66370,N,00837.72623,E,0.047,,110324,,,A*72

$GPRMC,150808.80,A,4548.66369,N,00837.72623,E,0.072,,110324,,,A*73

$GPRMC,150808.90,A,4548.66368,N,00837.72623,E,0.039,,110324,,,A*7C

$GPRMC,150809.00,A,4548.66368,N,00837.72624,E,0.034,,110324,,,A*7E

$GPRMC,150809.10,A,4548.66366,N,00837.72623,E,0.117,,110324,,,A*76

$GPRMC,150809.20,A,4548.66366,N,00837.72623,E,0.004,,110324,,,A*76

$GPRMC,150809.30,A,4548.66365,N,00837.72623,E,0.029,,110324,,,A*7B

$GPRMC,150809.40,A,4548.66364,N,00837.72623,E,0.063,,110324,,,A*73

$GPRMC,150809.50,A,4548.66363,N,00837.72623,E,0.009,,110324,,,A*79

$GPRMC,150809.60,A,4548.66363,N,00837.72623,E,0.085,,110324,,,A*7E

$GPRMC,150809.70,A,4548.66362,N,00837.72623,E,0.021,,110324,,,A*70

$GPRMC,150809.80,A,4548.66361,N,00837.72623,E,0.024,,110324,,,A*79

$GPRMC,150809.90,A,4548.66361,N,00837.72624,E,0.116,,110324,,,A*7F

$GPRMC,150810.00,A,4548.66360,N,00837.72623,E,0.052,,110324,,,A*79

$GPRMC,150810.10,A,4548.66359,N,00837.72623,E,0.028,,110324,,,A*7F

$GPRMC,150810.20,A,4548.66358,N,00837.72623,E,0.063,,110324,,,A*72

$GPRMC,150810.30,A,4548.66357,N,00837.72624,E,0.120,,110324,,,A*7D

$GPRMC,150810.40,A,4548.66356,N,00837.72624,E,0.013,,110324,,,A*7A

$GPRMC,150810.50,A,4548.66356,N,00837.72624,E,0.017,,110324,,,A*7F

$GPRMC,150810.60,A,4548.66355,N,00837.72624,E,0.044,,110324,,,A*79

$GPRMC,150810.70,A,4548.66354,N,00837.72624,E,0.045,,110324,,,A*78

$GPRMC,150810.80,A,4548.66354,N,00837.72624,E,0.017,,110324,,,A*70

$GPRMC,150810.90,A,4548.66353,N,00837.72624,E,0.016,,110324,,,A*77

$GPRMC,150811.00,A,4548.66351,N,00837.72623,E,0.109,,110324,,,A*75

$GPRMC,150811.10,A,4548.66351,N,00837.72624,E,0.028,,110324,,,A*71

$GPRMC,150811.20,A,4548.66350,N,00837.72624,E,0.075,,110324,,,A*7B

$GPRMC,150811.30,A,4548.66349,N,00837.72624,E,0.069,,110324,,,A*7F

$GPRMC,150811.40,A,4548.66349,N,00837.72624,E,0.065,,110324,,,A*74

$GPRMC,150811.50,A,4548.66348,N,00837.72624,E,0.021,,110324,,,A*74

$GPRMC,150811.60,A,4548.66347,N,00837.72624,E,0.032,,110324,,,A*7A

$GPRMC,150811.70,A,4548.66346,N,00837.72624,E,0.044,,110324,,,A*7B

$GPRMC,150811.80,A,4548.66345,N,00837.72624,E,0.060,,110324,,,A*71

$GPRMC,150811.90,A,4548.66344,N,00837.72624,E,0.097,,110324,,,A*79

$GPRMC,150812.00,A,4548.66343,N,00837.72624,E,0.062,,110324,,,A*7E

$GPRMC,150812.10,A,4548.66342,N,00837.72624,E,0.067,,110324,,,A*7B

$GPRMC,150812.20,A,4548.66341,N,00837.72625,E,0.150,,110324,,,A*7F

$GPRMC,150812.30,A,4548.66340,N,00837.72626,E,0.183,,110324,,,A*72

$GPRMC,150812.40,A,4548.66338,N,00837.72625,E,0.119,,110324,,,A*7A

$GPRMC,150812.50,A,4548.66341,N,00837.72626,E,0.319,,110324,,,A*74

$GPRMC,150812.60,A,4548.66339,N,00837.72626,E,0.121,,110324,,,A*71

$GPRMC,150812.70,A,4548.66339,N,00837.72625,E,0.148,,110324,,,A*7C

$GPRMC,150812.80,A,4548.66340,N,00837.72626,E,0.187,,110324,,,A*7D

$GPRMC,150812.90,A,4548.66339,N,00837.72626,E,0.143,,110324,,,A*7A

$GPRMC,150813.00,A,4548.66338,N,00837.72626,E,0.154,,110324,,,A*75

$GPRMC,150813.10,A,4548.66337,N,00837.72625,E,0.137,,110324,,,A*7D

$GPRMC,150813.20,A,4548.66336,N,00837.72625,E,0.043,,110324,,,A*7D

$GPRMC,150813.30,A,4548.66336,N,00837.72625,E,0.025,,110324,,,A*7C

$GPRMC,150813.40,A,4548.66336,N,00837.72625,E,0.012,,110324,,,A*7F

$GPRMC,150813.50,A,4548.66335,N,00837.72625,E,0.052,,110324,,,A*79

$GPRMC,150813.60,A,4548.66336,N,00837.72625,E,0.150,,110324,,,A*7A

$GPRMC,150813.70,A,4548.66336,N,00837.72626,E,0.130,,110324,,,A*7E

$GPRMC,150813.80,A,4548.66335,N,00837.72626,E,0.158,,110324,,,A*7C

$GPRMC,150813.90,A,4548.66335,N,00837.72627,E,0.270,,110324,,,A*75

$GPRMC,150814.00,A,4548.66335,N,00837.72626,E,0.150,,110324,,,A*7B

$GPRMC,150814.10,A,4548.66333,N,00837.72626,E,0.113,,110324,,,A*7B

$GPRMC,150814.20,A,4548.66331,N,00837.72624,E,0.111,,110324,,,A*7A

$GPRMC,150814.30,A,4548.66332,N,00837.72625,E,0.118,,110324,,,A*70

$GPRMC,150814.40,A,4548.66330,N,00837.72623,E,0.090,,110324,,,A*72

$GPRMC,150814.50,A,4548.66329,N,00837.72622,E,0.084,,110324,,,A*7F

$GPRMC,150814.60,A,4548.66328,N,00837.72622,E,0.130,,110324,,,A*73

$GPRMC,150814.70,A,4548.66327,N,00837.72621,E,0.076,,110324,,,A*7D

$GPRMC,150814.80,A,4548.66325,N,00837.72620,E,0.129,,110324,,,A*7A

$GPRMC,150814.90,A,4548.66326,N,00837.72620,E,0.228,,110324,,,A*7A

$GPRMC,150815.00,A,4548.66324,N,00837.72620,E,0.096,,110324,,,A*77

$GPRMC,150815.10,A,4548.66324,N,00837.72619,E,0.127,,110324,,,A*77

$GPRMC,150815.20,A,4548.66324,N,00837.72618,E,0.228,,110324,,,A*79

$GPRMC,150815.30,A,4548.66323,N,00837.72618,E,0.115,,110324,,,A*72

$GPRMC,150815.40,A,4548.66323,N,00837.72617,E,0.153,,110324,,,A*78

$GPRMC,150815.50,A,4548.66322,N,00837.72615,E,0.367,,110324,,,A*7F

$GPRMC,150815.60,A,4548.66322,N,00837.72615,E,0.226,,110324,,,A*78

$GPRMC,150815.70,A,4548.66323,N,00837.72615,E,0.370,,110324,,,A*7A

$GPRMC,150815.80,A,4548.66321,N,00837.72615,E,0.158,,110324,,,A*7F

$GPRMC,150815.90,A,4548.66321,N,00837.72615,E,0.340,,110324,,,A*75

$GPRMC,150816.00,A,4548.66324,N,00837.72617,E,0.104,,110324,,,A*7A

$GPRMC,150816.10,A,4548.66322,N,00837.72616,E,0.470,230.94,110324,,,A*68

$GPRMC,150816.20,A,4548.66324,N,00837.72619,E,0.175,,110324,,,A*70

$GPRMC,150816.30,A,4548.66323,N,00837.72620,E,0.043,,110324,,,A*78

$GPRMC,150816.40,A,4548.66323,N,00837.72621,E,0.027,,110324,,,A*7C

$GPRMC,150816.50,A,4548.66323,N,00837.72623,E,0.107,,110324,,,A*7C

$GPRMC,150816.60,A,4548.66322,N,00837.72624,E,0.052,,110324,,,A*78

$GPRMC,150816.70,A,4548.66323,N,00837.72626,E,0.215,,110324,,,A*7B

$GPRMC,150816.80,A,4548.66323,N,00837.72629,E,0.168,,110324,,,A*72

$GPRMC,150816.90,A,4548.66323,N,00837.72631,E,0.141,,110324,,,A*71

$GPRMC,150817.00,A,4548.66324,N,00837.72633,E,0.103,,110324,,,A*7A

$GPRMC,150817.10,A,4548.66324,N,00837.72635,E,0.202,,110324,,,A*7F

$GPRMC,150817.20,A,4548.66324,N,00837.72639,E,0.087,,110324,,,A*7F

$GPRMC,150817.30,A,4548.66324,N,00837.72643,E,0.070,,110324,,,A*7B

$GPRMC,150817.40,A,4548.66323,N,00837.72643,E,0.195,,110324,,,A*71

$GPRMC,150817.50,A,4548.66324,N,00837.72645,E,0.105,,110324,,,A*78

$GPRMC,150817.60,A,4548.66323,N,00837.72648,E,0.129,,110324,,,A*7F

$GPRMC,150817.70,A,4548.66324,N,00837.72650,E,0.175,,110324,,,A*79

$GPRMC,150817.80,A,4548.66324,N,00837.72652,E,0.108,,110324,,,A*7E

$GPRMC,150817.90,A,4548.66323,N,00837.72655,E,0.146,,110324,,,A*75

$GPRMC,150818.00,A,4548.66323,N,00837.72656,E,0.062,,110324,,,A*77

$GPRMC,150818.10,A,4548.66324,N,00837.72659,E,0.143,,110324,,,A*7C

$GPRMC,150818.20,A,4548.66324,N,00837.72660,E,0.114,,110324,,,A*77

$GPRMC,150818.30,A,4548.66325,N,00837.72663,E,0.098,,110324,,,A*71

$GPRMC,150818.40,A,4548.66326,N,00837.72666,E,0.076,,110324,,,A*70

$GPRMC,150818.50,A,4548.66327,N,00837.72668,E,0.076,,110324,,,A*7E

$GPRMC,150818.60,A,4548.66328,N,00837.72669,E,0.006,,110324,,,A*74

$GPRMC,150818.70,A,4548.66329,N,00837.72671,E,0.028,,110324,,,A*71

$GPRMC,150818.80,A,4548.66330,N,00837.72673,E,0.046,,110324,,,A*7C

$GPRMC,150818.90,A,4548.66331,N,00837.72674,E,0.039,,110324,,,A*73

$GPRMC,150819.00,A,4548.66332,N,00837.72676,E,0.041,,110324,,,A*75

$GPRMC,150819.10,A,4548.66333,N,00837.72679,E,0.170,,110324,,,A*79

$GPRMC,150819.20,A,4548.66335,N,00837.72680,E,0.142,,110324,,,A*7B

$GPRMC,150819.30,A,4548.66334,N,00837.72681,E,0.350,,110324,,,A*7B

$GPRMC,150819.40,A,4548.66337,N,00837.72683,E,0.347,,110324,,,A*7B

$GPRMC,150819.50,A,4548.66337,N,00837.72685,E,0.044,,110324,,,A*7C

$GPRMC,150819.60,A,4548.66338,N,00837.72687,E,0.079,,110324,,,A*7C

$GPRMC,150819.70,A,4548.66339,N,00837.72689,E,0.078,,110324,,,A*73

$GPRMC,150819.80,A,4548.66340,N,00837.72691,E,0.062,,110324,,,A*70

$GPRMC,150819.90,A,4548.66340,N,00837.72692,E,0.047,,110324,,,A*75

$GPRMC,150820.00,A,4548.66341,N,00837.72694,E,0.027,,110324,,,A*77

$GPRMC,150820.10,A,4548.66341,N,00837.72696,E,0.041,,110324,,,A*74

$GPRMC,150820.20,A,4548.66342,N,00837.72697,E,0.092,,110324,,,A*7B

$GPRMC,150820.30,A,4548.66343,N,00837.72699,E,0.036,,110324,,,A*7B

$GPRMC,150820.40,A,4548.66344,N,00837.72701,E,0.092,,110324,,,A*75

$GPRMC,150820.50,A,4548.66345,N,00837.72703,E,0.088,,110324,,,A*7C

$GPRMC,150820.60,A,4548.66345,N,00837.72705,E,0.106,,110324,,,A*7E

$GPRMC,150820.70,A,4548.66346,N,00837.72706,E,0.016,,110324,,,A*7F

$GPRMC,150820.80,A,4548.66347,N,00837.72707,E,0.071,,110324,,,A*71

$GPRMC,150820.90,A,4548.66348,N,00837.72709,E,0.070,,110324,,,A*70

$GPRMC,150821.00,A,4548.66349,N,00837.72710,E,0.105,,110324,,,A*72

$GPRMC,150821.10,A,4548.66350,N,00837.72712,E,0.088,,110324,,,A*7D

$GPRMC,150821.20,A,4548.66350,N,00837.72713,E,0.007,,110324,,,A*78

$GPRMC,150821.30,A,4548.66351,N,00837.72715,E,0.080,,110324,,,A*71

$GPRMC,150821.40,A,4548.66352,N,00837.72716,E,0.127,,110324,,,A*7A

$GPRMC,150821.50,A,4548.66353,N,00837.72717,E,0.062,,110324,,,A*7B

$GPRMC,150821.60,A,4548.66353,N,00837.72719,E,0.077,,110324,,,A*72

$GPRMC,150821.70,A,4548.66355,N,00837.72720,E,0.094,,110324,,,A*72

$GPRMC,150821.80,A,4548.66355,N,00837.72722,E,0.127,,110324,,,A*76

$GPRMC,150821.90,A,4548.66355,N,00837.72722,E,0.071,,110324,,,A*75

$GPRMC,150822.00,A,4548.66356,N,00837.72723,E,0.113,,110324,,,A*78

$GPRMC,150822.10,A,4548.66355,N,00837.72724,E,0.155,,110324,,,A*7F

$GPRMC,150822.20,A,4548.66357,N,00837.72726,E,0.111,,110324,,,A*7C

$GPRMC,150822.30,A,4548.66356,N,00837.72727,E,0.141,,110324,,,A*78

$GPRMC,150822.40,A,4548.66357,N,00837.72729,E,0.131,,110324,,,A*77

$GPRMC,150822.50,A,4548.66357,N,00837.72729,E,0.071,,110324,,,A*73

$GPRMC,150822.60,A,4548.66357,N,00837.72730,E,0.148,,110324,,,A*73

$GPRMC,150822.70,A,4548.66358,N,00837.72732,E,0.049,,110324,,,A*7F

$GPRMC,150822.80,A,4548.66359,N,00837.72733,E,0.117,,110324,,,A*7A

$GPRMC,150822.90,A,4548.66359,N,00837.72734,E,0.012,,110324,,,A*78

$GPRMC,150823.00,A,4548.66360,N,00837.72735,E,0.088,,110324,,,A*78

$GPRMC,150823.10,A,4548.66360,N,00837.72737,E,0.070,,110324,,,A*7C

$GPRMC,150823.20,A,4548.66361,N,00837.72738,E,0.059,,110324,,,A*7A

$GPRMC,150823.30,A,4548.66361,N,00837.72739,E,0.043,,110324,,,A*71

$GPRMC,150823.40,A,4548.66361,N,00837.72741,E,0.060,,110324,,,A*78

$GPRMC,150823.50,A,4548.66362,N,00837.72742,E,0.048,,110324,,,A*73

$GPRMC,150823.60,A,4548.66363,N,00837.72743,E,0.054,,110324,,,A*7D

$GPRMC,150823.70,A,4548.66363,N,00837.72744,E,0.081,,110324,,,A*73

$GPRMC,150823.80,A,4548.66364,N,00837.72745,E,0.058,,110324,,,A*7E

$GPRMC,150823.90,A,4548.66364,N,00837.72746,E,0.059,,110324,,,A*7D

$GPRMC,150824.00,A,4548.66365,N,00837.72747,E,0.079,,110324,,,A*71

$GPRMC,150824.10,A,4548.66365,N,00837.72748,E,0.039,,110324,,,A*7B

$GPRMC,150824.20,A,4548.66365,N,00837.72749,E,0.061,,110324,,,A*74

$GPRMC,150824.30,A,4548.66366,N,00837.72750,E,0.042,,110324,,,A*7F

$GPRMC,150824.40,A,4548.66367,N,00837.72752,E,0.036,,110324,,,A*78

$GPRMC,150824.50,A,4548.66367,N,00837.72753,E,0.041,,110324,,,A*78

$GPRMC,150824.60,A,4548.66367,N,00837.72754,E,0.077,,110324,,,A*79

$GPRMC,150824.70,A,4548.66368,N,00837.72755,E,0.113,,110324,,,A*75

$GPRMC,150824.80,A,4548.66368,N,00837.72756,E,0.116,,110324,,,A*7C

$GPRMC,150824.90,A,4548.66369,N,00837.72757,E,0.044,,110324,,,A*7B

$GPRMC,150825.00,A,4548.66369,N,00837.72758,E,0.118,,110324,,,A*74

$GPRMC,150825.10,A,4548.66369,N,00837.72759,E,0.136,,110324,,,A*78

$GPRMC,150825.20,A,4548.66370,N,00837.72760,E,0.030,,110324,,,A*7E

$GPRMC,150825.30,A,4548.66371,N,00837.72761,E,0.084,,110324,,,A*70

$GPRMC,150825.40,A,4548.66370,N,00837.72762,E,0.079,,110324,,,A*77

$GPRMC,150825.50,A,4548.66371,N,00837.72762,E,0.033,,110324,,,A*79

$GPRMC,150825.60,A,4548.66371,N,00837.72763,E,0.082,,110324,,,A*71

$GPRMC,150825.70,A,4548.66372,N,00837.72764,E,0.116,,110324,,,A*78

$GPRMC,150825.80,A,4548.66371,N,00837.72765,E,0.014,,110324,,,A*76

$GPRMC,150825.90,A,4548.66372,N,00837.72765,E,0.021,,110324,,,A*72

$GPRMC,150826.00,A,4548.66371,N,00837.72766,E,0.113,,110324,,,A*78

$GPRMC,150826.10,A,4548.66371,N,00837.72767,E,0.046,,110324,,,A*79

$GPRMC,150826.20,A,4548.66371,N,00837.72767,E,0.149,,110324,,,A*74

$GPRMC,150826.30,A,4548.66370,N,00837.72768,E,0.084,,110324,,,A*7B

$GPRMC,150826.40,A,4548.66370,N,00837.72768,E,0.094,,110324,,,A*7D

$GPRMC,150826.50,A,4548.66370,N,00837.72769,E,0.036,,110324,,,A*75

$GPRMC,150826.60,A,4548.66370,N,00837.72769,E,0.040,,110324,,,A*77

$GPRMC,150826.70,A,4548.66370,N,00837.72770,E,0.087,,110324,,,A*75

$GPRMC,150826.80,A,4548.66370,N,00837.72770,E,0.073,,110324,,,A*71

$GPRMC,150826.90,A,4548.66369,N,00837.72770,E,0.018,,110324,,,A*75

$GPRMC,150827.00,A,4548.66369,N,00837.72771,E,0.052,,110324,,,A*72

$GPRMC,150827.10,A,4548.66368,N,00837.72772,E,0.067,,110324,,,A*77

$GPRMC,150827.20,A,4548.66368,N,00837.72772,E,0.057,,110324,,,A*77

$GPRMC,150827.30,A,4548.66368,N,00837.72773,E,0.058,,110324,,,A*78

$GPRMC,150827.40,A,4548.66367,N,00837.72773,E,0.022,,110324,,,A*7D

$GPRMC,150827.50,A,4548.66367,N,00837.72773,E,0.076,,110324,,,A*7D

$GPRMC,150827.60,A,4548.66366,N,00837.72773,E,0.028,,110324,,,A*74

$GPRMC,150827.70,A,4548.66365,N,00837.72774,E,0.068,,110324,,,A*75

$GPRMC,150827.80,A,4548.66365,N,00837.72774,E,0.046,,110324,,,A*76

$GPRMC,150827.90,A,4548.66364,N,00837.72775,E,0.064,,110324,,,A*77

$GPRMC,150828.00,A,4548.66364,N,00837.72775,E,0.018,,110324,,,A*7A

$GPRMC,150828.10,A,4548.66363,N,00837.72775,E,0.052,,110324,,,A*72

$GPRMC,150828.20,A,4548.66362,N,00837.72776,E,0.102,,110324,,,A*77

$GPRMC,150828.30,A,4548.66362,N,00837.72776,E,0.037,,110324,,,A*71

$GPRMC,150828.40,A,4548.66361,N,00837.72776,E,0.032,,110324,,,A*70

$GPRMC,150828.50,A,4548.66360,N,00837.72776,E,0.069,,110324,,,A*7E

$GPRMC,150828.60,A,4548.66360,N,00837.72777,E,0.055,,110324,,,A*73

$GPRMC,150828.70,A,4548.66359,N,00837.72777,E,0.032,,110324,,,A*79

$GPRMC,150828.80,A,4548.66359,N,00837.72778,E,0.018,,110324,,,A*71

$GPRMC,150828.90,A,4548.66359,N,00837.72779,E,0.100,,110324,,,A*79

$GPRMC,150829.00,A,4548.66358,N,00837.72779,E,0.124,,110324,,,A*76

$GPRMC,150829.10,A,4548.66358,N,00837.72780,E,0.109,,110324,,,A*7E

$GPRMC,150829.20,A,4548.66357,N,00837.72780,E,0.060,,110324,,,A*7C

$GPRMC,150829.30,A,4548.66357,N,00837.72781,E,0.095,,110324,,,A*76

$GPRMC,150829.40,A,4548.66356,N,00837.72781,E,0.042,,110324,,,A*7A

$GPRMC,150829.50,A,4548.66356,N,00837.72781,E,0.048,,110324,,,A*71

$GPRMC,150829.60,A,4548.66355,N,00837.72782,E,0.072,,110324,,,A*7B

$GPRMC,150829.70,A,4548.66354,N,00837.72781,E,0.102,,110324,,,A*7E

$GPRMC,150829.80,A,4548.66354,N,00837.72782,E,0.113,,110324,,,A*72

$GPRMC,150829.90,A,4548.66353,N,00837.72782,E,0.033,,110324,,,A*77

$GPRMC,150830.00,A,4548.66352,N,00837.72782,E,0.079,,110324,,,A*79

$GPRMC,150830.10,A,4548.66351,N,00837.72782,E,0.039,,110324,,,A*7F

$GPRMC,150830.20,A,4548.66350,N,00837.72782,E,0.045,,110324,,,A*76

$GPRMC,150830.30,A,4548.66349,N,00837.72782,E,0.026,,110324,,,A*7A

$GPRMC,150830.40,A,4548.66348,N,00837.72782,E,0.051,,110324,,,A*7C

$GPRMC,150830.50,A,4548.66347,N,00837.72782,E,0.038,,110324,,,A*7D

$GPRMC,150830.60,A,4548.66345,N,00837.72782,E,0.060,,110324,,,A*71

$GPRMC,150830.70,A,4548.66345,N,00837.72782,E,0.110,,110324,,,A*76

$GPRMC,150830.80,A,4548.66343,N,00837.72782,E,0.063,,110324,,,A*7A

$GPRMC,150830.90,A,4548.66343,N,00837.72782,E,0.072,,110324,,,A*7B

$GPRMC,150831.00,A,4548.66342,N,00837.72782,E,0.053,,110324,,,A*71

$GPRMC,150831.10,A,4548.66342,N,00837.72782,E,0.081,,110324,,,A*7F

$GPRMC,150831.20,A,4548.66341,N,00837.72783,E,0.042,,110324,,,A*71

$GPRMC,150831.30,A,4548.66340,N,00837.72783,E,0.035,,110324,,,A*71

$GPRMC,150831.40,A,4548.66340,N,00837.72783,E,0.095,,110324,,,A*7C

$GPRMC,150831.50,A,4548.66340,N,00837.72784,E,0.023,,110324,,,A*77

$GPRMC,150831.60,A,4548.66339,N,00837.72784,E,0.060,,110324,,,A*7D

$GPRMC,150831.70,A,4548.66339,N,00837.72784,E,0.047,,110324,,,A*79

$GPRMC,150831.80,A,4548.66339,N,00837.72785,E,0.027,,110324,,,A*71

$GPRMC,150831.90,A,4548.66339,N,00837.72785,E,0.087,,110324,,,A*7A

$GPRMC,150832.00,A,4548.66339,N,00837.72786,E,0.123,,110324,,,A*7C

$GPRMC,150832.10,A,4548.66339,N,00837.72786,E,0.085,,110324,,,A*70

$GPRMC,150832.20,A,4548.66339,N,00837.72786,E,0.027,,110324,,,A*7B

$GPRMC,150832.30,A,4548.66339,N,00837.72786,E,0.165,,110324,,,A*7D

$GPRMC,150832.40,A,4548.66339,N,00837.72787,E,0.025,,110324,,,A*7E

$GPRMC,150832.50,A,4548.66339,N,00837.72787,E,0.068,,110324,,,A*76

$GPRMC,150832.60,A,4548.66339,N,00837.72787,E,0.065,,110324,,,A*78

$GPRMC,150832.70,A,4548.66339,N,00837.72788,E,0.081,,110324,,,A*7C

$GPRMC,150832.80,A,4548.66339,N,00837.72788,E,0.008,,110324,,,A*72

$GPRMC,150832.90,A,4548.66339,N,00837.72788,E,0.038,,110324,,,A*70

$GPRMC,150833.00,A,4548.66339,N,00837.72788,E,0.050,,110324,,,A*76

$GPRMC,150833.10,A,4548.66339,N,00837.72789,E,0.099,,110324,,,A*73

$GPRMC,150833.20,A,4548.66338,N,00837.72789,E,0.130,,110324,,,A*73

$GPRMC,150833.30,A,4548.66338,N,00837.72789,E,0.074,,110324,,,A*73

$GPRMC,150833.40,A,4548.66338,N,00837.72789,E,0.060,,110324,,,A*71

$GPRMC,150833.50,A,4548.66338,N,00837.72789,E,0.048,,110324,,,A*7A

$GPRMC,150833.60,A,4548.66338,N,00837.72790,E,0.049,,110324,,,A*70

$GPRMC,150833.70,A,4548.66338,N,00837.72790,E,0.130,,110324,,,A*7E

$GPRMC,150833.80,A,4548.66338,N,00837.72791,E,0.092,,110324,,,A*79

$GPRMC,150833.90,A,4548.66339,N,00837.72791,E,0.151,,110324,,,A*77

$GPRMC,150834.00,A,4548.66338,N,00837.72791,E,0.102,,110324,,,A*7E

$GPRMC,150834.10,A,4548.66338,N,00837.72792,E,0.113,,110324,,,A*7C

$GPRMC,150834.20,A,4548.66339,N,00837.72792,E,0.035,,110324,,,A*7B

$GPRMC,150834.30,A,4548.66340,N,00837.72792,E,0.105,,110324,,,A*76

$GPRMC,150834.40,A,4548.66340,N,00837.72792,E,0.020,,110324,,,A*77

$GPRMC,150834.50,A,4548.66340,N,00837.72793,E,0.011,,110324,,,A*75

$GPRMC,150834.60,A,4548.66340,N,00837.72793,E,0.044,,110324,,,A*76

$GPRMC,150834.70,A,4548.66341,N,00837.72793,E,0.036,,110324,,,A*73

$GPRMC,150834.80,A,4548.66341,N,00837.72794,E,0.063,,110324,,,A*7B

$GPRMC,150834.90,A,4548.66342,N,00837.72794,E,0.059,,110324,,,A*70

$GPRMC,150835.00,A,4548.66342,N,00837.72794,E,0.049,,110324,,,A*79

$GPRMC,150835.10,A,4548.66343,N,00837.72795,E,0.095,,110324,,,A*79

$GPRMC,150835.20,A,4548.66343,N,00837.72795,E,0.046,,110324,,,A*74

$GPRMC,150835.30,A,4548.66344,N,00837.72795,E,0.036,,110324,,,A*75

$GPRMC,150835.40,A,4548.66344,N,00837.72796,E,0.017,,110324,,,A*72

$GPRMC,150835.50,A,4548.66345,N,00837.72796,E,0.048,,110324,,,A*78

$GPRMC,150835.60,A,4548.66345,N,00837.72796,E,0.020,,110324,,,A*75

$GPRMC,150835.70,A,4548.66345,N,00837.72796,E,0.099,,110324,,,A*76

$GPRMC,150835.80,A,4548.66346,N,00837.72796,E,0.111,,110324,,,A*7B

$GPRMC,150835.90,A,4548.66346,N,00837.72797,E,0.025,,110324,,,A*7D

$GPRMC,150836.00,A,4548.66347,N,00837.72797,E,0.094,,110324,,,A*7C

$GPRMC,150836.10,A,4548.66347,N,00837.72797,E,0.004,,110324,,,A*74

$GPRMC,150836.20,A,4548.66348,N,00837.72797,E,0.033,,110324,,,A*7C

$GPRMC,150836.30,A,4548.66348,N,00837.72798,E,0.041,,110324,,,A*77

$GPRMC,150836.40,A,4548.66349,N,00837.72798,E,0.036,,110324,,,A*71

$GPRMC,150836.50,A,4548.66349,N,00837.72798,E,0.044,,110324,,,A*75

$GPRMC,150836.60,A,4548.66350,N,00837.72798,E,0.008,,110324,,,A*76

$GPRMC,150836.70,A,4548.66351,N,00837.72799,E,0.063,,110324,,,A*7A

$GPRMC,150836.80,A,4548.66351,N,00837.72799,E,0.063,,110324,,,A*75

$GPRMC,150836.90,A,4548.66351,N,00837.72800,E,0.065,,110324,,,A*7D

$GPRMC,150837.00,A,4548.66352,N,00837.72799,E,0.034,,110324,,,A*7D

$GPRMC,150837.10,A,4548.66352,N,00837.72800,E,0.020,,110324,,,A*76

$GPRMC,150837.20,A,4548.66352,N,00837.72800,E,0.041,,110324,,,A*72

$GPRMC,150837.30,A,4548.66353,N,00837.72800,E,0.070,,110324,,,A*70

$GPRMC,150837.40,A,4548.66353,N,00837.72800,E,0.062,,110324,,,A*74

$GPRMC,150837.50,A,4548.66353,N,00837.72800,E,0.082,,110324,,,A*7B

$GPRMC,150837.60,A,4548.66353,N,00837.72800,E,0.118,,110324,,,A*7A

$GPRMC,150837.70,A,4548.66353,N,00837.72800,E,0.026,,110324,,,A*77

$GPRMC,150837.80,A,4548.66353,N,00837.72800,E,0.024,,110324,,,A*7A

$GPRMC,150837.90,A,4548.66353,N,00837.72800,E,0.046,,110324,,,A*7F

$GPRMC,150838.00,A,4548.66353,N,00837.72800,E,0.048,,110324,,,A*77

$GPRMC,150838.10,A,4548.66352,N,00837.72800,E,0.033,,110324,,,A*7B

$GPRMC,150838.20,A,4548.66352,N,00837.72800,E,0.024,,110324,,,A*7E

$GPRMC,150838.30,A,4548.66352,N,00837.72800,E,0.028,,110324,,,A*73

$GPRMC,150838.40,A,4548.66352,N,00837.72800,E,0.008,,110324,,,A*76

$GPRMC,150838.50,A,4548.66352,N,00837.72800,E,0.053,,110324,,,A*79

$GPRMC,150838.60,A,4548.66352,N,00837.72800,E,0.161,,110324,,,A*7A

$GPRMC,150838.70,A,4548.66352,N,00837.72800,E,0.033,,110324,,,A*7D

$GPRMC,150838.80,A,4548.66352,N,00837.72800,E,0.051,,110324,,,A*76

$GPRMC,150838.90,A,4548.66352,N,00837.72800,E,0.066,,110324,,,A*73

$GPRMC,150839.00,A,4548.66351,N,00837.72800,E,0.037,,110324,,,A*7C

$GPRMC,150839.10,A,4548.66352,N,00837.72800,E,0.056,,110324,,,A*79

$GPRMC,150839.20,A,4548.66351,N,00837.72799,E,0.057,,110324,,,A*77

$GPRMC,150839.30,A,4548.66351,N,00837.72799,E,0.023,,110324,,,A*75

$GPRMC,150839.40,A,4548.66351,N,00837.72799,E,0.021,,110324,,,A*70

$GPRMC,150839.50,A,4548.66351,N,00837.72799,E,0.049,,110324,,,A*7F

$GPRMC,150839.60,A,4548.66351,N,00837.72799,E,0.006,,110324,,,A*77

$GPRMC,150839.70,A,4548.66351,N,00837.72799,E,0.025,,110324,,,A*77

$GPRMC,150839.80,A,4548.66351,N,00837.72799,E,0.031,,110324,,,A*7D

$GPRMC,150839.90,A,4548.66350,N,00837.72798,E,0.083,,110324,,,A*75

$GPRMC,150840.00,A,4548.66351,N,00837.72798,E,0.076,,110324,,,A*79

$GPRMC,150840.10,A,4548.66349,N,00837.72798,E,0.086,,110324,,,A*7E

$GPRMC,150840.20,A,4548.66350,N,00837.72798,E,0.121,,110324,,,A*79

$GPRMC,150840.30,A,4548.66349,N,00837.72797,E,0.090,,110324,,,A*74

$GPRMC,150840.40,A,4548.66349,N,00837.72797,E,0.071,,110324,,,A*7C

$GPRMC,150840.50,A,4548.66348,N,00837.72796,E,0.046,,110324,,,A*79

$GPRMC,150840.60,A,4548.66348,N,00837.72797,E,0.034,,110324,,,A*7E

$GPRMC,150840.70,A,4548.66347,N,00837.72796,E,0.018,,110324,,,A*7F

$GPRMC,150840.80,A,4548.66347,N,00837.72796,E,0.060,,110324,,,A*7F

$GPRMC,150840.90,A,4548.66347,N,00837.72796,E,0.051,,110324,,,A*7C

$GPRMC,150841.00,A,4548.66346,N,00837.72796,E,0.048,,110324,,,A*7D

$GPRMC,150841.10,A,4548.66346,N,00837.72795,E,0.052,,110324,,,A*74

$GPRMC,150841.20,A,4548.66346,N,00837.72795,E,0.103,,110324,,,A*72

$GPRMC,150841.30,A,4548.66346,N,00837.72795,E,0.042,,110324,,,A*77

$GPRMC,150841.40,A,4548.66346,N,00837.72795,E,0.049,,110324,,,A*7B

$GPRMC,150841.50,A,4548.66345,N,00837.72794,E,0.024,,110324,,,A*73

$GPRMC,150841.60,A,4548.66344,N,00837.72794,E,0.014,,110324,,,A*72

$GPRMC,150841.70,A,4548.66344,N,00837.72794,E,0.054,,110324,,,A*77

$GPRMC,150841.80,A,4548.66343,N,00837.72793,E,0.129,,110324,,,A*73

$GPRMC,150841.90,A,4548.66343,N,00837.72793,E,0.084,,110324,,,A*74

$GPRMC,150842.00,A,4548.66342,N,00837.72793,E,0.101,,110324,,,A*73

$GPRMC,150842.10,A,4548.66342,N,00837.72792,E,0.103,,110324,,,A*71

$GPRMC,150842.20,A,4548.66342,N,00837.72792,E,0.098,,110324,,,A*71

$GPRMC,150842.30,A,4548.66341,N,00837.72792,E,0.045,,110324,,,A*73

$GPRMC,150842.40,A,4548.66342,N,00837.72792,E,0.128,,110324,,,A*7D

$GPRMC,150842.50,A,4548.66341,N,00837.72791,E,0.132,,110324,,,A*77

$GPRMC,150842.60,A,4548.66341,N,00837.72791,E,0.079,,110324,,,A*7A

$GPRMC,150842.70,A,4548.66340,N,00837.72791,E,0.019,,110324,,,A*7C

$GPRMC,150842.80,A,4548.66340,N,00837.72791,E,0.100,,110324,,,A*7A

$GPRMC,150842.90,A,4548.66340,N,00837.72790,E,0.112,,110324,,,A*79

$GPRMC,150843.00,A,4548.66339,N,00837.72791,E,0.092,,110324,,,A*77

$GPRMC,150843.10,A,4548.66339,N,00837.72791,E,0.061,,110324,,,A*7A

$GPRMC,150843.20,A,4548.66338,N,00837.72790,E,0.046,,110324,,,A*7C

$GPRMC,150843.30,A,4548.66338,N,00837.72790,E,0.101,,110324,,,A*7F

$GPRMC,150843.40,A,4548.66338,N,00837.72790,E,0.126,,110324,,,A*7D

$GPRMC,150843.50,A,4548.66337,N,00837.72789,E,0.100,,110324,,,A*7F

$GPRMC,150843.60,A,4548.66336,N,00837.72790,E,0.073,,110324,,,A*70

$GPRMC,150843.70,A,4548.66335,N,00837.72789,E,0.028,,110324,,,A*74

$GPRMC,150843.80,A,4548.66335,N,00837.72789,E,0.061,,110324,,,A*76

$GPRMC,150843.90,A,4548.66334,N,00837.72789,E,0.051,,110324,,,A*75

$GPRMC,150844.00,A,4548.66333,N,00837.72789,E,0.015,,110324,,,A*7C

$GPRMC,150844.10,A,4548.66333,N,00837.72789,E,0.046,,110324,,,A*7B

$GPRMC,150844.20,A,4548.66332,N,00837.72788,E,0.026,,110324,,,A*7E

$GPRMC,150844.30,A,4548.66331,N,00837.72788,E,0.031,,110324,,,A*7A

$GPRMC,150844.40,A,4548.66331,N,00837.72788,E,0.086,,110324,,,A*71

$GPRMC,150844.50,A,4548.66330,N,00837.72788,E,0.025,,110324,,,A*78

$GPRMC,150844.60,A,4548.66329,N,00837.72787,E,0.051,,110324,,,A*7F

$GPRMC,150844.70,A,4548.66328,N,00837.72788,E,0.067,,110324,,,A*75

$GPRMC,150844.80,A,4548.66327,N,00837.72787,E,0.037,,110324,,,A*7F

$GPRMC,150844.90,A,4548.66326,N,00837.72787,E,0.064,,110324,,,A*79

$GPRMC,150845.00,A,4548.66326,N,00837.72786,E,0.073,,110324,,,A*76

$GPRMC,150845.10,A,4548.66325,N,00837.72787,E,0.079,,110324,,,A*7F

$GPRMC,150845.20,A,4548.66323,N,00837.72786,E,0.137,,110324,,,A*70

$GPRMC,150845.30,A,4548.66323,N,00837.72786,E,0.061,,110324,,,A*73

$GPRMC,150845.40,A,4548.66322,N,00837.72786,E,0.058,,110324,,,A*7F

$GPRMC,150845.50,A,4548.66320,N,00837.72785,E,0.073,,110324,,,A*76

$GPRMC,150845.60,A,4548.66319,N,00837.72785,E,0.031,,110324,,,A*79

$GPRMC,150845.70,A,4548.66318,N,00837.72785,E,0.068,,110324,,,A*75

$GPRMC,150845.80,A,4548.66317,N,00837.72784,E,0.088,,110324,,,A*7A

$GPRMC,150845.90,A,4548.66316,N,00837.72784,E,0.049,,110324,,,A*77

$GPRMC,150846.00,A,4548.66315,N,00837.72784,E,0.060,,110324,,,A*75

$GPRMC,150846.10,A,4548.66313,N,00837.72784,E,0.058,,110324,,,A*79

$GPRMC,150846.20,A,4548.66312,N,00837.72784,E,0.166,,110324,,,A*77

$GPRMC,150846.30,A,4548.66311,N,00837.72783,E,0.071,,110324,,,A*75

$GPRMC,150846.40,A,4548.66310,N,00837.72783,E,0.130,,110324,,,A*77

$GPRMC,150846.50,A,4548.66309,N,00837.72783,E,0.067,,110324,,,A*7D

$GPRMC,150846.60,A,4548.66308,N,00837.72782,E,0.070,,110324,,,A*78

$GPRMC,150846.70,A,4548.66306,N,00837.72782,E,0.025,,110324,,,A*77

$GPRMC,150846.80,A,4548.66305,N,00837.72782,E,0.064,,110324,,,A*7E

$GPRMC,150846.90,A,4548.66304,N,00837.72781,E,0.055,,110324,,,A*7F

$GPRMC,150847.00,A,4548.66303,N,00837.72781,E,0.135,,110324,,,A*77

$GPRMC,150847.10,A,4548.66301,N,00837.72781,E,0.068,,110324,,,A*7D

$GPRMC,150847.20,A,4548.66300,N,00837.72780,E,0.033,,110324,,,A*70

$GPRMC,150847.30,A,4548.66299,N,00837.72780,E,0.020,,110324,,,A*72

$GPRMC,150847.40,A,4548.66298,N,00837.72780,E,0.169,,110324,,,A*78

$GPRMC,150847.50,A,4548.66296,N,00837.72779,E,0.105,,110324,,,A*7B

$GPRMC,150847.60,A,4548.66296,N,00837.72779,E,0.044,,110324,,,A*7C

$GPRMC,150847.70,A,4548.66294,N,00837.72778,E,0.074,,110324,,,A*7D

$GPRMC,150847.80,A,4548.66293,N,00837.72779,E,0.024,,110324,,,A*71

$GPRMC,150847.90,A,4548.66292,N,00837.72778,E,0.094,,110324,,,A*7B

$GPRMC,150848.00,A,4548.66290,N,00837.72778,E,0.079,,110324,,,A*7C

$GPRMC,150848.10,A,4548.66289,N,00837.72777,E,0.084,,110324,,,A*78

$GPRMC,150848.20,A,4548.66288,N,00837.72777,E,0.037,,110324,,,A*72

$GPRMC,150848.30,A,4548.66287,N,00837.72777,E,0.041,,110324,,,A*7D

$GPRMC,150848.40,A,4548.66286,N,00837.72776,E,0.090,,110324,,,A*76

$GPRMC,150848.50,A,4548.66285,N,00837.72776,E,0.096,,110324,,,A*72

$GPRMC,150848.60,A,4548.66284,N,00837.72776,E,0.030,,110324,,,A*7C

$GPRMC,150848.70,A,4548.66284,N,00837.72776,E,0.035,,110324,,,A*78

$GPRMC,150848.80,A,4548.66282,N,00837.72776,E,0.108,,110324,,,A*7E

$GPRMC,150848.90,A,4548.66282,N,00837.72775,E,0.092,,110324,,,A*7E

$GPRMC,150849.00,A,4548.66281,N,00837.72775,E,0.031,,110324,,,A*7C

$GPRMC,150849.10,A,4548.66281,N,00837.72775,E,0.006,,110324,,,A*79

$GPRMC,150849.20,A,4548.66281,N,00837.72775,E,0.092,,110324,,,A*77

$GPRMC,150849.30,A,4548.66280,N,00837.72775,E,0.039,,110324,,,A*76

$GPRMC,150849.40,A,4548.66280,N,00837.72775,E,0.049,,110324,,,A*76

$GPRMC,150849.50,A,4548.66279,N,00837.72776,E,0.150,,110324,,,A*7B

$GPRMC,150849.60,A,4548.66280,N,00837.72775,E,0.031,,110324,,,A*7B

$GPRMC,150849.70,A,4548.66279,N,00837.72775,E,0.144,,110324,,,A*7F

$GPRMC,150849.80,A,4548.66279,N,00837.72775,E,0.053,,110324,,,A*77

$GPRMC,150849.90,A,4548.66278,N,00837.72775,E,0.052,,110324,,,A*76

$GPRMC,150850.00,A,4548.66278,N,00837.72775,E,0.016,,110324,,,A*77

$GPRMC,150850.10,A,4548.66278,N,00837.72774,E,0.058,,110324,,,A*7D

$GPRMC,150850.20,A,4548.66277,N,00837.72774,E,0.138,,110324,,,A*76

$GPRMC,150850.30,A,4548.66277,N,00837.72774,E,0.034,,110324,,,A*7A

$GPRMC,150850.40,A,4548.66276,N,00837.72774,E,0.064,,110324,,,A*79

$GPRMC,150850.50,A,4548.66276,N,00837.72774,E,0.058,,110324,,,A*77

$GPRMC,150850.60,A,4548.66277,N,00837.72774,E,0.088,,110324,,,A*78

$GPRMC,150850.70,A,4548.66277,N,00837.72774,E,0.102,,110324,,,A*7A

$GPRMC,150850.80,A,4548.66276,N,00837.72774,E,0.150,,110324,,,A*73

$GPRMC,150850.90,A,4548.66276,N,00837.72773,E,0.185,,110324,,,A*7D

$GPRMC,150851.00,A,4548.66277,N,00837.72774,E,0.078,,110324,,,A*70

$GPRMC,150851.10,A,4548.66277,N,00837.72774,E,0.013,,110324,,,A*7C

$GPRMC,150851.20,A,4548.66276,N,00837.72774,E,0.031,,110324,,,A*7E

$GPRMC,150851.30,A,4548.66276,N,00837.72774,E,0.039,,110324,,,A*77

$GPRMC,150851.40,A,4548.66276,N,00837.72774,E,0.073,,110324,,,A*7E

$GPRMC,150851.50,A,4548.66276,N,00837.72773,E,0.019,,110324,,,A*74

$GPRMC,150851.60,A,4548.66276,N,00837.72774,E,0.069,,110324,,,A*77

$GPRMC,150851.70,A,4548.66276,N,00837.72773,E,0.073,,110324,,,A*7A

$GPRMC,150851.80,A,4548.66275,N,00837.72773,E,0.070,,110324,,,A*75

$GPRMC,150851.90,A,4548.66276,N,00837.72773,E,0.036,,110324,,,A*75

$GPRMC,150852.00,A,4548.66276,N,00837.72773,E,0.127,,110324,,,A*7E

$GPRMC,150852.10,A,4548.66276,N,00837.72773,E,0.041,,110324,,,A*7E

$GPRMC,150852.20,A,4548.66276,N,00837.72772,E,0.102,,110324,,,A*7A

$GPRMC,150852.30,A,4548.66276,N,00837.72772,E,0.016,,110324,,,A*7F

$GPRMC,150852.40,A,4548.66277,N,00837.72772,E,0.188,,110324,,,A*7F

$GPRMC,150852.50,A,4548.66276,N,00837.72772,E,0.051,,110324,,,A*7A

$GPRMC,150852.60,A,4548.66277,N,00837.72772,E,0.052,,110324,,,A*7B

$GPRMC,150852.70,A,4548.66277,N,00837.72772,E,0.039,,110324,,,A*77

$GPRMC,150852.80,A,4548.66278,N,00837.72772,E,0.057,,110324,,,A*7F

$GPRMC,150852.90,A,4548.66278,N,00837.72772,E,0.030,,110324,,,A*7F

$GPRMC,150853.00,A,4548.66278,N,00837.72772,E,0.135,,110324,,,A*73

$GPRMC,150853.10,A,4548.66278,N,00837.72772,E,0.040,,110324,,,A*71

$GPRMC,150853.20,A,4548.66279,N,00837.72772,E,0.060,,110324,,,A*71

$GPRMC,150853.30,A,4548.66279,N,00837.72772,E,0.007,,110324,,,A*71

$GPRMC,150853.40,A,4548.66280,N,00837.72772,E,0.016,,110324,,,A*70

$GPRMC,150853.50,A,4548.66280,N,00837.72772,E,0.016,,110324,,,A*71

$GPRMC,150853.60,A,4548.66281,N,00837.72771,E,0.032,,110324,,,A*76

$GPRMC,150853.70,A,4548.66282,N,00837.72772,E,0.092,,110324,,,A*7D

$GPRMC,150853.80,A,4548.66282,N,00837.72771,E,0.022,,110324,,,A*7A

$GPRMC,150853.90,A,4548.66283,N,00837.72772,E,0.041,,110324,,,A*7C

$GPRMC,150854.00,A,4548.66284,N,00837.72772,E,0.069,,110324,,,A*7F

$GPRMC,150854.10,A,4548.66284,N,00837.72771,E,0.038,,110324,,,A*79

$GPRMC,150854.20,A,4548.66285,N,00837.72771,E,0.041,,110324,,,A*75

$GPRMC,150854.30,A,4548.66286,N,00837.72771,E,0.078,,110324,,,A*7D

$GPRMC,150854.40,A,4548.66286,N,00837.72771,E,0.080,,110324,,,A*7D

$GPRMC,150854.50,A,4548.66287,N,00837.72771,E,0.022,,110324,,,A*75

$GPRMC,150854.60,A,4548.66287,N,00837.72771,E,0.189,,110324,,,A*76

$GPRMC,150854.70,A,4548.66288,N,00837.72771,E,0.034,,110324,,,A*7F

$GPRMC,150854.80,A,4548.66288,N,00837.72771,E,0.152,,110324,,,A*71

$GPRMC,150854.90,A,4548.66289,N,00837.72771,E,0.035,,110324,,,A*71

$GPRMC,150855.00,A,4548.66290,N,00837.72771,E,0.022,,110324,,,A*77

$GPRMC,150855.10,A,4548.66290,N,00837.72771,E,0.100,,110324,,,A*77

$GPRMC,150855.20,A,4548.66290,N,00837.72771,E,0.068,,110324,,,A*7B

$GPRMC,150855.30,A,4548.66292,N,00837.72771,E,0.070,,110324,,,A*71

$GPRMC,150855.40,A,4548.66293,N,00837.72771,E,0.040,,110324,,,A*74

$GPRMC,150855.50,A,4548.66294,N,00837.72771,E,0.069,,110324,,,A*79

$GPRMC,150855.60,A,4548.66294,N,00837.72771,E,0.070,,110324,,,A*72

$GPRMC,150855.70,A,4548.66296,N,00837.72772,E,0.075,,110324,,,A*77

$GPRMC,150855.80,A,4548.66297,N,00837.72772,E,0.025,,110324,,,A*7C

$GPRMC,150855.90,A,4548.66298,N,00837.72772,E,0.064,,110324,,,A*77

$GPRMC,150856.00,A,4548.66298,N,00837.72772,E,0.115,,110324,,,A*7A

$GPRMC,150856.10,A,4548.66300,N,00837.72772,E,0.092,,110324,,,A*75

$GPRMC,150856.20,A,4548.66301,N,00837.72772,E,0.094,,110324,,,A*71

$GPRMC,150856.30,A,4548.66302,N,00837.72772,E,0.106,,110324,,,A*79

$GPRMC,150856.40,A,4548.66303,N,00837.72772,E,0.070,,110324,,,A*7F

$GPRMC,150856.50,A,4548.66304,N,00837.72773,E,0.058,,110324,,,A*72

$GPRMC,150856.60,A,4548.66306,N,00837.72773,E,0.096,,110324,,,A*71

$GPRMC,150856.70,A,4548.66307,N,00837.72773,E,0.086,,110324,,,A*70

$GPRMC,150856.80,A,4548.66308,N,00837.72773,E,0.036,,110324,,,A*7B

$GPRMC,150856.90,A,4548.66309,N,00837.72773,E,0.042,,110324,,,A*78

$GPRMC,150857.00,A,4548.66311,N,00837.72773,E,0.239,,110324,,,A*77

$GPRMC,150857.10,A,4548.66311,N,00837.72773,E,0.106,,110324,,,A*79

$GPRMC,150857.20,A,4548.66312,N,00837.72773,E,0.088,,110324,,,A*7E

$GPRMC,150857.30,A,4548.66313,N,00837.72773,E,0.087,,110324,,,A*71

$GPRMC,150857.40,A,4548.66314,N,00837.72773,E,0.106,,110324,,,A*79

$GPRMC,150857.50,A,4548.66315,N,00837.72773,E,0.055,,110324,,,A*7E

$GPRMC,150857.60,A,4548.66316,N,00837.72773,E,0.047,,110324,,,A*7D

$GPRMC,150857.70,A,4548.66316,N,00837.72773,E,0.073,,110324,,,A*7B

$GPRMC,150857.80,A,4548.66317,N,00837.72773,E,0.074,,110324,,,A*72

$GPRMC,150857.90,A,4548.66318,N,00837.72773,E,0.026,,110324,,,A*7B

$GPRMC,150858.00,A,4548.66318,N,00837.72773,E,0.049,,110324,,,A*74

$GPRMC,150858.10,A,4548.66320,N,00837.72773,E,0.052,,110324,,,A*74

$GPRMC,150858.20,A,4548.66321,N,00837.72773,E,0.109,,110324,,,A*79

$GPRMC,150858.30,A,4548.66322,N,00837.72773,E,0.049,,110324,,,A*7E

$GPRMC,150858.40,A,4548.66322,N,00837.72773,E,0.075,,110324,,,A*76

$GPRMC,150858.50,A,4548.66324,N,00837.72773,E,0.094,,110324,,,A*7E

$GPRMC,150858.60,A,4548.66324,N,00837.72773,E,0.126,,110324,,,A*75

$GPRMC,150858.70,A,4548.66324,N,00837.72773,E,0.023,,110324,,,A*70

$GPRMC,150858.80,A,4548.66325,N,00837.72774,E,0.118,,110324,,,A*70

$GPRMC,150858.90,A,4548.66326,N,00837.72774,E,0.148,,110324,,,A*77

$GPRMC,150859.00,A,4548.66326,N,00837.72774,E,0.202,,110324,,,A*72

$GPRMC,150859.10,A,4548.66327,N,00837.72774,E,0.117,,110324,,,A*75

$GPRMC,150859.20,A,4548.66326,N,00837.72775,E,0.253,,110324,,,A*75

$GPRMC,150859.30,A,4548.66326,N,00837.72776,E,0.221,,110324,,,A*72

$GPRMC,150859.40,A,4548.66327,N,00837.72777,E,0.160,,110324,,,A*73

$GPRMC,150859.50,A,4548.66328,N,00837.72777,E,0.050,,110324,,,A*7F

$GPRMC,150859.60,A,4548.66328,N,00837.72777,E,0.150,,110324,,,A*7D

$GPRMC,150859.70,A,4548.66329,N,00837.72778,E,0.063,,110324,,,A*73

$GPRMC,150859.80,A,4548.66330,N,00837.72778,E,0.101,,110324,,,A*71

$GPRMC,150859.90,A,4548.66330,N,00837.72778,E,0.115,,110324,,,A*75

$GPRMC,150900.00,A,4548.66331,N,00837.72778,E,0.176,,110324,,,A*75

$GPRMC,150900.10,A,4548.66331,N,00837.72778,E,0.115,,110324,,,A*71

$GPRMC,150900.20,A,4548.66332,N,00837.72779,E,0.125,,110324,,,A*73

$GPRMC,150900.30,A,4548.66332,N,00837.72779,E,0.055,,110324,,,A*74

$GPRMC,150900.40,A,4548.66332,N,00837.72779,E,0.117,,110324,,,A*74

$GPRMC,150900.50,A,4548.66333,N,00837.72780,E,0.086,,110324,,,A*7B

$GPRMC,150900.60,A,4548.66333,N,00837.72781,E,0.078,,110324,,,A*78

$GPRMC,150900.70,A,4548.66333,N,00837.72781,E,0.053,,110324,,,A*70

$GPRMC,150900.80,A,4548.66333,N,00837.72781,E,0.104,,110324,,,A*7C

$GPRMC,150900.90,A,4548.66334,N,00837.72781,E,0.039,,110324,,,A*75

$GPRMC,150901.00,A,4548.66334,N,00837.72782,E,0.122,,110324,,,A*75

$GPRMC,150901.10,A,4548.66334,N,00837.72782,E,0.042,,110324,,,A*73

$GPRMC,150901.20,A,4548.66334,N,00837.72783,E,0.047,,110324,,,A*74

$GPRMC,150901.30,A,4548.66334,N,00837.72782,E,0.085,,110324,,,A*7A

$GPRMC,150901.40,A,4548.66334,N,00837.72782,E,0.078,,110324,,,A*7F

$GPRMC,150901.50,A,4548.66334,N,00837.72783,E,0.071,,110324,,,A*76

$GPRMC,150901.60,A,4548.66334,N,00837.72783,E,0.085,,110324,,,A*7E

$GPRMC,150901.70,A,4548.66334,N,00837.72783,E,0.052,,110324,,,A*75

$GPRMC,150901.80,A,4548.66335,N,00837.72782,E,0.161,,110324,,,A*7B

$GPRMC,150901.90,A,4548.66334,N,00837.72783,E,0.036,,110324,,,A*79

$GPRMC,150902.00,A,4548.66334,N,00837.72784,E,0.050,,110324,,,A*74

$GPRMC,150902.10,A,4548.66334,N,00837.72783,E,0.073,,110324,,,A*73

$GPRMC,150902.20,A,4548.66334,N,00837.72783,E,0.083,,110324,,,A*7F

$GPRMC,150902.30,A,4548.66334,N,00837.72783,E,0.050,,110324,,,A*70

$GPRMC,150902.40,A,4548.66334,N,00837.72783,E,0.040,,110324,,,A*76

$GPRMC,150902.50,A,4548.66334,N,00837.72784,E,0.061,,110324,,,A*73

$GPRMC,150902.60,A,4548.66334,N,00837.72783,E,0.042,,110324,,,A*76

$GPRMC,150902.70,A,4548.66335,N,00837.72784,E,0.089,,110324,,,A*76

$GPRMC,150902.80,A,4548.66335,N,00837.72784,E,0.014,,110324,,,A*7D

$GPRMC,150902.90,A,4548.66334,N,00837.72785,E,0.278,,110324,,,A*74

$GPRMC,150903.00,A,4548.66335,N,00837.72784,E,0.182,,110324,,,A*7A

$GPRMC,150903.10,A,4548.66335,N,00837.72784,E,0.080,,110324,,,A*78

