$GPRMC,150735.00,A,4548.66379,N,00837.72121,E,0.204,,110324,3.02,E,A*27

$GPRMC,150735.10,A,4548.66379,N,00837.72119,E,0.159,,110324,3.02,E,A*26

$GPRMC,150735.20,A,4548.66378,N,00837.72118,E,0.174,,110324,3.02,E,A*2A

$GPRMC,150735.30,A,4548.66378,N,00837.72116,E,0.187,,110324,3.02,E,A*29

$GPTXT,01,01,01,NMEA unknown msg*58

$GPTXT,01,01,02,u-blox AG - www.u-blox.com*50

$GPTXT,01,01,02,HW UBX-M8030 00080000*7E

$GPTXT,01,01,02,EXT CORE 3.01 (e3981c)*27

$GPTXT,01,01,02,ROM BASE 2.01 (75331)*07

$GPTXT,01,01,02,FWVER=UDR 1.31*5E

$GPTXT,01,01,02,PROTVER=19.20*0C

$GPTXT,01,01,02,MOD=NEO-M8U-0*62

$GPTXT,01,01,02,FIS=0xEF4015 (200043)*43

$GPTXT,01,01,02,GPS;GLO;GAL;BDS*69

$GPTXT,01,01,02,SBAS;IMES;QZSS*57

$GPTXT,01,01,02,GNSS OTP=GPS;GLO*29

$GPTXT,01,01,02,LLC=FFFFFFFF-FFFFFFFF-FFFFFFFF-5FFFFBFE-FFFFFF49*4A

$GPTXT,01,01,02,ANTSUPERV=AC *1E

$GPTXT,01,01,02,ANTSTATUS=OK*3B

$GPTXT,01,01,02,PF=3BF*51

$GPRMC,150735.40,A,4548.66378,N,00837.72114,E,0.151,,110324,3.02,E,A*27

$GPTXT,01,01,01,NMEA unknown msg*58

$GPRMC,150735.50,A,4548.66377,N,00837.72112,E,0.118,,110324,3.02,E,A*22

$GPRMC,150735.60,A,4548.66376,N,00837.72109,E,0.248,,110324,3.02,E,A*2C

$GPGST,150735.60,28,4.4,3.1,49,1.5,1.6,1.7*54

$GPRMC,150735.70,A,4548.66376,N,00837.72107,E,0.287,,110324,3.02,E,A*20

$GPRMC,150735.80,A,4548.66375,N,00837.72105,E,0.226,,110324,3.02,E,A*25

$GPRMC,150735.90,A,4548.66375,N,00837.72103,E,0.114,,110324,3.02,E,A*20

$GPTXT,01,01,01,NMEA unknown msg*58

$GPTXT,01,01,01,NMEA unknown msg*58

$GPRMC,150736.00,A,4548.66375,N,00837.72100,E,0.184,,110324,3.02,E,A*20

$GPRMC,150736.10,A,4548.66374,N,00837.72096,E,0.187,,110324,3.02,E,A*2D

$GPRMC,150736.20,A,4548.66374,N,00837.72096,E,0.129,,110324,3.02,E,A*2A

$GPRMC,150736.30,A,4548.66373,N,00837.72092,E,0.223,,110324,3.02,E,A*21

$GPRMC,150736.40,A,4548.66373,N,00837.72090,E,0.181,,110324,3.02,E,A*2F

$GPRMC,150736.50,A,4548.66373,N,00837.72087,E,0.209,,110324,3.02,E,A*2B

$GPRMC,150736.60,A,4548.66372,N,00837.72086,E,0.130,,110324,3.02,E,A*21

$GPGST,150736.60,28,4.4,3.0,49,1.5,1.5,1.7*55

$GPRMC,150736.70,A,4548.66372,N,00837.72084,E,0.109,,110324,3.02,E,A*28

$GPTXT,01,01,01,NMEA unknown msg*58

$GPRMC,150736.80,A,4548.66371,N,00837.72081,E,0.176,,110324,3.02,E,A*29

$GPRMC,150736.90,A,4548.66370,N,00837.72079,E,0.201,,110324,3.02,E,A*2D

$GPRMC,150737.00,A,4548.66370,N,00837.72078,E,0.185,,110324,3.02,E,A*2B

$GPRMC,150737.10,A,4548.66370,N,00837.72077,E,0.116,,110324,3.02,E,A*2F

$GPRMC,150737.20,A,4548.66369,N,00837.72075,E,0.159,,110324,3.02,E,A*2D

$GPRMC,150737.30,A,4548.66369,N,00837.72073,E,0.126,,110324,3.02,E,A*22

$GPRMC,150737.40,A,4548.66369,N,00837.72071,E,0.103,,110324,3.02,E,A*20

$GPRMC,150737.50,A,4548.66369,N,00837.72069,E,0.145,,110324,3.02,E,A*2A

$GPRMC,150737.60,A,4548.66369,N,00837.72067,E,0.078,,110324,3.02,E,A*28

$GPGST,150737.60,27,4.3,2.9,48,1.5,1.5,1.7*55

$GPRMC,150737.70,A,4548.66369,N,00837.72066,E,0.146,,110324,3.02,E,A*24

$GPRMC,150737.80,A,4548.66369,N,00837.72065,E,0.065,,110324,3.02,E,A*28

$GPTXT,01,01,01,NMEA unknown msg*58

$GPRMC,150737.90,A,4548.66369,N,00837.72064,E,0.023,,110324,3.02,E,A*2A

$GPRMC,150738.00,A,4548.66369,N,00837.72062,E,0.161,,110324,3.02,E,A*2D

$GPRMC,150738.10,A,4548.66369,N,00837.72061,E,0.119,,110324,3.02,E,A*20

$GPRMC,150738.20,A,4548.66369,N,00837.72059,E,0.090,,110324,3.02,E,A*28

$GPRMC,150738.30,A,4548.66369,N,00837.72057,E,0.156,,110324,3.02,E,A*2C

$GPRMC,150738.40,A,4548.66369,N,00837.72056,E,0.107,,110324,3.02,E,A*2E

$GPRMC,150738.50,A,4548.66368,N,00837.72056,E,0.116,,110324,3.02,E,A*2E

$GPRMC,150738.60,A,4548.66368,N,00837.72055,E,0.132,,110324,3.02,E,A*28

$GPGST,150738.60,28,4.2,2.9,48,1.4,1.5,1.7*55

$GPRMC,150738.70,A,4548.66368,N,00837.72054,E,0.123,,110324,3.02,E,A*28

$GPRMC,150738.80,A,4548.66368,N,00837.72052,E,0.146,,110324,3.02,E,A*22

$GPRMC,150738.90,A,4548.66368,N,00837.72051,E,0.107,,110324,3.02,E,A*25

$GPRMC,150739.00,A,4548.66368,N,00837.72051,E,0.025,,110324,3.02,E,A*2C

$GPRMC,150739.10,A,4548.66368,N,00837.72050,E,0.057,,110324,3.02,E,A*29

$GPRMC,150739.20,A,4548.66367,N,00837.72049,E,0.083,,110324,3.02,E,A*24

$GPRMC,150739.30,A,4548.66367,N,00837.72048,E,0.140,,110324,3.02,E,A*2A

$GPRMC,150739.40,A,4548.66367,N,00837.72047,E,0.091,,110324,3.02,E,A*2F

$GPRMC,150739.50,A,4548.66367,N,00837.72047,E,0.036,,110324,3.02,E,A*23

$GPRMC,150739.60,A,4548.66367,N,00837.72045,E,0.104,,110324,3.02,E,A*22

$GPGST,150739.60,27,4.2,2.8,48,1.4,1.5,1.7*5A

$GPRMC,150739.70,A,4548.66367,N,00837.72044,E,0.167,,110324,3.02,E,A*27

$GPRMC,150739.80,A,4548.66366,N,00837.72043,E,0.154,,110324,3.02,E,A*2E

$GPRMC,150739.90,A,4548.66367,N,00837.72044,E,0.068,,110324,3.02,E,A*27

$GPRMC,150740.00,A,4548.66367,N,00837.72043,E,0.057,,110324,3.02,E,A*2B

$GPRMC,150740.10,A,4548.66366,N,00837.72042,E,0.137,,110324,3.02,E,A*2D

$GPTXT,01,01,01,NMEA unknown msg*58

$GPRMC,150740.20,A,4548.66366,N,00837.72042,E,0.080,,110324,3.02,E,A*23

$GPRMC,150740.30,A,4548.66365,N,00837.72042,E,0.142,,110324,3.02,E,A*2E

$GPRMC,150740.40,A,4548.66365,N,00837.72041,E,0.133,,110324,3.02,E,A*2C

$GPRMC,150740.50,A,4548.66365,N,00837.72041,E,0.073,,110324,3.02,E,A*28

$GPRMC,150740.60,A,4548.66365,N,00837.72040,E,0.119,,110324,3.02,E,A*27

$GPGST,150740.60,27,4.1,2.7,48,1.4,1.4,1.7*59

$GPRMC,150740.70,A,4548.66365,N,00837.72039,E,0.103,,110324,3.02,E,A*23

$GPRMC,150740.80,A,4548.66364,N,00837.72039,E,0.131,,110324,3.02,E,A*2C

$GPRMC,150740.90,A,4548.66363,N,00837.72038,E,0.217,,110324,3.02,E,A*2C

$GPRMC,150741.00,A,4548.66363,N,00837.72038,E,0.188,,110324,3.02,E,A*21

$GPRMC,150741.10,A,4548.66362,N,00837.72037,E,0.160,,110324,3.02,E,A*28

$GPRMC,150741.20,A,4548.66362,N,00837.72038,E,0.112,,110324,3.02,E,A*21

$GPRMC,150741.30,A,4548.66362,N,00837.72039,E,0.062,,110324,3.02,E,A*27

$GPRMC,150741.40,A,4548.66361,N,00837.72039,E,0.075,,110324,3.02,E,A*25

$GPRMC,150741.50,A,4548.66361,N,00837.72041,E,0.051,,110324,3.02,E,A*2D

$GPTXT,01,01,01,NMEA unknown msg*58

$GPRMC,150741.60,A,4548.66361,N,00837.72041,E,0.020,,110324,3.02,E,A*28

$GPGST,150741.60,27,4.1,2.7,47,1.4,1.4,1.7*57

$GPRMC,150741.70,A,4548.66361,N,00837.72041,E,0.079,,110324,3.02,E,A*25

$GPRMC,150741.80,A,4548.66360,N,00837.72041,E,0.109,,110324,3.02,E,A*2D

$GPRMC,150741.90,A,4548.66360,N,00837.72042,E,0.139,,110324,3.02,E,A*2C

$GPRMC,150742.00,A,4548.66359,N,00837.72042,E,0.149,,110324,3.02,E,A*2B

$GPRMC,150742.10,A,4548.66359,N,00837.72042,E,0.108,,110324,3.02,E,A*2F

$GPRMC,150742.20,A,4548.66360,N,00837.72042,E,0.096,,110324,3.02,E,A*20

$GPRMC,150742.30,A,4548.66359,N,00837.72043,E,0.147,,110324,3.02,E,A*27

$GPRMC,150742.40,A,4548.66359,N,00837.72043,E,0.080,,110324,3.02,E,A*2A

$GPRMC,150742.50,A,4548.66359,N,00837.72044,E,0.119,,110324,3.02,E,A*2D

$GPRMC,150742.60,A,4548.66359,N,00837.72045,E,0.148,,110324,3.02,E,A*2B

$GPGST,150742.60,27,4.0,2.6,47,1.3,1.4,1.7*53

$GPTXT,01,01,01,NMEA unknown msg*58

$GPTXT,01,01,01,NMEA unknown msg*58

$GPRMC,150742.70,A,4548.66359,N,00837.72047,E,0.028,,110324,3.02,E,A*2F

$GPRMC,150742.80,A,4548.66359,N,00837.72048,E,0.106,,110324,3.02,E,A*22

$GPRMC,150742.90,A,4548.66359,N,00837.72049,E,0.114,,110324,3.02,E,A*21

$GPRMC,150743.00,A,4548.66359,N,00837.72050,E,0.105,,110324,3.02,E,A*21

$GPRMC,150743.10,A,4548.66358,N,00837.72052,E,0.144,,110324,3.02,E,A*26

$GPRMC,150743.20,A,4548.66359,N,00837.72053,E,0.095,,110324,3.02,E,A*28

$GPRMC,150743.30,A,4548.66358,N,00837.72053,E,0.060,,110324,3.02,E,A*22

$GPRMC,150743.40,A,4548.66358,N,00837.72055,E,0.136,,110324,3.02,E,A*21

$GPRMC,150743.50,A,4548.66358,N,00837.72055,E,0.129,,110324,3.02,E,A*2E

$GPTXT,01,01,01,NMEA unknown msg*58

$GPRMC,150743.60,A,4548.66358,N,00837.72056,E,0.122,,110324,3.02,E,A*25

$GPGST,150743.60,27,4.0,2.6,47,1.3,1.4,1.7*52

$GPRMC,150743.70,A,4548.66357,N,00837.72058,E,0.127,,110324,3.02,E,A*20

$GPRMC,150743.80,A,4548.66357,N,00837.72058,E,0.108,,110324,3.02,E,A*22

$GPTXT,01,01,01,NMEA unknown msg*58

$GPRMC,150743.90,A,4548.66357,N,00837.72060,E,0.071,,110324,3.02,E,A*27

$GPRMC,150744.00,A,4548.66357,N,00837.72062,E,0.005,,110324,3.02,E,A*28

$GPRMC,150744.10,A,4548.66356,N,00837.72063,E,0.058,,110324,3.02,E,A*21

$GPRMC,150744.20,A,4548.66356,N,00837.72064,E,0.073,,110324,3.02,E,A*2C

$GPRMC,150744.30,A,4548.66356,N,00837.72066,E,0.016,,110324,3.02,E,A*2C

$GPRMC,150744.40,A,4548.66355,N,00837.72067,E,0.148,,110324,3.02,E,A*23

$GPRMC,150744.50,A,4548.66355,N,00837.72068,E,0.060,,110324,3.02,E,A*26

$GPRMC,150744.60,A,4548.66354,N,00837.72070,E,0.092,,110324,3.02,E,A*20

$GPGST,150744.60,27,3.9,2.5,46,1.3,1.3,1.8*51

$GPRMC,150744.70,A,4548.66354,N,00837.72071,E,0.027,,110324,3.02,E,A*2E

$GPRMC,150744.80,A,4548.66354,N,00837.72073,E,0.093,,110324,3.02,E,A*2C

$GPRMC,150744.90,A,4548.66354,N,00837.72074,E,0.046,,110324,3.02,E,A*22

$GPRMC,150745.00,A,4548.66353,N,00837.72074,E,0.079,,110324,3.02,E,A*21

$GPRMC,150745.10,A,4548.66353,N,00837.72075,E,0.067,,110324,3.02,E,A*2E

$GPRMC,150745.20,A,4548.66353,N,00837.72076,E,0.062,,110324,3.02,E,A*2B

$GPRMC,150745.30,A,4548.66353,N,00837.72078,E,0.093,,110324,3.02,E,A*2A

$GPRMC,150745.40,A,4548.66353,N,00837.72079,E,0.067,,110324,3.02,E,A*27

$GPRMC,150745.50,A,4548.66352,N,00837.72079,E,0.037,,110324,3.02,E,A*22

$GPRMC,150745.60,A,4548.66352,N,00837.72081,E,0.180,,110324,3.02,E,A*2B

$GPGST,150745.60,27,3.8,2.5,45,1.3,1.3,1.8*52

$GPRMC,150745.70,A,4548.66352,N,00837.72082,E,0.057,,110324,3.02,E,A*22

$GPTXT,01,01,01,NMEA unknown msg*58

$GPRMC,150745.80,A,4548.66352,N,00837.72084,E,0.093,,110324,3.02,E,A*23

$GPRMC,150745.90,A,4548.66352,N,00837.72085,E,0.039,,110324,3.02,E,A*23

$GPRMC,150746.00,A,4548.66352,N,00837.72087,E,0.136,,110324,3.02,E,A*25

$GPRMC,150746.10,A,4548.66352,N,00837.72088,E,0.020,,110324,3.02,E,A*2D

$GPRMC,150746.20,A,4548.66351,N,00837.72088,E,0.169,,110324,3.02,E,A*21

$GPTXT,01,01,01,NMEA unknown msg*58

$GPRMC,150746.30,A,4548.66350,N,00837.72089,E,0.124,,110324,3.02,E,A*29

$GPRMC,150746.40,A,4548.66350,N,00837.72090,E,0.143,,110324,3.02,E,A*27

$GPRMC,150746.50,A,4548.66350,N,00837.72091,E,0.137,,110324,3.02,E,A*24

$GPRMC,150746.60,A,4548.66349,N,00837.72092,E,0.107,,110324,3.02,E,A*2F

$GPGST,150746.60,28,3.8,2.4,44,1.3,1.3,1.8*5E

$GPRMC,150746.70,A,4548.66349,N,00837.72093,E,0.137,,110324,3.02,E,A*2C

$GPRMC,150746.80,A,4548.66349,N,00837.72094,E,0.105,,110324,3.02,E,A*25

$GPRMC,150746.90,A,4548.66349,N,00837.72094,E,0.128,,110324,3.02,E,A*2B

$GPRMC,150747.00,A,4548.66349,N,00837.72094,E,0.177,,110324,3.02,E,A*29

$GPRMC,150747.10,A,4548.66348,N,00837.72096,E,0.164,,110324,3.02,E,A*29

$GPRMC,150747.20,A,4548.66347,N,00837.72096,E,0.152,,110324,3.02,E,A*20

$GPRMC,150747.30,A,4548.66347,N,00837.72096,E,0.184,,110324,3.02,E,A*2A

$GPRMC,150747.40,A,4548.66346,N,00837.72097,E,0.126,,110324,3.02,E,A*25

$GPRMC,150747.50,A,4548.66345,N,00837.72096,E,0.255,,110324,3.02,E,A*21

$GPRMC,150747.60,A,4548.66345,N,00837.72098,E,0.194,,110324,3.02,E,A*22

$GPGST,150747.60,38,3.7,2.4,44,1.3,1.3,1.8*51

$GPRMC,150747.70,A,4548.66344,N,00837.72098,E,0.216,,110324,3.02,E,A*2B

$GPRMC,150747.80,A,4548.66343,N,00837.72098,E,0.133,,110324,3.02,E,A*27

$GPRMC,150747.90,A,4548.66342,N,00837.72098,E,0.180,,110324,3.02,E,A*2F

$GPRMC,150748.00,A,4548.66341,N,00837.72098,E,0.226,,110324,3.02,E,A*25

$GPRMC,150748.10,A,4548.66341,N,00837.72099,E,0.163,,110324,3.02,E,A*27

$GPRMC,150748.20,A,4548.66340,N,00837.72099,E,0.126,,110324,3.02,E,A*24

$GPRMC,150748.30,A,4548.66339,N,00837.72098,E,0.147,,110324,3.02,E,A*2D

$GPRMC,150748.40,A,4548.66338,N,00837.72098,E,0.132,,110324,3.02,E,A*29

$GPRMC,150748.50,A,4548.66337,N,00837.72098,E,0.222,,110324,3.02,E,A*25

$GPTXT,01,01,01,NMEA unknown msg*58

$GPRMC,150748.60,A,4548.66336,N,00837.72097,E,0.263,,110324,3.02,E,A*2D

$GPGST,150748.60,39,3.7,2.4,44,1.3,1.2,1.8*5E

$GPRMC,150748.70,A,4548.66336,N,00837.72097,E,0.180,,110324,3.02,E,A*22

$GPRMC,150748.80,A,4548.66336,N,00837.72097,E,0.138,,110324,3.02,E,A*2E

$GPRMC,150748.90,A,4548.66336,N,00837.72097,E,0.123,,110324,3.02,E,A*25

$GPRMC,150749.00,A,4548.66335,N,00837.72097,E,0.140,,110324,3.02,E,A*2B

$GPRMC,150749.10,A,4548.66335,N,00837.72096,E,0.078,,110324,3.02,E,A*21

$GPRMC,150749.20,A,4548.66335,N,00837.72096,E,0.023,,110324,3.02,E,A*2C

$GPRMC,150749.30,A,4548.66335,N,00837.72096,E,0.083,,110324,3.02,E,A*27

$GPRMC,150749.40,A,4548.66334,N,00837.72095,E,0.110,,110324,3.02,E,A*29

$GPRMC,150749.50,A,4548.66334,N,00837.72096,E,0.090,,110324,3.02,E,A*22

$GPRMC,150749.60,A,4548.66334,N,00837.72096,E,0.096,,110324,3.02,E,A*27

$GPGST,150749.60,41,3.6,2.4,43,1.2,1.2,1.8*57

$GPRMC,150749.70,A,4548.66333,N,00837.72096,E,0.214,,110324,3.02,E,A*29

$GPTXT,01,01,01,NMEA unknown msg*58

$GPRMC,150749.80,A,4548.66332,N,00837.72095,E,0.091,,110324,3.02,E,A*2B

$GPTXT,01,01,01,NMEA unknown msg*58

$GPRMC,150749.90,A,4548.66332,N,00837.72095,E,0.112,,110324,3.02,E,A*20

$GPTXT,01,01,01,NMEA unknown msg*58

$GPRMC,150750.00,A,4548.66332,N,00837.72094,E,0.040,,110324,3.02,E,A*26

$GPRMC,150750.10,A,4548.66331,N,00837.72094,E,0.107,,110324,3.02,E,A*26

$GPRMC,150750.20,A,4548.66331,N,00837.72095,E,0.135,,110324,3.02,E,A*25

$GPRMC,150750.30,A,4548.66330,N,00837.72095,E,0.124,,110324,3.02,E,A*25

$GPRMC,150750.40,A,4548.66329,N,00837.72095,E,0.141,,110324,3.02,E,A*29

$GPRMC,150750.50,A,4548.66329,N,00837.72095,E,0.150,,110324,3.02,E,A*28

$GPRMC,150750.60,A,4548.66329,N,00837.72096,E,0.058,,110324,3.02,E,A*21

$GPGST,150750.60,38,3.5,2.4,43,1.2,1.2,1.8*52

$GPRMC,150750.70,A,4548.66328,N,00837.72095,E,0.166,,110324,3.02,E,A*2E

$GPRMC,150750.80,A,4548.66327,N,00837.72094,E,0.245,,110324,3.02,E,A*2D

$GPRMC,150750.90,A,4548.66327,N,00837.72095,E,0.138,,110324,3.02,E,A*24

$GPRMC,150751.00,A,4548.66326,N,00837.72095,E,0.229,,110324,3.02,E,A*2E

$GPTXT,01,01,01,NMEA unknown msg*58

$GPRMC,150751.10,A,4548.66325,N,00837.72096,E,0.145,,110324,3.02,E,A*26

$GPRMC,150751.20,A,4548.66325,N,00837.72097,E,0.124,,110324,3.02,E,A*23

$GPRMC,150751.30,A,4548.66325,N,00837.72098,E,0.039,,110324,3.02,E,A*20

$GPRMC,150751.40,A,4548.66325,N,00837.72100,E,0.069,,110324,3.02,E,A*22

$GPRMC,150751.50,A,4548.66325,N,00837.72101,E,0.025,,110324,3.02,E,A*2A

$GPRMC,150751.60,A,4548.66325,N,00837.72104,E,0.208,,110324,3.02,E,A*21

$GPGST,150751.60,39,3.5,2.4,43,1.2,1.2,1.9*53

$GPRMC,150751.70,A,4548.66325,N,00837.72104,E,0.113,,110324,3.02,E,A*29

$GPRMC,150751.80,A,4548.66325,N,00837.72106,E,0.026,,110324,3.02,E,A*23

$GPRMC,150751.90,A,4548.66325,N,00837.72108,E,0.052,,110324,3.02,E,A*2F

$GPRMC,150752.00,A,4548.66325,N,00837.72109,E,0.093,,110324,3.02,E,A*29

$GPRMC,150752.10,A,4548.66326,N,00837.72112,E,0.117,,110324,3.02,E,A*2C

$GPRMC,150752.20,A,4548.66326,N,00837.72115,E,0.148,,110324,3.02,E,A*22

$GPRMC,150752.30,A,4548.66327,N,00837.72117,E,0.157,,110324,3.02,E,A*2E

$GPRMC,150752.40,A,4548.66327,N,00837.72118,E,0.034,,110324,3.02,E,A*22

$GPRMC,150752.50,A,4548.66326,N,00837.72119,E,0.162,,110324,3.02,E,A*21

$GPRMC,150752.60,A,4548.66326,N,00837.72120,E,0.129,,110324,3.02,E,A*27

$GPGST,150752.60,36,3.5,2.3,44,1.2,1.2,1.9*5F

$GPRMC,150752.70,A,4548.66327,N,00837.72121,E,0.026,,110324,3.02,E,A*28

$GPRMC,150752.80,A,4548.66327,N,00837.72123,E,0.186,,110324,3.02,E,A*2E

$GPRMC,150752.90,A,4548.66327,N,00837.72124,E,0.111,,110324,3.02,E,A*26

$GPRMC,150753.00,A,4548.66327,N,00837.72125,E,0.234,,110324,3.02,E,A*2B

$GPRMC,150753.10,A,4548.66328,N,00837.72126,E,0.209,,110324,3.02,E,A*28

$GPRMC,150753.20,A,4548.66328,N,00837.72125,E,0.247,,110324,3.02,E,A*22

$GPRMC,150753.30,A,4548.66327,N,00837.72125,E,0.237,,110324,3.02,E,A*2B

$GPRMC,150753.40,A,4548.66327,N,00837.72125,E,0.300,,110324,3.02,E,A*29

$GPRMC,150753.50,A,4548.66327,N,00837.72125,E,0.245,,110324,3.02,E,A*28

$GPRMC,150753.60,A,4548.66327,N,00837.72127,E,0.115,,110324,3.02,E,A*2F

$GPGST,150753.60,38,3.5,2.3,45,1.2,1.2,1.9*51

$GPRMC,150753.70,A,4548.66327,N,00837.72128,E,0.176,,110324,3.02,E,A*24

$GPTXT,01,01,01,NMEA unknown msg*58

$GPTXT,01,01,01,NMEA unknown msg*58

$GPRMC,150753.80,A,4548.66327,N,00837.72128,E,0.134,,110324,3.02,E,A*2D

$GPRMC,150753.90,A,4548.66326,N,00837.72126,E,0.115,,110324,3.02,E,A*20

$GPRMC,150754.00,A,4548.66326,N,00837.72125,E,0.115,,110324,3.02,E,A*2D

$GPRMC,150754.10,A,4548.66326,N,00837.72123,E,0.102,,110324,3.02,E,A*2C

$GPRMC,150754.20,A,4548.66326,N,00837.72122,E,0.138,,110324,3.02,E,A*27

$GPRMC,150754.30,A,4548.66325,N,00837.72120,E,0.098,,110324,3.02,E,A*2C

$GPRMC,150754.40,A,4548.66325,N,00837.72120,E,0.072,,110324,3.02,E,A*2F

$GPTXT,01,01,01,NMEA unknown msg*58

$GPRMC,150754.50,A,4548.66325,N,00837.72121,E,0.187,,110324,3.02,E,A*24

$GPTXT,01,01,01,NMEA unknown msg*58

$GPRMC,150754.60,A,4548.66324,N,00837.72119,E,0.063,,110324,3.02,E,A*26

$GPGST,150754.60,33,3.5,2.3,44,1.2,1.2,1.9*5C

$GPRMC,150754.70,A,4548.66323,N,00837.72118,E,0.227,,110324,3.02,E,A*23

$GPRMC,150754.80,A,4548.66321,N,00837.72116,E,0.438,,110324,3.02,E,A*28

$GPRMC,150754.90,A,4548.66321,N,00837.72118,E,0.360,,110324,3.02,E,A*2D

$GPRMC,150755.00,A,4548.66321,N,00837.72117,E,0.330,,110324,3.02,E,A*2F

$GPRMC,150755.10,A,4548.66321,N,00837.72115,E,0.284,,110324,3.02,E,A*22

$GPRMC,150755.20,A,4548.66320,N,00837.72115,E,0.291,,110324,3.02,E,A*24

$GPRMC,150755.30,A,4548.66319,N,00837.72114,E,0.322,,110324,3.02,E,A*27

$GPRMC,150755.40,A,4548.66319,N,00837.72114,E,0.277,,110324,3.02,E,A*21

$GPRMC,150755.50,A,4548.66318,N,00837.72114,E,0.293,,110324,3.02,E,A*2B

$GPTXT,01,01,01,NMEA unknown msg*58

$GPRMC,150755.60,A,4548.66316,N,00837.72114,E,0.284,,110324,3.02,E,A*20

$GPGST,150755.60,38,3.5,2.3,42,1.2,1.2,1.9*50

$GPTXT,01,01,01,NMEA unknown msg*58

$GPTXT,01,01,01,NMEA unknown msg*58

$GPRMC,150755.70,A,4548.66315,N,00837.72113,E,0.329,,110324,3.02,E,A*23

$GPRMC,150755.80,A,4548.66315,N,00837.72114,E,0.217,,110324,3.02,E,A*27

$GPRMC,150755.90,A,4548.66314,N,00837.72116,E,0.247,,110324,3.02,E,A*20

$GPRMC,150756.00,A,4548.66312,N,00837.72118,E,0.308,,110324,3.02,E,A*28

$GPRMC,150756.10,A,4548.66311,N,00837.72120,E,0.401,,110324,3.02,E,A*2F

$GPRMC,150756.20,A,4548.66310,N,00837.72120,E,0.334,,110324,3.02,E,A*2C

$GPRMC,150756.30,A,4548.66309,N,00837.72121,E,0.256,,110324,3.02,E,A*21

$GPRMC,150756.40,A,4548.66308,N,00837.72122,E,0.283,,110324,3.02,E,A*2C

$GPRMC,150756.50,A,4548.66308,N,00837.72122,E,0.238,,110324,3.02,E,A*2D

$GPRMC,150756.60,A,4548.66309,N,00837.72124,E,0.116,,110324,3.02,E,A*26

$GPGST,150756.60,38,3.6,2.3,40,1.3,1.2,2.0*59

$GPRMC,150756.70,A,4548.66309,N,00837.72125,E,0.094,,110324,3.02,E,A*2D

$GPRMC,150756.80,A,4548.66309,N,00837.72126,E,0.089,,110324,3.02,E,A*2D

$GPRMC,150756.90,A,4548.66310,N,00837.72127,E,0.094,,110324,3.02,E,A*29

$GPTXT,01,01,01,NMEA unknown msg*58

$GPRMC,150757.00,A,4548.66311,N,00837.72128,E,0.169,,110324,3.02,E,A*2C

$GPRMC,150757.10,A,4548.66311,N,00837.72130,E,0.125,,110324,3.02,E,A*2C

$GPRMC,150757.20,A,4548.66312,N,00837.72132,E,0.137,,110324,3.02,E,A*2D

$GPRMC,150757.30,A,4548.66312,N,00837.72133,E,0.089,,110324,3.02,E,A*29

$GPRMC,150757.40,A,4548.66313,N,00837.72135,E,0.149,,110324,3.02,E,A*24

$GPRMC,150757.50,A,4548.66314,N,00837.72136,E,0.126,,110324,3.02,E,A*28

$GPRMC,150757.60,A,4548.66315,N,00837.72138,E,0.163,,110324,3.02,E,A*25

$GPGST,150757.60,39,3.6,2.3,38,1.3,1.2,2.0*56

$GPRMC,150757.70,A,4548.66315,N,00837.72139,E,0.066,,110324,3.02,E,A*21

$GPRMC,150757.80,A,4548.66315,N,00837.72140,E,0.054,,110324,3.02,E,A*21

$GPRMC,150757.90,A,4548.66314,N,00837.72140,E,0.085,,110324,3.02,E,A*2D

$GPRMC,150758.00,A,4548.66313,N,00837.72141,E,0.170,,110324,3.02,E,A*26

$GPRMC,150758.10,A,4548.66313,N,00837.72141,E,0.254,,110324,3.02,E,A*22

$GPRMC,150758.20,A,4548.66313,N,00837.72142,E,0.300,,110324,3.02,E,A*22

$GPRMC,150758.30,A,4548.66312,N,00837.72142,E,0.338,,110324,3.02,E,A*29

$GPRMC,150758.40,A,4548.66312,N,00837.72144,E,0.243,,110324,3.02,E,A*25

$GPRMC,150758.50,A,4548.66312,N,00837.72144,E,0.244,,110324,3.02,E,A*23

$GPRMC,150758.60,A,4548.66312,N,00837.72145,E,0.256,,110324,3.02,E,A*22

$GPGST,150758.60,40,3.6,2.3,36,1.3,1.1,2.0*5A

$GPRMC,150758.70,A,4548.66312,N,00837.72146,E,0.221,,110324,3.02,E,A*20

$GPRMC,150758.80,A,4548.66311,N,00837.72147,E,0.232,,110324,3.02,E,A*2F

$GPRMC,150758.90,A,4548.66312,N,00837.72148,E,0.183,,110324,3.02,E,A*2B

$GPRMC,150759.00,A,4548.66312,N,00837.72148,E,0.142,,110324,3.02,E,A*2E

$GPRMC,150759.10,A,4548.66313,N,00837.72150,E,0.179,,110324,3.02,E,A*2F

$GPRMC,150759.20,A,4548.66312,N,00837.72150,E,0.113,,110324,3.02,E,A*21

$GPRMC,150759.30,A,4548.66313,N,00837.72150,E,0.074,,110324,3.02,E,A*21

$GPTXT,01,01,01,NMEA unknown msg*58

$GPRMC,150759.40,A,4548.66313,N,00837.72150,E,0.080,,110324,3.02,E,A*2D

$GPRMC,150759.50,A,4548.66313,N,00837.72150,E,0.087,,110324,3.02,E,A*2B

$GPRMC,150759.60,A,4548.66313,N,00837.72150,E,0.000,,110324,3.02,E,A*27

$GPGST,150759.60,39,3.7,2.3,35,1.3,1.1,2.0*57

$GPRMC,150759.70,A,4548.66313,N,00837.72150,E,0.000,,110324,3.02,E,A*26

$GPTXT,01,01,01,NMEA unknown msg*58

$GPRMC,150759.80,A,4548.66312,N,00837.72151,E,0.157,,110324,3.02,E,A*2A

$GPRMC,150759.90,A,4548.66310,N,00837.72152,E,0.223,,110324,3.02,E,A*2A

$GPRMC,150800.00,A,4548.66308,N,00837.72153,E,0.227,,110324,3.02,E,A*2C

$GPRMC,150800.10,A,4548.66307,N,00837.72154,E,0.154,,110324,3.02,E,A*22

$GPRMC,150800.20,A,4548.66306,N,00837.72155,E,0.086,,110324,3.02,E,A*2F

$GPTXT,01,01,01,NMEA unknown msg*58

$GPRMC,150800.30,A,4548.66306,N,00837.72156,E,0.075,,110324,3.02,E,A*21

$GPRMC,150800.40,A,4548.66305,N,00837.72157,E,0.109,,110324,3.02,E,A*2E

$GPRMC,150800.50,A,4548.66305,N,00837.72158,E,0.084,,110324,3.02,E,A*24

$GPTXT,01,01,01,NMEA unknown msg*58

$GPRMC,150800.60,A,4548.66304,N,00837.72159,E,0.192,,110324,3.02,E,A*21

$GPGST,150800.60,38,4.6,4.2,29,1.8,1.7,1.6*51

$GPRMC,150800.70,A,4548.66304,N,00837.72160,E,0.098,,110324,3.02,E,A*21

$GPTXT,01,01,01,NMEA unknown msg*58

$GPRMC,150800.80,A,4548.66305,N,00837.72161,E,0.014,,110324,3.02,E,A*2A

$GPRMC,150800.90,A,4548.66305,N,00837.72162,E,0.091,,110324,3.02,E,A*25

$GPRMC,150801.00,A,4548.66305,N,00837.72164,E,0.061,,110324,3.02,E,A*24

$GPRMC,150801.10,A,4548.66305,N,00837.72164,E,0.048,,110324,3.02,E,A*2E

$GPTXT,01,01,01,NMEA unknown msg*58

$GPRMC,150801.20,A,4548.66304,N,00837.72165,E,0.039,,110324,3.02,E,A*2B

$GPRMC,150801.30,A,4548.66304,N,00837.72166,E,0.019,,110324,3.02,E,A*2B

$GPRMC,150801.40,A,4548.66303,N,00837.72167,E,0.122,,110324,3.02,E,A*23

$GPRMC,150801.50,A,4548.66302,N,00837.72168,E,0.153,,110324,3.02,E,A*2A

$GPTXT,01,01,01,NMEA unknown msg*58

$GPRMC,150801.60,A,4548.66300,N,00837.72168,E,0.210,,110324,3.02,E,A*2F

$GPGST,150801.60,33,4.5,3.8,27,1.8,1.6,1.6*5A

$GPRMC,150801.70,A,4548.66299,N,00837.72169,E,0.213,,110324,3.02,E,A*2D

$GPRMC,150801.80,A,4548.66298,N,00837.72170,E,0.189,,110324,3.02,E,A*2B

$GPRMC,150801.90,A,4548.66297,N,00837.72170,E,0.245,,110324,3.02,E,A*26

$GPRMC,150802.00,A,4548.66296,N,00837.72170,E,0.228,,110324,3.02,E,A*26

$GPRMC,150802.10,A,4548.66295,N,00837.72171,E,0.253,,110324,3.02,E,A*29

$GPRMC,150802.20,A,4548.66293,N,00837.72171,E,0.291,,110324,3.02,E,A*22

$GPRMC,150802.30,A,4548.66292,N,00837.72171,E,0.286,,110324,3.02,E,A*24

$GPRMC,150802.40,A,4548.66291,N,00837.72172,E,0.233,,110324,3.02,E,A*2D

$GPRMC,150802.50,A,4548.66290,N,00837.72172,E,0.221,,110324,3.02,E,A*2E

$GPRMC,150802.60,A,4548.66289,N,00837.72173,E,0.137,,110324,3.02,E,A*20

$GPGST,150802.60,37,4.5,3.5,27,1.7,1.5,1.6*5C

$GPRMC,150802.70,A,4548.66289,N,00837.72175,E,0.078,,110324,3.02,E,A*2D

$GPRMC,150802.80,A,4548.66287,N,00837.72175,E,0.107,,110324,3.02,E,A*25

$GPRMC,150802.90,A,4548.66287,N,00837.72176,E,0.067,,110324,3.02,E,A*20

$GPRMC,150803.00,A,4548.66286,N,00837.72177,E,0.067,,110324,3.02,E,A*28

$GPRMC,150803.10,A,4548.66285,N,00837.72178,E,0.130,,110324,3.02,E,A*26

$GPTXT,01,01,01,NMEA unknown msg*58

$GPRMC,150803.20,A,4548.66284,N,00837.72178,E,0.142,,110324,3.02,E,A*21

$GPRMC,150803.30,A,4548.66283,N,00837.72178,E,0.177,,110324,3.02,E,A*21

$GPRMC,150803.40,A,4548.66282,N,00837.72178,E,0.150,,110324,3.02,E,A*22

$GPRMC,150803.50,A,4548.66280,N,00837.72179,E,0.175,,110324,3.02,E,A*27

$GPRMC,150803.60,A,4548.66280,N,00837.72180,E,0.153,,110324,3.02,E,A*26

$GPGST,150803.60,37,4.5,3.3,26,1.7,1.4,1.6*5B

$GPRMC,150803.70,A,4548.66280,N,00837.72181,E,0.103,,110324,3.02,E,A*23

$GPRMC,150803.80,A,4548.66279,N,00837.72181,E,0.112,,110324,3.02,E,A*2A

$GPRMC,150803.90,A,4548.66279,N,00837.72182,E,0.062,,110324,3.02,E,A*2E

$GPRMC,150804.00,A,4548.66279,N,00837.72182,E,0.038,,110324,3.02,E,A*2F

$GPRMC,150804.10,A,4548.66278,N,00837.72183,E,0.069,,110324,3.02,E,A*2A

$GPRMC,150804.20,A,4548.66278,N,00837.72184,E,0.060,,110324,3.02,E,A*27

$GPRMC,150804.30,A,4548.66277,N,00837.72184,E,0.099,,110324,3.02,E,A*2F

$GPRMC,150804.40,A,4548.66275,N,00837.72183,E,0.198,,110324,3.02,E,A*2D

$GPRMC,150804.50,A,4548.66273,N,00837.72182,E,0.329,,110324,3.02,E,A*23

$GPRMC,150804.60,A,4548.66272,N,00837.72181,E,0.414,,110324,3.02,E,A*2B

$GPGST,150804.60,37,4.5,3.1,26,1.7,1.4,1.7*5F

$GPTXT,01,01,01,NMEA unknown msg*58

$GPRMC,150804.70,A,4548.66270,N,00837.72181,E,0.427,,110324,3.02,E,A*28

$GPRMC,150804.80,A,4548.66269,N,00837.72180,E,0.402,,110324,3.02,E,A*29

$GPRMC,150804.90,A,4548.66268,N,00837.72179,E,0.425,,110324,3.02,E,A*2A

$GPRMC,150805.00,A,4548.66267,N,00837.72180,E,0.343,,110324,3.02,E,A*2C

$GPRMC,150805.10,A,4548.66266,N,00837.72179,E,0.314,,110324,3.02,E,A*28

$GPRMC,150805.20,A,4548.66265,N,00837.72179,E,0.312,,110324,3.02,E,A*2E

$GPRMC,150805.30,A,4548.66265,N,00837.72180,E,0.184,,110324,3.02,E,A*24

$GPRMC,150805.40,A,4548.66265,N,00837.72180,E,0.093,,110324,3.02,E,A*24

$GPRMC,150805.50,A,4548.66263,N,00837.72180,E,0.208,,110324,3.02,E,A*23

$GPRMC,150805.60,A,4548.66262,N,00837.72180,E,0.250,,110324,3.02,E,A*2C

$GPGST,150805.60,38,4.5,3.0,26,1.7,1.3,1.7*57

$GPTXT,01,01,01,NMEA unknown msg*58

$GPRMC,150805.70,A,4548.66262,N,00837.72180,E,0.170,,110324,3.02,E,A*2C

$GPRMC,150805.80,A,4548.66259,N,00837.72180,E,0.292,,110324,3.02,E,A*24

$GPRMC,150805.90,A,4548.66259,N,00837.72180,E,0.243,,110324,3.02,E,A*29

$GPRMC,150806.00,A,4548.66259,N,00837.72181,E,0.124,,110324,3.02,E,A*20

$GPRMC,150806.10,A,4548.66259,N,00837.72181,E,0.039,,110324,3.02,E,A*2C

$GPRMC,150806.20,A,4548.66258,N,00837.72181,E,0.094,,110324,3.02,E,A*29

$GPRMC,150806.30,A,4548.66257,N,00837.72181,E,0.069,,110324,3.02,E,A*25

$GPRMC,150806.40,A,4548.66257,N,00837.72181,E,0.019,,110324,3.02,E,A*25

$GPRMC,150806.50,A,4548.66256,N,00837.72181,E,0.058,,110324,3.02,E,A*20

$GPRMC,150806.60,A,4548.66256,N,00837.72182,E,0.047,,110324,3.02,E,A*2E

$GPGST,150806.60,26,4.5,2.8,26,1.7,1.3,1.7*52

$GPRMC,150806.70,A,4548.66255,N,00837.72182,E,0.070,,110324,3.02,E,A*28

$GPRMC,150806.80,A,4548.66254,N,00837.72181,E,0.123,,110324,3.02,E,A*22

$GPRMC,150806.90,A,4548.66253,N,00837.72181,E,0.135,,110324,3.02,E,A*23

$GPRMC,150807.00,A,4548.66251,N,00837.72181,E,0.152,,110324,3.02,E,A*28

$GPRMC,150807.10,A,4548.66250,N,00837.72181,E,0.117,,110324,3.02,E,A*29

$GPRMC,150807.20,A,4548.66249,N,00837.72181,E,0.116,,110324,3.02,E,A*23

$GPRMC,150807.30,A,4548.66247,N,00837.72179,E,0.229,,110324,3.02,E,A*24

$GPRMC,150807.40,A,4548.66245,N,00837.72179,E,0.231,,110324,3.02,E,A*28

$GPRMC,150807.50,A,4548.66244,N,00837.72180,E,0.188,,110324,3.02,E,A*2F

$GPRMC,150807.60,A,4548.66244,N,00837.72180,E,0.149,,110324,3.02,E,A*21

$GPGST,150807.60,26,4.4,2.7,26,1.7,1.3,1.8*52

$GPTXT,01,01,01,NMEA unknown msg*58

$GPRMC,150807.70,A,4548.66242,N,00837.72180,E,0.161,,110324,3.02,E,A*2C

$GPRMC,150807.80,A,4548.66241,N,00837.72180,E,0.113,,110324,3.02,E,A*25

$GPRMC,150807.90,A,4548.66240,N,00837.72180,E,0.171,,110324,3.02,E,A*21

$GPRMC,150808.00,A,4548.66238,N,00837.72180,E,0.188,,110324,3.02,E,A*2E

$GPRMC,150808.10,A,4548.66237,N,00837.72179,E,0.242,,110324,3.02,E,A*23

$GPRMC,150808.20,A,4548.66236,N,00837.72179,E,0.274,,110324,3.02,E,A*24

$GPRMC,150808.30,A,4548.66235,N,00837.72179,E,0.286,,110324,3.02,E,A*2B

$GPRMC,150808.40,A,4548.66234,N,00837.72180,E,0.188,,110324,3.02,E,A*26

$GPRMC,150808.50,A,4548.66235,N,00837.72180,E,0.091,,110324,3.02,E,A*2F

$GPRMC,150808.60,A,4548.66233,N,00837.72180,E,0.190,,110324,3.02,E,A*2A

$GPGST,150808.60,26,4.4,2.6,26,1.7,1.2,1.8*5D

$GPRMC,150808.70,A,4548.66232,N,00837.72181,E,0.145,,110324,3.02,E,A*23

$GPRMC,150808.80,A,4548.66232,N,00837.72181,E,0.121,,110324,3.02,E,A*2E

$GPRMC,150808.90,A,4548.66230,N,00837.72180,E,0.214,,110324,3.02,E,A*29

$GPRMC,150809.00,A,4548.66228,N,00837.72181,E,0.199,,110324,3.02,E,A*2F

$GPRMC,150809.10,A,4548.66227,N,00837.72181,E,0.137,,110324,3.02,E,A*25

$GPRMC,150809.20,A,4548.66226,N,00837.72181,E,0.198,,110324,3.02,E,A*22

$GPRMC,150809.30,A,4548.66224,N,00837.72180,E,0.086,,110324,3.02,E,A*2E

$GPRMC,150809.40,A,4548.66222,N,00837.72179,E,0.145,,110324,3.02,E,A*27

$GPRMC,150809.50,A,4548.66219,N,00837.72179,E,0.163,,110324,3.02,E,A*2A

$GPRMC,150809.60,A,4548.66217,N,00837.72178,E,0.161,,110324,3.02,E,A*24

$GPGST,150809.60,27,4.4,2.5,27,1.6,1.2,1.8*5E

$GPRMC,150809.70,A,4548.66215,N,00837.72177,E,0.192,,110324,3.02,E,A*24

$GPRMC,150809.80,A,4548.66211,N,00837.72177,E,0.286,,110324,3.02,E,A*29

$GPRMC,150809.90,A,4548.66209,N,00837.72177,E,0.257,,110324,3.02,E,A*2D

$GPTXT,01,01,01,NMEA unknown msg*58

$GPRMC,150810.00,A,4548.66207,N,00837.72176,E,0.237,,110324,3.02,E,A*25

$GPTXT,01,01,01,NMEA unknown msg*58

$GPRMC,150810.10,A,4548.66205,N,00837.72177,E,0.210,,110324,3.02,E,A*22

$GPRMC,150810.20,A,4548.66203,N,00837.72176,E,0.200,,110324,3.02,E,A*27

$GPRMC,150810.30,A,4548.66201,N,00837.72177,E,0.144,,110324,3.02,E,A*26

$GPRMC,150810.40,A,4548.66199,N,00837.72177,E,0.120,,110324,3.02,E,A*21

$GPRMC,150810.50,A,4548.66197,N,00837.72177,E,0.076,,110324,3.02,E,A*2C

$GPTXT,01,01,01,NMEA unknown msg*58

$GPTXT,01,01,01,NMEA unknown msg*58

$GPTXT,01,01,01,NMEA unknown msg*58

$GPRMC,150810.60,A,4548.66195,N,00837.72177,E,0.120,,110324,3.02,E,A*2F

$GPGST,150810.60,27,4.3,2.4,27,1.6,1.2,1.9*51

$GPRMC,150810.70,A,4548.66193,N,00837.72177,E,0.181,,110324,3.02,E,A*23

$GPRMC,150810.80,A,4548.66191,N,00837.72177,E,0.175,,110324,3.02,E,A*25

$GPRMC,150810.90,A,4548.66190,N,00837.72177,E,0.141,,110324,3.02,E,A*22

$GPTXT,01,01,01,NMEA unknown msg*58

$GPTXT,01,01,01,NMEA unknown msg*58

$GPRMC,150811.00,A,4548.66189,N,00837.72178,E,0.070,,110324,3.02,E,A*2E

$GPRMC,150811.10,A,4548.66188,N,00837.72179,E,0.069,,110324,3.02,E,A*27

$GPRMC,150811.20,A,4548.66187,N,00837.72180,E,0.114,,110324,3.02,E,A*26

$GPRMC,150811.30,A,4548.66185,N,00837.72180,E,0.128,,110324,3.02,E,A*2A

$GPRMC,150811.40,A,4548.66185,N,00837.72181,E,0.119,,110324,3.02,E,A*2E

$GPRMC,150811.50,A,4548.66183,N,00837.72180,E,0.214,,110324,3.02,E,A*26

$GPRMC,150811.60,A,4548.66182,N,00837.72181,E,0.210,,110324,3.02,E,A*21

$GPGST,150811.60,28,4.3,2.4,27,1.6,1.2,1.9*5F

$GPRMC,150811.70,A,4548.66181,N,00837.72180,E,0.298,,110324,3.02,E,A*22

$GPRMC,150811.80,A,4548.66179,N,00837.72180,E,0.341,,110324,3.02,E,A*2F

$GPRMC,150811.90,A,4548.66177,N,00837.72181,E,0.221,,110324,3.02,E,A*26

$GPRMC,150812.00,A,4548.66175,N,00837.72181,E,0.240,,110324,3.02,E,A*29

$GPRMC,150812.10,A,4548.66174,N,00837.72182,E,0.182,,110324,3.02,E,A*27

$GPTXT,01,01,01,NMEA unknown msg*58

$GPRMC,150812.20,A,4548.66173,N,00837.72184,E,0.260,,110324,3.02,E,A*2A

$GPRMC,150812.30,A,4548.66173,N,00837.72184,E,0.071,,110324,3.02,E,A*29

$GPRMC,150812.40,A,4548.66170,N,00837.72182,E,0.315,,110324,3.02,E,A*2A

$GPRMC,150812.50,A,4548.66170,N,00837.72183,E,0.236,,110324,3.02,E,A*2A

$GPRMC,150812.60,A,4548.66171,N,00837.72184,E,0.112,,110324,3.02,E,A*2A

$GPGST,150812.60,29,4.2,2.4,28,1.6,1.2,1.9*53

$GPRMC,150812.70,A,4548.66172,N,00837.72184,E,0.175,,110324,3.02,E,A*29

$GPRMC,150812.80,A,4548.66174,N,00837.72185,E,0.119,,110324,3.02,E,A*2B

$GPRMC,150812.90,A,4548.66175,N,00837.72186,E,0.080,,110324,3.02,E,A*29

$GPRMC,150813.00,A,4548.66176,N,00837.72187,E,0.054,,110324,3.02,E,A*2A

$GPRMC,150813.10,A,4548.66177,N,00837.72188,E,0.140,,110324,3.02,E,A*21

$GPRMC,150813.20,A,4548.66178,N,00837.72189,E,0.072,,110324,3.02,E,A*2C

$GPTXT,01,01,01,NMEA unknown msg*58

$GPRMC,150813.30,A,4548.66179,N,00837.72190,E,0.062,,110324,3.02,E,A*25

$GPRMC,150813.40,A,4548.66180,N,00837.72190,E,0.153,,110324,3.02,E,A*27

$GPRMC,150813.50,A,4548.66180,N,00837.72190,E,0.208,,110324,3.02,E,A*2B

$GPRMC,150813.60,A,4548.66180,N,00837.72190,E,0.274,,110324,3.02,E,A*23

$GPGST,150813.60,25,4.1,2.4,29,1.5,1.2,1.9*5F

$GPRMC,150813.70,A,4548.66181,N,00837.72191,E,0.201,,110324,3.02,E,A*20

$GPRMC,150813.80,A,4548.66182,N,00837.72192,E,0.162,,110324,3.02,E,A*29

$GPTXT,01,01,01,NMEA unknown msg*58

$GPRMC,150813.90,A,4548.66183,N,00837.72193,E,0.199,,110324,3.02,E,A*2C

$GPRMC,150814.00,A,4548.66185,N,00837.72192,E,0.220,,110324,3.02,E,A*24

$GPRMC,150814.10,A,4548.66186,N,00837.72191,E,0.249,,110324,3.02,E,A*2A

$GPRMC,150814.20,A,4548.66186,N,00837.72190,E,0.307,,110324,3.02,E,A*23

$GPRMC,150814.30,A,4548.66187,N,00837.72192,E,0.269,,110324,3.02,E,A*28

$GPRMC,150814.40,A,4548.66189,N,00837.72193,E,0.239,,110324,3.02,E,A*25

$GPRMC,150814.50,A,4548.66190,N,00837.72194,E,0.197,,110324,3.02,E,A*2C

$GPRMC,150814.60,A,4548.66191,N,00837.72195,E,0.166,,110324,3.02,E,A*21

$GPGST,150814.60,26,4.1,2.4,31,1.5,1.2,1.9*52

$GPRMC,150814.70,A,4548.66192,N,00837.72196,E,0.135,,110324,3.02,E,A*26

$GPRMC,150814.80,A,4548.66193,N,00837.72196,E,0.180,,110324,3.02,E,A*26

$GPRMC,150814.90,A,4548.66195,N,00837.72197,E,0.159,,110324,3.02,E,A*24

$GPRMC,150815.00,A,4548.66195,N,00837.72196,E,0.245,,110324,3.02,E,A*23

$GPRMC,150815.10,A,4548.66195,N,00837.72196,E,0.251,,110324,3.02,E,A*27

$GPTXT,01,01,01,NMEA unknown msg*58

$GPRMC,150815.20,A,4548.66196,N,00837.72198,E,0.162,,110324,3.02,E,A*2A

$GPRMC,150815.30,A,4548.66196,N,00837.72197,E,0.223,,110324,3.02,E,A*22

$GPRMC,150815.40,A,4548.66197,N,00837.72198,E,0.193,,110324,3.02,E,A*23

$GPTXT,01,01,01,NMEA unknown msg*58

$GPRMC,150815.50,A,4548.66197,N,00837.72199,E,0.214,,110324,3.02,E,A*2F

$GPRMC,150815.60,A,4548.66197,N,00837.72199,E,0.239,,110324,3.02,E,A*23

$GPGST,150815.60,25,4.1,2.4,33,1.5,1.2,1.9*52

$GPRMC,150815.70,A,4548.66199,N,00837.72202,E,0.158,,110324,3.02,E,A*29

$GPTXT,01,01,01,NMEA unknown msg*58

$GPRMC,150815.80,A,4548.66199,N,00837.72204,E,0.212,,110324,3.02,E,A*2D

$GPRMC,150815.90,A,4548.66200,N,00837.72206,E,0.444,,110324,3.02,E,A*28

$GPRMC,150816.00,A,4548.66200,N,00837.72207,E,0.431,,110324,3.02,E,A*21

$GPRMC,150816.10,A,4548.66197,N,00837.72203,E,0.604,218.75,110324,3.02,E,A*3A

$GPRMC,150816.20,A,4548.66194,N,00837.72200,E,0.372,,110324,3.02,E,A*2A

$GPRMC,150816.30,A,4548.66191,N,00837.72199,E,0.325,,110324,3.02,E,A*2F

$GPRMC,150816.40,A,4548.66186,N,00837.72196,E,0.365,,110324,3.02,E,A*25

$GPRMC,150816.50,A,4548.66182,N,00837.72194,E,0.231,,110324,3.02,E,A*22

$GPRMC,150816.60,A,4548.66181,N,00837.72196,E,0.172,,110324,3.02,E,A*24

$GPGST,150816.60,24,3.9,2.4,34,1.4,1.2,1.9*59

$GPRMC,150816.70,A,4548.66183,N,00837.72202,E,0.171,,110324,3.02,E,A*2A

$GPRMC,150816.80,A,4548.66185,N,00837.72207,E,0.208,,110324,3.02,E,A*2B

$GPRMC,150816.90,A,4548.66188,N,00837.72211,E,0.164,,110324,3.02,E,A*29

$GPRMC,150817.00,A,4548.66189,N,00837.72215,E,0.422,,110324,3.02,E,A*23

$GPTXT,01,01,01,NMEA unknown msg*58

$GPRMC,150817.10,A,4548.66191,N,00837.72221,E,0.308,,110324,3.02,E,A*23

$GPRMC,150817.20,A,4548.66193,N,00837.72225,E,0.136,,110324,3.02,E,A*29

$GPRMC,150817.30,A,4548.66192,N,00837.72225,E,0.221,,110324,3.02,E,A*2C

$GPRMC,150817.40,A,4548.66191,N,00837.72228,E,0.435,,110324,3.02,E,A*26

$GPRMC,150817.50,A,4548.66191,N,00837.72228,E,0.288,,110324,3.02,E,A*27

$GPRMC,150817.60,A,4548.66190,N,00837.72229,E,0.224,,110324,3.02,E,A*22

$GPGST,150817.60,26,3.9,2.3,34,1.4,1.2,1.9*5D

$GPTXT,01,01,01,NMEA unknown msg*58

$GPRMC,150817.70,A,4548.66190,N,00837.72232,E,0.286,,110324,3.02,E,A*21

$GPRMC,150817.80,A,4548.66189,N,00837.72234,E,0.268,,110324,3.02,E,A*20

$GPRMC,150817.90,A,4548.66189,N,00837.72236,E,0.222,,110324,3.02,E,A*2D

$GPRMC,150818.00,A,4548.66189,N,00837.72238,E,0.166,,110324,3.02,E,A*26

$GPTXT,01,01,01,NMEA unknown msg*58

$GPRMC,150818.10,A,4548.66191,N,00837.72245,E,0.111,,110324,3.02,E,A*24

$GPRMC,150818.20,A,4548.66191,N,00837.72249,E,0.189,,110324,3.02,E,A*2A

$GPRMC,150818.30,A,4548.66193,N,00837.72255,E,0.236,,110324,3.02,E,A*23

$GPRMC,150818.40,A,4548.66194,N,00837.72262,E,0.116,,110324,3.02,E,A*26

$GPRMC,150818.50,A,4548.66195,N,00837.72268,E,0.072,,110324,3.02,E,A*2F

$GPRMC,150818.60,A,4548.66196,N,00837.72273,E,0.045,,110324,3.02,E,A*21

$GPGST,150818.60,25,3.8,2.3,35,1.4,1.2,1.9*51

$GPRMC,150818.70,A,4548.66197,N,00837.72277,E,0.071,,110324,3.02,E,A*22

$GPRMC,150818.80,A,4548.66198,N,00837.72281,E,0.149,,110324,3.02,E,A*21

$GPRMC,150818.90,A,4548.66198,N,00837.72283,E,0.113,,110324,3.02,E,A*2D

$GPRMC,150819.00,A,4548.66197,N,00837.72286,E,0.196,,110324,3.02,E,A*22

$GPRMC,150819.10,A,4548.66197,N,00837.72290,E,0.140,,110324,3.02,E,A*2F

$GPRMC,150819.20,A,4548.66200,N,00837.72294,E,0.154,,110324,3.02,E,A*20

$GPTXT,01,01,01,NMEA unknown msg*58

$GPRMC,150819.30,A,4548.66199,N,00837.72297,E,0.050,,110324,3.02,E,A*24

$GPRMC,150819.40,A,4548.66199,N,00837.72302,E,0.107,,110324,3.02,E,A*2D

$GPRMC,150819.50,A,4548.66200,N,00837.72306,E,0.064,,110324,3.02,E,A*2F

$GPRMC,150819.60,A,4548.66201,N,00837.72310,E,0.077,,110324,3.02,E,A*28

$GPGST,150819.60,23,3.7,2.3,35,1.3,1.1,1.9*5D

$GPRMC,150819.70,A,4548.66201,N,00837.72314,E,0.071,,110324,3.02,E,A*2B

$GPRMC,150819.80,A,4548.66202,N,00837.72318,E,0.037,,110324,3.02,E,A*29

$GPRMC,150819.90,A,4548.66203,N,00837.72322,E,0.019,,110324,3.02,E,A*2C

$GPRMC,150820.00,A,4548.66202,N,00837.72324,E,0.145,,110324,3.02,E,A*20

$GPTXT,01,01,01,NMEA unknown msg*58

$GPRMC,150820.10,A,4548.66202,N,00837.72326,E,0.115,,110324,3.02,E,A*26

$GPRMC,150820.20,A,4548.66202,N,00837.72329,E,0.052,,110324,3.02,E,A*28

$GPRMC,150820.30,A,4548.66202,N,00837.72331,E,0.141,,110324,3.02,E,A*23

$GPRMC,150820.40,A,4548.66201,N,00837.72334,E,0.085,,110324,3.02,E,A*2B

$GPRMC,150820.50,A,4548.66200,N,00837.72336,E,0.136,,110324,3.02,E,A*20

$GPRMC,150820.60,A,4548.66200,N,00837.72338,E,0.111,,110324,3.02,E,A*28

$GPGST,150820.60,21,3.7,2.3,34,1.3,1.1,1.9*54

$GPRMC,150820.70,A,4548.66199,N,00837.72341,E,0.058,,110324,3.02,E,A*28

$GPRMC,150820.80,A,4548.66198,N,00837.72341,E,0.052,,110324,3.02,E,A*2C

$GPRMC,150820.90,A,4548.66197,N,00837.72342,E,0.111,,110324,3.02,E,A*27

$GPRMC,150821.00,A,4548.66196,N,00837.72342,E,0.089,,110324,3.02,E,A*2E

$GPRMC,150821.10,A,4548.66195,N,00837.72343,E,0.069,,110324,3.02,E,A*23

$GPTXT,01,01,01,NMEA unknown msg*58

$GPRMC,150821.20,A,4548.66193,N,00837.72344,E,0.080,,110324,3.02,E,A*26

$GPRMC,150821.30,A,4548.66191,N,00837.72346,E,0.119,,110324,3.02,E,A*26

$GPRMC,150821.40,A,4548.66189,N,00837.72348,E,0.128,,110324,3.02,E,A*24

$GPRMC,150821.50,A,4548.66187,N,00837.72350,E,0.068,,110324,3.02,E,A*27

$GPTXT,01,01,01,NMEA unknown msg*58

$GPRMC,150821.60,A,4548.66186,N,00837.72353,E,0.063,,110324,3.02,E,A*2D

$GPGST,150821.60,25,3.5,2.2,34,1.3,1.1,1.9*52

$GPRMC,150821.70,A,4548.66184,N,00837.72356,E,0.055,,110324,3.02,E,A*2E

$GPRMC,150821.80,A,4548.66183,N,00837.72359,E,0.115,,110324,3.02,E,A*2C

$GPRMC,150821.90,A,4548.66182,N,00837.72362,E,0.108,,110324,3.02,E,A*28

$GPRMC,150822.00,A,4548.66180,N,00837.72365,E,0.098,,110324,3.02,E,A*2F

$GPRMC,150822.10,A,4548.66178,N,00837.72366,E,0.141,,110324,3.02,E,A*2F

$GPRMC,150822.20,A,4548.66177,N,00837.72368,E,0.100,,110324,3.02,E,A*28

$GPRMC,150822.30,A,4548.66175,N,00837.72371,E,0.140,,110324,3.02,E,A*27

$GPRMC,150822.40,A,4548.66173,N,00837.72372,E,0.129,,110324,3.02,E,A*2A

$GPRMC,150822.50,A,4548.66171,N,00837.72375,E,0.153,,110324,3.02,E,A*23

$GPRMC,150822.60,A,4548.66170,N,00837.72377,E,0.110,,110324,3.02,E,A*24

$GPGST,150822.60,24,3.4,2.2,33,1.3,1.1,1.9*56

$GPRMC,150822.70,A,4548.66169,N,00837.72380,E,0.096,,110324,3.02,E,A*2A

$GPRMC,150822.80,A,4548.66166,N,00837.72382,E,0.162,,110324,3.02,E,A*22

$GPRMC,150822.90,A,4548.66164,N,00837.72383,E,0.081,,110324,3.02,E,A*2C

$GPRMC,150823.00,A,4548.66163,N,00837.72385,E,0.082,,110324,3.02,E,A*26

$GPRMC,150823.10,A,4548.66161,N,00837.72387,E,0.107,,110324,3.02,E,A*2B

$GPRMC,150823.20,A,4548.66160,N,00837.72390,E,0.099,,110324,3.02,E,A*29

$GPRMC,150823.30,A,4548.66158,N,00837.72392,E,0.087,,110324,3.02,E,A*2E

$GPRMC,150823.40,A,4548.66156,N,00837.72394,E,0.116,,110324,3.02,E,A*28

$GPTXT,01,01,01,NMEA unknown msg*58

$GPRMC,150823.50,A,4548.66154,N,00837.72395,E,0.123,,110324,3.02,E,A*2C

$GPRMC,150823.60,A,4548.66153,N,00837.72397,E,0.096,,110324,3.02,E,A*25

$GPGST,150823.60,22,3.3,2.2,32,1.2,1.0,1.9*57

$GPRMC,150823.70,A,4548.66151,N,00837.72398,E,0.076,,110324,3.02,E,A*27

$GPRMC,150823.80,A,4548.66150,N,00837.72400,E,0.099,,110324,3.02,E,A*2E

$GPRMC,150823.90,A,4548.66148,N,00837.72402,E,0.064,,110324,3.02,E,A*26

$GPRMC,150824.00,A,4548.66146,N,00837.72403,E,0.074,,110324,3.02,E,A*26

$GPRMC,150824.10,A,4548.66144,N,00837.72405,E,0.091,,110324,3.02,E,A*28

$GPRMC,150824.20,A,4548.66142,N,00837.72406,E,0.134,,110324,3.02,E,A*20

$GPRMC,150824.30,A,4548.66141,N,00837.72408,E,0.030,,110324,3.02,E,A*29

$GPRMC,150824.40,A,4548.66139,N,00837.72409,E,0.081,,110324,3.02,E,A*2A

$GPRMC,150824.50,A,4548.66137,N,00837.72410,E,0.133,,110324,3.02,E,A*25

$GPRMC,150824.60,A,4548.66135,N,00837.72411,E,0.061,,110324,3.02,E,A*23

$GPGST,150824.60,22,3.2,2.1,32,1.2,1.0,1.9*52

$GPRMC,150824.70,A,4548.66133,N,00837.72411,E,0.101,,110324,3.02,E,A*23

$GPRMC,150824.80,A,4548.66131,N,00837.72412,E,0.161,,110324,3.02,E,A*2B

$GPRMC,150824.90,A,4548.66129,N,00837.72412,E,0.093,,110324,3.02,E,A*2F

$GPRMC,150825.00,A,4548.66127,N,00837.72413,E,0.087,,110324,3.02,E,A*2D

$GPRMC,150825.10,A,4548.66126,N,00837.72413,E,0.052,,110324,3.02,E,A*25

$GPRMC,150825.20,A,4548.66123,N,00837.72413,E,0.091,,110324,3.02,E,A*2C

$GPRMC,150825.30,A,4548.66122,N,00837.72414,E,0.109,,110324,3.02,E,A*2B

$GPRMC,150825.40,A,4548.66120,N,00837.72415,E,0.098,,110324,3.02,E,A*26

$GPRMC,150825.50,A,4548.66118,N,00837.72415,E,0.174,,110324,3.02,E,A*2F

$GPRMC,150825.60,A,4548.66116,N,00837.72415,E,0.107,,110324,3.02,E,A*26

$GPGST,150825.60,23,3.1,2.1,32,1.2,0.99,1.9*60

$GPRMC,150825.70,A,4548.66114,N,00837.72416,E,0.064,,110324,3.02,E,A*22

$GPRMC,150825.80,A,4548.66112,N,00837.72416,E,0.055,,110324,3.02,E,A*29

$GPRMC,150825.90,A,4548.66110,N,00837.72416,E,0.099,,110324,3.02,E,A*2A

$GPTXT,01,01,01,NMEA unknown msg*58

$GPRMC,150826.00,A,4548.66108,N,00837.72417,E,0.181,,110324,3.02,E,A*20

$GPRMC,150826.10,A,4548.66106,N,00837.72416,E,0.020,,110324,3.02,E,A*24

$GPRMC,150826.20,A,4548.66105,N,00837.72417,E,0.077,,110324,3.02,E,A*27

$GPRMC,150826.30,A,4548.66103,N,00837.72417,E,0.083,,110324,3.02,E,A*2B

$GPRMC,150826.40,A,4548.66102,N,00837.72417,E,0.036,,110324,3.02,E,A*23

$GPRMC,150826.50,A,4548.66099,N,00837.72417,E,0.061,,110324,3.02,E,A*23

$GPTXT,01,01,01,NMEA unknown msg*58

$GPRMC,150826.60,A,4548.66097,N,00837.72417,E,0.082,,110324,3.02,E,A*23

$GPGST,150826.60,24,3.0,2.1,33,1.1,0.97,1.8*68

$GPRMC,150826.70,A,4548.66095,N,00837.72417,E,0.092,,110324,3.02,E,A*21

$GPRMC,150826.80,A,4548.66094,N,00837.72417,E,0.079,,110324,3.02,E,A*2A

$GPRMC,150826.90,A,4548.66092,N,00837.72418,E,0.106,,110324,3.02,E,A*2B

$GPRMC,150827.00,A,4548.66090,N,00837.72418,E,0.116,,110324,3.02,E,A*20

$GPRMC,150827.10,A,4548.66089,N,00837.72419,E,0.042,,110324,3.02,E,A*28

$GPRMC,150827.20,A,4548.66088,N,00837.72420,E,0.106,,110324,3.02,E,A*21

$GPTXT,01,01,01,NMEA unknown msg*58

$GPRMC,150827.30,A,4548.66087,N,00837.72420,E,0.140,,110324,3.02,E,A*2D

$GPRMC,150827.40,A,4548.66086,N,00837.72421,E,0.021,,110324,3.02,E,A*2C

$GPRMC,150827.50,A,4548.66085,N,00837.72422,E,0.091,,110324,3.02,E,A*26

$GPRMC,150827.60,A,4548.66084,N,00837.72422,E,0.105,,110324,3.02,E,A*28

$GPGST,150827.60,23,3.0,2.1,33,1.1,0.97,1.8*6E

$GPTXT,01,01,01,NMEA unknown msg*58

$GPRMC,150827.70,A,4548.66082,N,00837.72422,E,0.080,,110324,3.02,E,A*23

$GPTXT,01,01,01,NMEA unknown msg*58

$GPRMC,150827.80,A,4548.66080,N,00837.72422,E,0.043,,110324,3.02,E,A*21

$GPRMC,150827.90,A,4548.66079,N,00837.72421,E,0.058,,110324,3.02,E,A*2F

$GPRMC,150828.00,A,4548.66077,N,00837.72421,E,0.067,,110324,3.02,E,A*2B

$GPRMC,150828.10,A,4548.66076,N,00837.72421,E,0.062,,110324,3.02,E,A*2E

$GPRMC,150828.20,A,4548.66074,N,00837.72420,E,0.113,,110324,3.02,E,A*29

$GPRMC,150828.30,A,4548.66072,N,00837.72420,E,0.209,,110324,3.02,E,A*26

$GPRMC,150828.40,A,4548.66071,N,00837.72420,E,0.006,,110324,3.02,E,A*2F

$GPRMC,150828.50,A,4548.66070,N,00837.72421,E,0.079,,110324,3.02,E,A*26

$GPRMC,150828.60,A,4548.66069,N,00837.72421,E,0.093,,110324,3.02,E,A*29

$GPGST,150828.60,24,2.9,2.1,34,1.1,0.96,1.8*68

$GPRMC,150828.70,A,4548.66068,N,00837.72423,E,0.062,,110324,3.02,E,A*25

$GPRMC,150828.80,A,4548.66067,N,00837.72423,E,0.032,,110324,3.02,E,A*20

$GPRMC,150828.90,A,4548.66066,N,00837.72425,E,0.032,,110324,3.02,E,A*26

$GPRMC,150829.00,A,4548.66066,N,00837.72428,E,0.034,,110324,3.02,E,A*25

$GPRMC,150829.10,A,4548.66065,N,00837.72430,E,0.067,,110324,3.02,E,A*28

$GPRMC,150829.20,A,4548.66064,N,00837.72432,E,0.033,,110324,3.02,E,A*29

$GPRMC,150829.30,A,4548.66063,N,00837.72435,E,0.019,,110324,3.02,E,A*20

$GPRMC,150829.40,A,4548.66062,N,00837.72437,E,0.061,,110324,3.02,E,A*2B

$GPRMC,150829.50,A,4548.66061,N,00837.72440,E,0.061,,110324,3.02,E,A*29

$GPRMC,150829.60,A,4548.66060,N,00837.72442,E,0.053,,110324,3.02,E,A*28

$GPGST,150829.60,23,2.8,2.1,34,1.1,0.95,1.8*6C

$GPRMC,150829.70,A,4548.66059,N,00837.72444,E,0.025,,110324,3.02,E,A*24

$GPRMC,150829.80,A,4548.66058,N,00837.72446,E,0.060,,110324,3.02,E,A*29

$GPRMC,150829.90,A,4548.66057,N,00837.72448,E,0.065,,110324,3.02,E,A*2C

$GPRMC,150830.00,A,4548.66057,N,00837.72451,E,0.024,,110324,3.02,E,A*20

$GPTXT,01,01,01,NMEA unknown msg*58

$GPRMC,150830.10,A,4548.66055,N,00837.72452,E,0.091,,110324,3.02,E,A*2E

$GPRMC,150830.20,A,4548.66054,N,00837.72454,E,0.109,,110324,3.02,E,A*2A

$GPRMC,150830.30,A,4548.66053,N,00837.72456,E,0.090,,110324,3.02,E,A*2F

$GPRMC,150830.40,A,4548.66053,N,00837.72459,E,0.019,,110324,3.02,E,A*26

$GPRMC,150830.50,A,4548.66051,N,00837.72461,E,0.084,,110324,3.02,E,A*2A

$GPRMC,150830.60,A,4548.66051,N,00837.72464,E,0.085,,110324,3.02,E,A*2D

$GPGST,150830.60,23,2.8,2.1,33,1.0,0.93,1.8*64

$GPRMC,150830.70,A,4548.66050,N,00837.72467,E,0.038,,110324,3.02,E,A*28

$GPRMC,150830.80,A,4548.66049,N,00837.72469,E,0.064,,110324,3.02,E,A*28

$GPRMC,150830.90,A,4548.66048,N,00837.72472,E,0.059,,110324,3.02,E,A*2C

$GPRMC,150831.00,A,4548.66047,N,00837.72474,E,0.049,,110324,3.02,E,A*2C

$GPRMC,150831.10,A,4548.66047,N,00837.72476,E,0.091,,110324,3.02,E,A*2A

$GPRMC,150831.20,A,4548.66046,N,00837.72479,E,0.071,,110324,3.02,E,A*29

$GPRMC,150831.30,A,4548.66045,N,00837.72481,E,0.061,,110324,3.02,E,A*2D

$GPRMC,150831.40,A,4548.66044,N,00837.72484,E,0.055,,110324,3.02,E,A*29

$GPRMC,150831.50,A,4548.66044,N,00837.72487,E,0.059,,110324,3.02,E,A*27

$GPRMC,150831.60,A,4548.66043,N,00837.72489,E,0.036,,110324,3.02,E,A*24

$GPGST,150831.60,22,2.7,2.1,32,1.0,0.92,1.8*6B

$GPRMC,150831.70,A,4548.66042,N,00837.72492,E,0.056,,110324,3.02,E,A*28

$GPTXT,01,01,01,NMEA unknown msg*58

$GPRMC,150831.80,A,4548.66041,N,00837.72494,E,0.056,,110324,3.02,E,A*22

$GPRMC,150831.90,A,4548.66040,N,00837.72497,E,0.060,,110324,3.02,E,A*24

$GPRMC,150832.00,A,4548.66039,N,00837.72499,E,0.095,,110324,3.02,E,A*24

$GPRMC,150832.10,A,4548.66038,N,00837.72501,E,0.031,,110324,3.02,E,A*2A

$GPRMC,150832.20,A,4548.66037,N,00837.72503,E,0.020,,110324,3.02,E,A*24

$GPRMC,150832.30,A,4548.66035,N,00837.72506,E,0.078,,110324,3.02,E,A*2F

$GPRMC,150832.40,A,4548.66034,N,00837.72508,E,0.104,,110324,3.02,E,A*2D

$GPRMC,150832.50,A,4548.66032,N,00837.72511,E,0.141,,110324,3.02,E,A*23

$GPRMC,150832.60,A,4548.66031,N,00837.72513,E,0.062,,110324,3.02,E,A*21

$GPGST,150832.60,23,2.7,2.0,31,1.0,0.90,1.8*69

$GPRMC,150832.70,A,4548.66031,N,00837.72515,E,0.007,,110324,3.02,E,A*25

$GPRMC,150832.80,A,4548.66030,N,00837.72517,E,0.060,,110324,3.02,E,A*28

$GPRMC,150832.90,A,4548.66029,N,00837.72520,E,0.039,,110324,3.02,E,A*29

$GPRMC,150833.00,A,4548.66028,N,00837.72522,E,0.029,,110324,3.02,E,A*23

$GPRMC,150833.10,A,4548.66027,N,00837.72524,E,0.041,,110324,3.02,E,A*25

$GPRMC,150833.20,A,4548.66026,N,00837.72526,E,0.041,,110324,3.02,E,A*25

$GPRMC,150833.30,A,4548.66025,N,00837.72528,E,0.062,,110324,3.02,E,A*28

$GPTXT,01,01,01,NMEA unknown msg*58

$GPRMC,150833.40,A,4548.66024,N,00837.72529,E,0.027,,110324,3.02,E,A*2E

$GPRMC,150833.50,A,4548.66023,N,00837.72531,E,0.012,,110324,3.02,E,A*27

$GPRMC,150833.60,A,4548.66021,N,00837.72533,E,0.043,,110324,3.02,E,A*20

$GPGST,150833.60,23,2.7,2.0,30,1.0,0.89,1.8*61

$GPRMC,150833.70,A,4548.66020,N,00837.72534,E,0.015,,110324,3.02,E,A*24

$GPRMC,150833.80,A,4548.66019,N,00837.72536,E,0.064,,110324,3.02,E,A*25

$GPRMC,150833.90,A,4548.66017,N,00837.72538,E,0.057,,110324,3.02,E,A*24

$GPRMC,150834.00,A,4548.66016,N,00837.72539,E,0.077,,110324,3.02,E,A*28

$GPRMC,150834.10,A,4548.66014,N,00837.72540,E,0.069,,110324,3.02,E,A*2A

$GPRMC,150834.20,A,4548.66013,N,00837.72541,E,0.016,,110324,3.02,E,A*27

$GPRMC,150834.30,A,4548.66011,N,00837.72543,E,0.064,,110324,3.02,E,A*23

$GPRMC,150834.40,A,4548.66009,N,00837.72544,E,0.019,,110324,3.02,E,A*20

$GPRMC,150834.50,A,4548.66008,N,00837.72545,E,0.044,,110324,3.02,E,A*29

$GPRMC,150834.60,A,4548.66007,N,00837.72546,E,0.048,,110324,3.02,E,A*2A

$GPGST,150834.60,23,2.7,2.0,29,1.0,0.87,1.8*60

$GPRMC,150834.70,A,4548.66005,N,00837.72547,E,0.047,,110324,3.02,E,A*27

$GPRMC,150834.80,A,4548.66004,N,00837.72548,E,0.026,,110324,3.02,E,A*21

$GPRMC,150834.90,A,4548.66002,N,00837.72549,E,0.108,,110324,3.02,E,A*2A

$GPRMC,150835.00,A,4548.66001,N,00837.72550,E,0.097,,110324,3.02,E,A*2E

$GPRMC,150835.10,A,4548.65999,N,00837.72551,E,0.060,,110324,3.02,E,A*2D

$GPRMC,150835.20,A,4548.65998,N,00837.72552,E,0.117,,110324,3.02,E,A*2D

$GPRMC,150835.30,A,4548.65996,N,00837.72553,E,0.032,,110324,3.02,E,A*25

$GPRMC,150835.40,A,4548.65994,N,00837.72553,E,0.074,,110324,3.02,E,A*22

$GPRMC,150835.50,A,4548.65993,N,00837.72555,E,0.071,,110324,3.02,E,A*27

$GPRMC,150835.60,A,4548.65991,N,00837.72556,E,0.095,,110324,3.02,E,A*2F

$GPGST,150835.60,21,2.6,2.0,29,1.0,0.86,1.8*63

$GPRMC,150835.70,A,4548.65990,N,00837.72557,E,0.129,,110324,3.02,E,A*28

$GPRMC,150835.80,A,4548.65989,N,00837.72558,E,0.037,,110324,3.02,E,A*2E

$GPRMC,150835.90,A,4548.65988,N,00837.72559,E,0.063,,110324,3.02,E,A*2E

$GPRMC,150836.00,A,4548.65987,N,00837.72560,E,0.043,,110324,3.02,E,A*23

$GPRMC,150836.10,A,4548.65987,N,00837.72561,E,0.026,,110324,3.02,E,A*20

$GPRMC,150836.20,A,4548.65986,N,00837.72562,E,0.078,,110324,3.02,E,A*2A

$GPRMC,150836.30,A,4548.65984,N,00837.72563,E,0.103,,110324,3.02,E,A*25

$GPRMC,150836.40,A,4548.65983,N,00837.72565,E,0.064,,110324,3.02,E,A*23

$GPRMC,150836.50,A,4548.65982,N,00837.72566,E,0.051,,110324,3.02,E,A*26

$GPRMC,150836.60,A,4548.65981,N,00837.72567,E,0.051,,110324,3.02,E,A*27

$GPGST,150836.60,20,2.6,1.9,28,1.0,0.85,1.8*69

$GPRMC,150836.70,A,4548.65981,N,00837.72567,E,0.000,,110324,3.02,E,A*22

$GPRMC,150836.80,A,4548.65981,N,00837.72567,E,0.000,,110324,3.02,E,A*2D

$GPRMC,150836.90,A,4548.65977,N,00837.72572,E,0.104,,110324,3.02,E,A*24

$GPRMC,150837.00,A,4548.65972,N,00837.72578,E,0.084,,110324,3.02,E,A*2A

$GPRMC,150837.10,A,4548.65972,N,00837.72578,E,0.000,,110324,3.02,E,A*27

$GPRMC,150837.20,A,4548.65966,N,00837.72583,E,0.020,,110324,3.02,E,A*27

$GPRMC,150837.30,A,4548.65961,N,00837.72587,E,0.017,,110324,3.02,E,A*21

$GPRMC,150837.40,A,4548.65955,N,00837.72591,E,0.046,,110324,3.02,E,A*22

$GPRMC,150837.50,A,4548.65949,N,00837.72595,E,0.095,,110324,3.02,E,A*24

$GPRMC,150837.60,A,4548.65944,N,00837.72599,E,0.100,,110324,3.02,E,A*2B

$GPGST,150837.60,22,4.5,4.3,43,1.8,1.8,1.6*5F

$GPRMC,150837.70,A,4548.65939,N,00837.72602,E,0.082,,110324,3.02,E,A*2A

$GPRMC,150837.80,A,4548.65934,N,00837.72605,E,0.103,,110324,3.02,E,A*27

$GPRMC,150837.90,A,4548.65930,N,00837.72607,E,0.120,,110324,3.02,E,A*21

$GPRMC,150838.00,A,4548.65926,N,00837.72609,E,0.085,,110324,3.02,E,A*20

$GPRMC,150838.10,A,4548.65923,N,00837.72612,E,0.061,,110324,3.02,E,A*24

$GPRMC,150838.20,A,4548.65919,N,00837.72614,E,0.072,,110324,3.02,E,A*2A

$GPRMC,150838.30,A,4548.65916,N,00837.72615,E,0.089,,110324,3.02,E,A*21

$GPRMC,150838.40,A,4548.65913,N,00837.72617,E,0.082,,110324,3.02,E,A*2A

$GPTXT,01,01,01,NMEA unknown msg*58

$GPRMC,150838.50,A,4548.65909,N,00837.72618,E,0.059,,110324,3.02,E,A*29

$GPRMC,150838.60,A,4548.65906,N,00837.72620,E,0.128,,110324,3.02,E,A*29

$GPGST,150838.60,22,4.2,3.8,36,1.6,1.6,1.5*5A

$GPRMC,150838.70,A,4548.65902,N,00837.72622,E,0.160,,110324,3.02,E,A*22

$GPRMC,150838.80,A,4548.65899,N,00837.72624,E,0.133,,110324,3.02,E,A*2E

$GPRMC,150838.90,A,4548.65894,N,00837.72626,E,0.142,,110324,3.02,E,A*26

$GPRMC,150839.00,A,4548.65890,N,00837.72628,E,0.115,,110324,3.02,E,A*26

$GPRMC,150839.10,A,4548.65886,N,00837.72630,E,0.151,,110324,3.02,E,A*29

$GPRMC,150839.20,A,4548.65881,N,00837.72632,E,0.109,,110324,3.02,E,A*22

$GPRMC,150839.30,A,4548.65877,N,00837.72634,E,0.092,,110324,3.02,E,A*2F

$GPRMC,150839.40,A,4548.65873,N,00837.72635,E,0.097,,110324,3.02,E,A*28

$GPRMC,150839.50,A,4548.65869,N,00837.72636,E,0.088,,110324,3.02,E,A*2F

$GPRMC,150839.60,A,4548.65866,N,00837.72637,E,0.067,,110324,3.02,E,A*23

$GPGST,150839.60,22,4.0,3.5,36,1.5,1.5,1.4*55

$GPRMC,150839.70,A,4548.65863,N,00837.72638,E,0.111,,110324,3.02,E,A*28

$GPRMC,150839.80,A,4548.65861,N,00837.72639,E,0.067,,110324,3.02,E,A*24

$GPRMC,150839.90,A,4548.65858,N,00837.72639,E,0.106,,110324,3.02,E,A*29

$GPTXT,01,01,01,NMEA unknown msg*58

$GPRMC,150840.00,A,4548.65855,N,00837.72640,E,0.110,,110324,3.02,E,A*2A

$GPRMC,150840.10,A,4548.65853,N,00837.72640,E,0.093,,110324,3.02,E,A*27

$GPRMC,150840.20,A,4548.65850,N,00837.72640,E,0.144,,110324,3.02,E,A*2C

$GPRMC,150840.30,A,4548.65848,N,00837.72641,E,0.059,,110324,3.02,E,A*28

$GPRMC,150840.40,A,4548.65845,N,00837.72641,E,0.072,,110324,3.02,E,A*2B

$GPRMC,150840.50,A,4548.65843,N,00837.72642,E,0.050,,110324,3.02,E,A*2F

$GPRMC,150840.60,A,4548.65840,N,00837.72642,E,0.052,,110324,3.02,E,A*2D

$GPGST,150840.60,23,3.8,3.2,36,1.5,1.4,1.4*53

$GPRMC,150840.70,A,4548.65838,N,00837.72643,E,0.071,,110324,3.02,E,A*23

$GPTXT,01,01,01,NMEA unknown msg*58

$GPRMC,150840.80,A,4548.65836,N,00837.72643,E,0.095,,110324,3.02,E,A*28

$GPRMC,150840.90,A,4548.65833,N,00837.72643,E,0.041,,110324,3.02,E,A*25

$GPRMC,150841.00,A,4548.65831,N,00837.72643,E,0.008,,110324,3.02,E,A*22

$GPRMC,150841.10,A,4548.65829,N,00837.72643,E,0.072,,110324,3.02,E,A*27

$GPRMC,150841.20,A,4548.65827,N,00837.72643,E,0.012,,110324,3.02,E,A*2C

$GPRMC,150841.30,A,4548.65825,N,00837.72643,E,0.030,,110324,3.02,E,A*2F

$GPRMC,150841.40,A,4548.65823,N,00837.72643,E,0.040,,110324,3.02,E,A*29

$GPRMC,150841.50,A,4548.65823,N,00837.72643,E,0.000,,110324,3.02,E,A*2C

$GPRMC,150841.60,A,4548.65821,N,00837.72644,E,0.101,,110324,3.02,E,A*2A

$GPGST,150841.60,23,4.2,4.1,40,1.7,1.7,1.6*59

$GPRMC,150841.70,A,4548.65819,N,00837.72645,E,0.081,,110324,3.02,E,A*28

$GPRMC,150841.80,A,4548.65816,N,00837.72646,E,0.057,,110324,3.02,E,A*20

$GPRMC,150841.90,A,4548.65814,N,00837.72647,E,0.098,,110324,3.02,E,A*21

$GPRMC,150842.00,A,4548.65811,N,00837.72648,E,0.117,,110324,3.02,E,A*27

$GPRMC,150842.10,A,4548.65809,N,00837.72649,E,0.107,,110324,3.02,E,A*2F

$GPRMC,150842.20,A,4548.65809,N,00837.72649,E,0.000,,110324,3.02,E,A*2A

$GPTXT,01,01,01,NMEA unknown msg*58

$GPRMC,150842.30,A,4548.65809,N,00837.72649,E,0.000,,110324,3.02,E,A*2B

$GPRMC,150842.40,A,4548.65809,N,00837.72649,E,0.000,,110324,3.02,E,A*2C

$GPRMC,150842.50,A,4548.65804,N,00837.72651,E,0.071,,110324,3.02,E,A*2F

$GPRMC,150842.60,A,4548.65799,N,00837.72653,E,0.025,,110324,3.02,E,A*24

$GPGST,150842.60,23,4.5,4.4,51,1.8,1.8,1.7*59

$GPRMC,150842.70,A,4548.65795,N,00837.72654,E,0.109,,110324,3.02,E,A*21

$GPRMC,150842.80,A,4548.65792,N,00837.72655,E,0.055,,110324,3.02,E,A*20

$GPRMC,150842.90,A,4548.65789,N,00837.72656,E,0.073,,110324,3.02,E,A*2C

$GPRMC,150843.00,A,4548.65786,N,00837.72658,E,0.129,,110324,3.02,E,A*2B

$GPRMC,150843.10,A,4548.65783,N,00837.72660,E,0.086,,110324,3.02,E,A*20

$GPRMC,150843.20,A,4548.65781,N,00837.72661,E,0.061,,110324,3.02,E,A*29

$GPRMC,150843.30,A,4548.65779,N,00837.72662,E,0.072,,110324,3.02,E,A*2E

$GPRMC,150843.40,A,4548.65777,N,00837.72663,E,0.092,,110324,3.02,E,A*28

$GPRMC,150843.50,A,4548.65775,N,00837.72664,E,0.049,,110324,3.02,E,A*2A

$GPRMC,150843.60,A,4548.65773,N,00837.72664,E,0.094,,110324,3.02,E,A*2F

$GPGST,150843.60,25,4.2,3.9,44,1.6,1.6,1.4*54

$GPRMC,150843.70,A,4548.65771,N,00837.72665,E,0.059,,110324,3.02,E,A*2C

$GPRMC,150843.80,A,4548.65769,N,00837.72665,E,0.072,,110324,3.02,E,A*23

$GPRMC,150843.90,A,4548.65768,N,00837.72666,E,0.097,,110324,3.02,E,A*2B

$GPRMC,150844.00,A,4548.65766,N,00837.72667,E,0.101,,110324,3.02,E,A*24

$GPRMC,150844.10,A,4548.65765,N,00837.72668,E,0.059,,110324,3.02,E,A*25

$GPRMC,150844.20,A,4548.65764,N,00837.72668,E,0.013,,110324,3.02,E,A*29

$GPRMC,150844.30,A,4548.65763,N,00837.72669,E,0.041,,110324,3.02,E,A*29

$GPRMC,150844.40,A,4548.65762,N,00837.72670,E,0.135,,110324,3.02,E,A*25

$GPRMC,150844.50,A,4548.65760,N,00837.72670,E,0.092,,110324,3.02,E,A*2A

$GPRMC,150844.60,A,4548.65759,N,00837.72670,E,0.116,,110324,3.02,E,A*2E

$GPGST,150844.60,20,4.0,3.5,42,1.5,1.5,1.3*59

$GPRMC,150844.70,A,4548.65758,N,00837.72670,E,0.076,,110324,3.02,E,A*29

$GPRMC,150844.80,A,4548.65757,N,00837.72671,E,0.030,,110324,3.02,E,A*2A

$GPRMC,150844.90,A,4548.65756,N,00837.72670,E,0.087,,110324,3.02,E,A*27

$GPRMC,150845.00,A,4548.65754,N,00837.72670,E,0.106,,110324,3.02,E,A*25

$GPRMC,150845.10,A,4548.65754,N,00837.72670,E,0.062,,110324,3.02,E,A*27

$GPRMC,150845.20,A,4548.65752,N,00837.72670,E,0.086,,110324,3.02,E,A*28

$GPRMC,150845.30,A,4548.65752,N,00837.72670,E,0.097,,110324,3.02,E,A*29

$GPRMC,150845.40,A,4548.65751,N,00837.72670,E,0.058,,110324,3.02,E,A*2E

$GPRMC,150845.50,A,4548.65750,N,00837.72669,E,0.027,,110324,3.02,E,A*2E

$GPRMC,150845.60,A,4548.65749,N,00837.72669,E,0.080,,110324,3.02,E,A*28

$GPGST,150845.60,21,3.8,3.2,41,1.4,1.4,1.3*52

$GPRMC,150845.70,A,4548.65748,N,00837.72669,E,0.043,,110324,3.02,E,A*27

$GPRMC,150845.80,A,4548.65748,N,00837.72668,E,0.049,,110324,3.02,E,A*23

$GPTXT,01,01,01,NMEA unknown msg*58

$GPRMC,150845.90,A,4548.65747,N,00837.72668,E,0.163,,110324,3.02,E,A*24

$GPRMC,150846.00,A,4548.65747,N,00837.72668,E,0.065,,110324,3.02,E,A*29

$GPRMC,150846.10,A,4548.65746,N,00837.72667,E,0.063,,110324,3.02,E,A*20

$GPRMC,150846.20,A,4548.65745,N,00837.72666,E,0.111,,110324,3.02,E,A*25

$GPRMC,150846.30,A,4548.65744,N,00837.72665,E,0.084,,110324,3.02,E,A*2B

$GPRMC,150846.40,A,4548.65743,N,00837.72664,E,0.085,,110324,3.02,E,A*2B

$GPRMC,150846.50,A,4548.65743,N,00837.72664,E,0.121,,110324,3.02,E,A*25

$GPRMC,150846.60,A,4548.65742,N,00837.72664,E,0.028,,110324,3.02,E,A*2F

$GPGST,150846.60,22,3.6,3.0,41,1.4,1.3,1.3*59

$GPRMC,150846.70,A,4548.65742,N,00837.72663,E,0.056,,110324,3.02,E,A*20

$GPRMC,150846.80,A,4548.65741,N,00837.72662,E,0.085,,110324,3.02,E,A*23

$GPRMC,150846.90,A,4548.65740,N,00837.72661,E,0.088,,110324,3.02,E,A*2D

$GPRMC,150847.00,A,4548.65740,N,00837.72660,E,0.048,,110324,3.02,E,A*28

$GPRMC,150847.10,A,4548.65740,N,00837.72659,E,0.037,,110324,3.02,E,A*2B

$GPRMC,150847.20,A,4548.65739,N,00837.72658,E,0.127,,110324,3.02,E,A*27

$GPRMC,150847.30,A,4548.65738,N,00837.72657,E,0.169,,110324,3.02,E,A*22

$GPRMC,150847.40,A,4548.65738,N,00837.72657,E,0.053,,110324,3.02,E,A*2D

$GPRMC,150847.50,A,4548.65737,N,00837.72656,E,0.085,,110324,3.02,E,A*29

$GPRMC,150847.60,A,4548.65736,N,00837.72655,E,0.059,,110324,3.02,E,A*29

$GPGST,150847.60,27,3.5,2.9,40,1.3,1.3,1.3*50

$GPRMC,150847.70,A,4548.65735,N,00837.72655,E,0.019,,110324,3.02,E,A*2F

$GPRMC,150847.80,A,4548.65735,N,00837.72654,E,0.063,,110324,3.02,E,A*2C

$GPRMC,150847.90,A,4548.65734,N,00837.72653,E,0.094,,110324,3.02,E,A*23

