$GPRMC,101011.00,A,4548.66371,N,00837.72395,E,0.075,,120324,3.02,E,A*20

$GPRMC,101011.10,A,4548.66370,N,00837.72395,E,0.077,,120324,3.02,E,A*22

$GPRMC,101011.20,A,4548.66370,N,00837.72394,E,0.028,,120324,3.02,E,A*2A

$GPRMC,101011.30,A,4548.66369,N,00837.72394,E,0.023,,120324,3.02,E,A*28

$GPRMC,101011.40,A,4548.66369,N,00837.72393,E,0.037,,120324,3.02,E,A*2D

$GPRMC,101011.50,A,4548.66368,N,00837.72393,E,0.091,,120324,3.02,E,A*21

$GPGST,101011.50,17,3.4,3.1,166,1.4,1.2,1.2*65

$GPRMC,101011.60,A,4548.66368,N,00837.72392,E,0.014,,120324,3.02,E,A*2E

$GPRMC,101011.70,A,4548.66367,N,00837.72391,E,0.035,,120324,3.02,E,A*20

$GPRMC,101011.80,A,4548.66366,N,00837.72391,E,0.028,,120324,3.02,E,A*22

$GPRMC,101011.90,A,4548.66366,N,00837.72390,E,0.050,,120324,3.02,E,A*2D

$GPTXT,01,01,01,NMEA unknown msg*58

$GPRMC,101012.00,A,4548.66365,N,00837.72389,E,0.051,,120324,3.02,E,A*2D

$GPRMC,101012.10,A,4548.66365,N,00837.72388,E,0.058,,120324,3.02,E,A*24

$GPTXT,01,01,01,NMEA unknown msg*58

$GPTXT,01,01,01,NMEA unknown msg*58

$GPRMC,101012.20,A,4548.66364,N,00837.72387,E,0.058,,120324,3.02,E,A*29

$GPRMC,101012.30,A,4548.66362,N,00837.72386,E,0.042,,120324,3.02,E,A*24

$GPRMC,101012.40,A,4548.66361,N,00837.72385,E,0.052,,120324,3.02,E,A*22

$GPRMC,101012.50,A,4548.66360,N,00837.72385,E,0.100,,120324,3.02,E,A*24

$GPGST,101012.50,17,3.3,2.8,167,1.3,1.1,1.2*6C

$GPRMC,101012.60,A,4548.66359,N,00837.72383,E,0.055,,120324,3.02,E,A*2A

$GPRMC,101012.70,A,4548.66358,N,00837.72383,E,0.102,,120324,3.02,E,A*29

$GPRMC,101012.80,A,4548.66356,N,00837.72381,E,0.016,,120324,3.02,E,A*2E

$GPRMC,101012.90,A,4548.66355,N,00837.72380,E,0.079,,120324,3.02,E,A*24

$GPTXT,01,01,01,NMEA unknown msg*58

$GPRMC,101013.00,A,4548.66354,N,00837.72379,E,0.106,,120324,3.02,E,A*22

$GPTXT,01,01,01,NMEA unknown msg*58

$GPRMC,101013.10,A,4548.66353,N,00837.72378,E,0.086,,120324,3.02,E,A*2C

$GPRMC,101013.20,A,4548.66352,N,00837.72377,E,0.086,,120324,3.02,E,A*21

$GPRMC,101013.30,A,4548.66350,N,00837.72376,E,0.074,,120324,3.02,E,A*2E

$GPRMC,101013.40,A,4548.66349,N,00837.72374,E,0.102,,120324,3.02,E,A*23

$GPRMC,101013.50,A,4548.66347,N,00837.72373,E,0.061,,120324,3.02,E,A*2F

$GPGST,101013.50,19,3.2,2.7,167,1.3,1.1,1.2*6D

$GPRMC,101013.60,A,4548.66345,N,00837.72372,E,0.075,,120324,3.02,E,A*2A

$GPTXT,01,01,01,NMEA unknown msg*58

$GPRMC,101013.70,A,4548.66344,N,00837.72371,E,0.037,,120324,3.02,E,A*2F

$GPRMC,101013.80,A,4548.66342,N,00837.72370,E,0.033,,120324,3.02,E,A*23

$GPRMC,101013.90,A,4548.66341,N,00837.72369,E,0.065,,120324,3.02,E,A*2A

$GPRMC,101014.00,A,4548.66339,N,00837.72368,E,0.056,,120324,3.02,E,A*2A

$GPRMC,101014.10,A,4548.66337,N,00837.72367,E,0.048,,120324,3.02,E,A*25

$GPRMC,101014.20,A,4548.66335,N,00837.72366,E,0.065,,120324,3.02,E,A*2A

$GPRMC,101014.30,A,4548.66333,N,00837.72365,E,0.048,,120324,3.02,E,A*21

$GPRMC,101014.40,A,4548.66331,N,00837.72364,E,0.026,,120324,3.02,E,A*2D

$GPTXT,01,01,01,NMEA unknown msg*58

$GPRMC,101014.50,A,4548.66329,N,00837.72363,E,0.062,,120324,3.02,E,A*22

$GPGST,101014.50,19,3.1,2.5,166,1.2,1.0,1.3*6B

$GPRMC,101014.60,A,4548.66327,N,00837.72362,E,0.067,,120324,3.02,E,A*2B

$GPRMC,101014.70,A,4548.66325,N,00837.72362,E,0.034,,120324,3.02,E,A*2E

$GPRMC,101014.80,A,4548.66324,N,00837.72361,E,0.054,,120324,3.02,E,A*25

$GPRMC,101014.90,A,4548.66322,N,00837.72361,E,0.047,,120324,3.02,E,A*20

$GPRMC,101015.00,A,4548.66320,N,00837.72361,E,0.035,,120324,3.02,E,A*2F

$GPRMC,101015.10,A,4548.66318,N,00837.72361,E,0.062,,120324,3.02,E,A*27

$GPRMC,101015.20,A,4548.66317,N,00837.72360,E,0.019,,120324,3.02,E,A*26

$GPRMC,101015.30,A,4548.66315,N,00837.72360,E,0.024,,120324,3.02,E,A*2B

$GPRMC,101015.40,A,4548.66314,N,00837.72360,E,0.097,,120324,3.02,E,A*25

$GPRMC,101015.50,A,4548.66312,N,00837.72360,E,0.055,,120324,3.02,E,A*2C

$GPGST,101015.50,20,3.0,2.4,165,1.2,0.98,1.3*53

$GPRMC,101015.60,A,4548.66310,N,00837.72360,E,0.013,,120324,3.02,E,A*2F

$GPRMC,101015.70,A,4548.66309,N,00837.72360,E,0.112,,120324,3.02,E,A*26

$GPRMC,101015.80,A,4548.66308,N,00837.72359,E,0.017,,120324,3.02,E,A*26

$GPRMC,101015.90,A,4548.66306,N,00837.72359,E,0.050,,120324,3.02,E,A*2A

$GPRMC,101016.00,A,4548.66305,N,00837.72358,E,0.044,,120324,3.02,E,A*27

$GPRMC,101016.10,A,4548.66305,N,00837.72358,E,0.130,,120324,3.02,E,A*24

$GPRMC,101016.20,A,4548.66303,N,00837.72358,E,0.081,,120324,3.02,E,A*2A

$GPRMC,101016.30,A,4548.66303,N,00837.72358,E,0.088,,120324,3.02,E,A*22

$GPRMC,101016.40,A,4548.66302,N,00837.72358,E,0.050,,120324,3.02,E,A*21

$GPTXT,01,01,01,NMEA unknown msg*58

$GPTXT,01,01,01,NMEA unknown msg*58

$GPRMC,101016.50,A,4548.66300,N,00837.72358,E,0.095,,120324,3.02,E,A*2B

$GPGST,101016.50,21,2.9,2.3,165,1.1,0.94,1.3*51

$GPRMC,101016.60,A,4548.66299,N,00837.72358,E,0.027,,120324,3.02,E,A*20

$GPTXT,01,01,01,NMEA unknown msg*58

$GPRMC,101016.70,A,4548.66298,N,00837.72358,E,0.035,,120324,3.02,E,A*23

$GPRMC,101016.80,A,4548.66297,N,00837.72358,E,0.079,,120324,3.02,E,A*2B

$GPTXT,01,01,01,NMEA unknown msg*58

$GPRMC,101016.90,A,4548.66296,N,00837.72358,E,0.045,,120324,3.02,E,A*24

$GPRMC,101017.00,A,4548.66295,N,00837.72358,E,0.043,,120324,3.02,E,A*29

$GPRMC,101017.10,A,4548.66294,N,00837.72358,E,0.066,,120324,3.02,E,A*2E

$GPRMC,101017.20,A,4548.66292,N,00837.72358,E,0.029,,120324,3.02,E,A*20

$GPRMC,101017.30,A,4548.66291,N,00837.72359,E,0.012,,120324,3.02,E,A*2B

$GPRMC,101017.40,A,4548.66290,N,00837.72359,E,0.061,,120324,3.02,E,A*29

$GPRMC,101017.50,A,4548.66289,N,00837.72360,E,0.065,,120324,3.02,E,A*2E

$GPGST,101017.50,21,2.8,2.2,165,1.1,0.91,1.3*55

$GPRMC,101017.60,A,4548.66288,N,00837.72360,E,0.027,,120324,3.02,E,A*2A

$GPRMC,101017.70,A,4548.66288,N,00837.72361,E,0.045,,120324,3.02,E,A*2E

$GPRMC,101017.80,A,4548.66287,N,00837.72362,E,0.043,,120324,3.02,E,A*2B

$GPRMC,101017.90,A,4548.66286,N,00837.72363,E,0.104,,120324,3.02,E,A*28

$GPRMC,101018.00,A,4548.66285,N,00837.72364,E,0.073,,120324,3.02,E,A*2B

$GPRMC,101018.10,A,4548.66285,N,00837.72365,E,0.066,,120324,3.02,E,A*2F

$GPRMC,101018.20,A,4548.66284,N,00837.72365,E,0.050,,120324,3.02,E,A*28

$GPRMC,101018.30,A,4548.66282,N,00837.72367,E,0.054,,120324,3.02,E,A*29

$GPRMC,101018.40,A,4548.66282,N,00837.72368,E,0.069,,120324,3.02,E,A*2F

$GPRMC,101018.50,A,4548.66281,N,00837.72369,E,0.073,,120324,3.02,E,A*27

$GPGST,101018.50,28,2.8,2.1,165,1.1,0.88,1.3*58

$GPRMC,101018.60,A,4548.66280,N,00837.72370,E,0.021,,120324,3.02,E,A*2A

$GPRMC,101018.70,A,4548.66279,N,00837.72372,E,0.074,,120324,3.02,E,A*2F

$GPRMC,101018.80,A,4548.66278,N,00837.72373,E,0.089,,120324,3.02,E,A*22

$GPRMC,101018.90,A,4548.66275,N,00837.72374,E,0.115,,120324,3.02,E,A*2D

$GPRMC,101019.00,A,4548.66273,N,00837.72375,E,0.185,,120324,3.02,E,A*2B

$GPTXT,01,01,01,NMEA unknown msg*58

$GPRMC,101019.10,A,4548.66271,N,00837.72376,E,0.185,,120324,3.02,E,A*2B

$GPRMC,101019.20,A,4548.66270,N,00837.72377,E,0.085,,120324,3.02,E,A*29

$GPRMC,101019.30,A,4548.66269,N,00837.72378,E,0.008,,120324,3.02,E,A*2A

$GPRMC,101019.40,A,4548.66268,N,00837.72379,E,0.055,,120324,3.02,E,A*25

$GPRMC,101019.50,A,4548.66265,N,00837.72380,E,0.062,,120324,3.02,E,A*2B

$GPGST,101019.50,46,2.8,2.1,166,1.1,0.85,1.4*58

$GPTXT,01,01,01,NMEA unknown msg*58

$GPRMC,101019.60,A,4548.66264,N,00837.72381,E,0.011,,120324,3.02,E,A*2C

$GPRMC,101019.70,A,4548.66263,N,00837.72382,E,0.031,,120324,3.02,E,A*2B

$GPRMC,101019.80,A,4548.66261,N,00837.72383,E,0.015,,120324,3.02,E,A*21

$GPRMC,101019.90,A,4548.66259,N,00837.72385,E,0.121,,120324,3.02,E,A*2B

$GPRMC,101020.00,A,4548.66259,N,00837.72386,E,0.071,,120324,3.02,E,A*2F

$GPRMC,101020.10,A,4548.66257,N,00837.72387,E,0.052,,120324,3.02,E,A*20

$GPRMC,101020.20,A,4548.66256,N,00837.72388,E,0.032,,120324,3.02,E,A*2B

$GPRMC,101020.30,A,4548.66255,N,00837.72390,E,0.031,,120324,3.02,E,A*23

$GPRMC,101020.40,A,4548.66254,N,00837.72391,E,0.078,,120324,3.02,E,A*29

$GPRMC,101020.50,A,4548.66253,N,00837.72392,E,0.032,,120324,3.02,E,A*22

$GPGST,101020.50,46,2.7,2.0,166,1.1,0.83,1.4*5A

$GPTXT,01,01,01,NMEA unknown msg*58

$GPRMC,101020.60,A,4548.66253,N,00837.72393,E,0.121,,120324,3.02,E,A*23

$GPTXT,01,01,01,NMEA unknown msg*58

$GPRMC,101020.70,A,4548.66252,N,00837.72395,E,0.091,,120324,3.02,E,A*2F

$GPRMC,101020.80,A,4548.66250,N,00837.72396,E,0.133,,120324,3.02,E,A*28

$GPRMC,101020.90,A,4548.66249,N,00837.72398,E,0.083,,120324,3.02,E,A*25

$GPRMC,101021.00,A,4548.66248,N,00837.72399,E,0.030,,120324,3.02,E,A*25

$GPRMC,101021.10,A,4548.66248,N,00837.72400,E,0.082,,120324,3.02,E,A*2A

$GPRMC,101021.20,A,4548.66247,N,00837.72401,E,0.112,,120324,3.02,E,A*2F

$GPRMC,101021.30,A,4548.66246,N,00837.72403,E,0.105,,120324,3.02,E,A*2B

$GPRMC,101021.40,A,4548.66246,N,00837.72404,E,0.050,,120324,3.02,E,A*2A

$GPRMC,101021.50,A,4548.66245,N,00837.72405,E,0.008,,120324,3.02,E,A*24

$GPGST,101021.50,46,2.8,2.0,166,1.1,0.81,1.4*56

$GPRMC,101021.60,A,4548.66243,N,00837.72407,E,0.097,,120324,3.02,E,A*25

$GPRMC,101021.70,A,4548.66242,N,00837.72408,E,0.054,,120324,3.02,E,A*25

$GPRMC,101021.80,A,4548.66242,N,00837.72409,E,0.031,,120324,3.02,E,A*28

$GPTXT,01,01,01,NMEA unknown msg*58

$GPRMC,101021.90,A,4548.66241,N,00837.72411,E,0.098,,120324,3.02,E,A*20

$GPRMC,101022.00,A,4548.66241,N,00837.72412,E,0.126,,120324,3.02,E,A*2D

$GPRMC,101022.10,A,4548.66240,N,00837.72414,E,0.113,,120324,3.02,E,A*2D

$GPRMC,101022.20,A,4548.66240,N,00837.72415,E,0.112,,120324,3.02,E,A*2E

$GPRMC,101022.30,A,4548.66239,N,00837.72416,E,0.085,,120324,3.02,E,A*2D

$GPRMC,101022.40,A,4548.66239,N,00837.72417,E,0.112,,120324,3.02,E,A*24

$GPTXT,01,01,01,NMEA unknown msg*58

$GPRMC,101022.50,A,4548.66238,N,00837.72419,E,0.043,,120324,3.02,E,A*2F

$GPGST,101022.50,48,2.8,1.9,166,1.1,0.80,1.4*50

$GPRMC,101022.60,A,4548.66238,N,00837.72420,E,0.053,,120324,3.02,E,A*27

$GPRMC,101022.70,A,4548.66237,N,00837.72422,E,0.104,,120324,3.02,E,A*28

$GPRMC,101022.80,A,4548.66237,N,00837.72423,E,0.021,,120324,3.02,E,A*20

$GPRMC,101022.90,A,4548.66236,N,00837.72424,E,0.083,,120324,3.02,E,A*2F

$GPRMC,101023.00,A,4548.66236,N,00837.72425,E,0.064,,120324,3.02,E,A*2F

$GPRMC,101023.10,A,4548.66235,N,00837.72426,E,0.060,,120324,3.02,E,A*2A

$GPRMC,101023.20,A,4548.66234,N,00837.72428,E,0.063,,120324,3.02,E,A*25

$GPRMC,101023.30,A,4548.66233,N,00837.72429,E,0.034,,120324,3.02,E,A*20

$GPRMC,101023.40,A,4548.66233,N,00837.72430,E,0.029,,120324,3.02,E,A*23

$GPRMC,101023.50,A,4548.66232,N,00837.72431,E,0.017,,120324,3.02,E,A*2F

$GPGST,101023.50,33,2.8,1.9,167,1.1,0.79,1.5*5B

$GPRMC,101023.60,A,4548.66231,N,00837.72432,E,0.048,,120324,3.02,E,A*26

$GPRMC,101023.70,A,4548.66230,N,00837.72433,E,0.059,,120324,3.02,E,A*27

$GPRMC,101023.80,A,4548.66229,N,00837.72435,E,0.015,,120324,3.02,E,A*2E

$GPRMC,101023.90,A,4548.66228,N,00837.72435,E,0.073,,120324,3.02,E,A*2E

$GPRMC,101024.00,A,4548.66227,N,00837.72437,E,0.093,,120324,3.02,E,A*23

$GPRMC,101024.10,A,4548.66227,N,00837.72438,E,0.096,,120324,3.02,E,A*28

$GPRMC,101024.20,A,4548.66227,N,00837.72439,E,0.033,,120324,3.02,E,A*25

$GPRMC,101024.30,A,4548.66227,N,00837.72440,E,0.075,,120324,3.02,E,A*28

$GPRMC,101024.40,A,4548.66226,N,00837.72441,E,0.063,,120324,3.02,E,A*28

$GPRMC,101024.50,A,4548.66226,N,00837.72442,E,0.066,,120324,3.02,E,A*2F

$GPGST,101024.50,32,2.9,1.9,167,1.1,0.77,1.5*52

$GPRMC,101024.60,A,4548.66226,N,00837.72442,E,0.000,,120324,3.02,E,A*2C

$GPRMC,101024.70,A,4548.66226,N,00837.72442,E,0.000,,120324,3.02,E,A*2D

$GPRMC,101024.80,A,4548.66226,N,00837.72442,E,0.000,,120324,3.02,E,A*22

$GPRMC,101024.90,A,4548.66224,N,00837.72445,E,0.083,,120324,3.02,E,A*2D

$GPRMC,101025.00,A,4548.66223,N,00837.72448,E,0.144,,120324,3.02,E,A*25

$GPRMC,101025.10,A,4548.66222,N,00837.72450,E,0.076,,120324,3.02,E,A*2C

$GPRMC,101025.20,A,4548.66221,N,00837.72453,E,0.208,,120324,3.02,E,A*24

$GPRMC,101025.30,A,4548.66219,N,00837.72455,E,0.094,,120324,3.02,E,A*2F

$GPRMC,101025.40,A,4548.66218,N,00837.72458,E,0.043,,120324,3.02,E,A*2E

$GPTXT,01,01,01,NMEA unknown msg*58

$GPRMC,101025.50,A,4548.66217,N,00837.72460,E,0.096,,120324,3.02,E,A*23

$GPGST,101025.50,33,3.5,3.4,165,1.4,1.4,1.3*64

$GPRMC,101025.60,A,4548.66216,N,00837.72462,E,0.045,,120324,3.02,E,A*2D

$GPRMC,101025.70,A,4548.66215,N,00837.72464,E,0.054,,120324,3.02,E,A*29

$GPRMC,101025.80,A,4548.66214,N,00837.72466,E,0.093,,120324,3.02,E,A*2E

$GPRMC,101025.90,A,4548.66214,N,00837.72468,E,0.119,,120324,3.02,E,A*22

$GPTXT,01,01,01,NMEA unknown msg*58

$GPRMC,101026.00,A,4548.66213,N,00837.72470,E,0.108,,120324,3.02,E,A*26

$GPRMC,101026.10,A,4548.66212,N,00837.72471,E,0.128,,120324,3.02,E,A*25

$GPRMC,101026.20,A,4548.66211,N,00837.72473,E,0.121,,120324,3.02,E,A*2E

$GPRMC,101026.30,A,4548.66210,N,00837.72475,E,0.102,,120324,3.02,E,A*29

$GPTXT,01,01,01,NMEA unknown msg*58

$GPRMC,101026.40,A,4548.66210,N,00837.72478,E,0.099,,120324,3.02,E,A*20

$GPRMC,101026.50,A,4548.66209,N,00837.72480,E,0.078,,120324,3.02,E,A*21

$GPGST,101026.50,41,3.5,3.1,166,1.4,1.3,1.2*62

$GPTXT,01,01,01,NMEA unknown msg*58

$GPRMC,101026.60,A,4548.66209,N,00837.72483,E,0.105,,120324,3.02,E,A*2A

$GPRMC,101026.70,A,4548.66209,N,00837.72485,E,0.047,,120324,3.02,E,A*2A

$GPRMC,101026.80,A,4548.66208,N,00837.72488,E,0.078,,120324,3.02,E,A*25

$GPRMC,101026.90,A,4548.66207,N,00837.72490,E,0.068,,120324,3.02,E,A*23

$GPRMC,101027.00,A,4548.66207,N,00837.72492,E,0.034,,120324,3.02,E,A*20

$GPRMC,101027.10,A,4548.66206,N,00837.72494,E,0.110,,120324,3.02,E,A*21

$GPTXT,01,01,01,NMEA unknown msg*58

$GPTXT,01,01,01,NMEA unknown msg*58

$GPRMC,101027.20,A,4548.66206,N,00837.72496,E,0.080,,120324,3.02,E,A*28

$GPRMC,101027.30,A,4548.66204,N,00837.72498,E,0.075,,120324,3.02,E,A*2F

$GPRMC,101027.40,A,4548.66203,N,00837.72500,E,0.048,,120324,3.02,E,A*21

$GPRMC,101027.50,A,4548.66202,N,00837.72502,E,0.111,,120324,3.02,E,A*2E

$GPGST,101027.50,40,3.6,2.9,166,1.4,1.2,1.3*68

$GPRMC,101027.60,A,4548.66202,N,00837.72504,E,0.070,,120324,3.02,E,A*2D

$GPTXT,01,01,01,NMEA unknown msg*58

$GPRMC,101027.70,A,4548.66201,N,00837.72507,E,0.044,,120324,3.02,E,A*2B

$GPRMC,101027.80,A,4548.66200,N,00837.72509,E,0.051,,120324,3.02,E,A*2F

$GPTXT,01,01,01,NMEA unknown msg*58

$GPRMC,101027.90,A,4548.66199,N,00837.72511,E,0.032,,120324,3.02,E,A*21

$GPTXT,01,01,01,NMEA unknown msg*58

$GPRMC,101028.00,A,4548.66198,N,00837.72513,E,0.045,,120324,3.02,E,A*24

$GPTXT,01,01,01,NMEA unknown msg*58

$GPRMC,101028.10,A,4548.66197,N,00837.72515,E,0.019,,120324,3.02,E,A*25

$GPRMC,101028.20,A,4548.66196,N,00837.72516,E,0.024,,120324,3.02,E,A*2A

$GPRMC,101028.30,A,4548.66193,N,00837.72518,E,0.071,,120324,3.02,E,A*20

$GPRMC,101028.40,A,4548.66192,N,00837.72519,E,0.064,,120324,3.02,E,A*23

$GPRMC,101028.50,A,4548.66188,N,00837.72521,E,0.044,,120324,3.02,E,A*20

$GPGST,101028.50,34,3.7,2.7,166,1.5,1.1,1.3*69

$GPRMC,101028.60,A,4548.66186,N,00837.72522,E,0.131,,120324,3.02,E,A*2D

$GPRMC,101028.70,A,4548.66181,N,00837.72524,E,0.065,,120324,3.02,E,A*2D

$GPRMC,101028.80,A,4548.66177,N,00837.72525,E,0.098,,120324,3.02,E,A*28

$GPRMC,101028.90,A,4548.66173,N,00837.72527,E,0.048,,120324,3.02,E,A*22

$GPRMC,101029.00,A,4548.66169,N,00837.72528,E,0.047,,120324,3.02,E,A*21

$GPRMC,101029.10,A,4548.66165,N,00837.72530,E,0.076,,120324,3.02,E,A*27

$GPRMC,101029.20,A,4548.66161,N,00837.72531,E,0.112,,120324,3.02,E,A*22

$GPRMC,101029.30,A,4548.66158,N,00837.72532,E,0.124,,120324,3.02,E,A*2F

$GPTXT,01,01,01,NMEA unknown msg*58

$GPRMC,101029.40,A,4548.66154,N,00837.72534,E,0.100,,120324,3.02,E,A*24

$GPRMC,101029.50,A,4548.66151,N,00837.72536,E,0.160,,120324,3.02,E,A*24

$GPGST,101029.50,32,3.5,2.6,164,1.4,1.1,1.3*6E

$GPRMC,101029.60,A,4548.66147,N,00837.72537,E,0.075,,120324,3.02,E,A*24

$GPRMC,101029.70,A,4548.66143,N,00837.72539,E,0.035,,120324,3.02,E,A*2B

$GPRMC,101029.80,A,4548.66140,N,00837.72541,E,0.127,,120324,3.02,E,A*2A

$GPRMC,101029.90,A,4548.66137,N,00837.72543,E,0.087,,120324,3.02,E,A*22

$GPRMC,101030.00,A,4548.66134,N,00837.72545,E,0.121,,120324,3.02,E,A*2B

$GPRMC,101030.10,A,4548.66132,N,00837.72547,E,0.055,,120324,3.02,E,A*2C

$GPRMC,101030.20,A,4548.66129,N,00837.72548,E,0.069,,120324,3.02,E,A*25

$GPRMC,101030.30,A,4548.66126,N,00837.72550,E,0.067,,120324,3.02,E,A*2C

$GPRMC,101030.40,A,4548.66124,N,00837.72552,E,0.078,,120324,3.02,E,A*25

$GPRMC,101030.50,A,4548.66122,N,00837.72553,E,0.020,,120324,3.02,E,A*2E

$GPGST,101030.50,25,3.4,2.4,163,1.3,1.0,1.3*62

$GPRMC,101030.60,A,4548.66120,N,00837.72555,E,0.062,,120324,3.02,E,A*2F

$GPRMC,101030.70,A,4548.66119,N,00837.72556,E,0.022,,120324,3.02,E,A*23

$GPRMC,101030.80,A,4548.66118,N,00837.72558,E,0.035,,120324,3.02,E,A*25

$GPRMC,101030.90,A,4548.66116,N,00837.72559,E,0.016,,120324,3.02,E,A*2A

$GPTXT,01,01,01,NMEA unknown msg*58

$GPRMC,101031.00,A,4548.66115,N,00837.72560,E,0.004,,120324,3.02,E,A*28

$GPRMC,101031.10,A,4548.66114,N,00837.72561,E,0.031,,120324,3.02,E,A*2F

$GPRMC,101031.20,A,4548.66113,N,00837.72562,E,0.023,,120324,3.02,E,A*2B

$GPRMC,101031.30,A,4548.66112,N,00837.72563,E,0.046,,120324,3.02,E,A*29

$GPRMC,101031.40,A,4548.66111,N,00837.72564,E,0.027,,120324,3.02,E,A*2D

$GPRMC,101031.50,A,4548.66109,N,00837.72564,E,0.024,,120324,3.02,E,A*26

$GPGST,101031.50,24,3.4,2.3,163,1.3,0.97,1.3*5A

$GPRMC,101031.60,A,4548.66108,N,00837.72565,E,0.054,,120324,3.02,E,A*22

$GPRMC,101031.70,A,4548.66107,N,00837.72567,E,0.058,,120324,3.02,E,A*22

$GPRMC,101031.80,A,4548.66106,N,00837.72567,E,0.028,,120324,3.02,E,A*2B

$GPRMC,101031.90,A,4548.66105,N,00837.72568,E,0.042,,120324,3.02,E,A*2A

$GPRMC,101032.00,A,4548.66104,N,00837.72568,E,0.027,,120324,3.02,E,A*22

$GPRMC,101032.10,A,4548.66104,N,00837.72568,E,0.018,,120324,3.02,E,A*2F

$GPRMC,101032.20,A,4548.66103,N,00837.72568,E,0.025,,120324,3.02,E,A*25

$GPRMC,101032.30,A,4548.66103,N,00837.72568,E,0.000,,120324,3.02,E,A*23

$GPRMC,101032.40,A,4548.66103,N,00837.72568,E,0.000,,120324,3.02,E,A*24

$GPRMC,101032.50,A,4548.66101,N,00837.72568,E,0.021,,120324,3.02,E,A*24

$GPGST,101032.50,22,3.7,3.7,163,1.5,1.5,1.4*62

$GPTXT,01,01,01,NMEA unknown msg*58

$GPRMC,101032.60,A,4548.66100,N,00837.72568,E,0.069,,120324,3.02,E,A*2A

$GPRMC,101032.70,A,4548.66100,N,00837.72568,E,0.050,,120324,3.02,E,A*21

$GPRMC,101032.80,A,4548.66099,N,00837.72568,E,0.029,,120324,3.02,E,A*21

$GPRMC,101032.90,A,4548.66098,N,00837.72568,E,0.032,,120324,3.02,E,A*2B

$GPRMC,101033.00,A,4548.66097,N,00837.72567,E,0.122,,120324,3.02,E,A*23

$GPRMC,101033.10,A,4548.66097,N,00837.72567,E,0.104,,120324,3.02,E,A*26

$GPRMC,101033.20,A,4548.66096,N,00837.72566,E,0.076,,120324,3.02,E,A*21

$GPRMC,101033.30,A,4548.66095,N,00837.72566,E,0.079,,120324,3.02,E,A*2C

$GPRMC,101033.40,A,4548.66095,N,00837.72565,E,0.069,,120324,3.02,E,A*29

$GPRMC,101033.50,A,4548.66094,N,00837.72565,E,0.058,,120324,3.02,E,A*2B

$GPGST,101033.50,21,3.6,3.2,164,1.5,1.3,1.2*63

$GPRMC,101033.60,A,4548.66094,N,00837.72564,E,0.066,,120324,3.02,E,A*24

$GPRMC,101033.70,A,4548.66093,N,00837.72563,E,0.069,,120324,3.02,E,A*2A

$GPTXT,01,01,01,NMEA unknown msg*58

$GPRMC,101033.80,A,4548.66093,N,00837.72562,E,0.066,,120324,3.02,E,A*2B

$GPRMC,101033.90,A,4548.66093,N,00837.72562,E,0.000,,120324,3.02,E,A*2A

$GPRMC,101034.00,A,4548.66093,N,00837.72560,E,0.018,,120324,3.02,E,A*2F

$GPRMC,101034.10,A,4548.66092,N,00837.72558,E,0.071,,120324,3.02,E,A*2B

$GPRMC,101034.20,A,4548.66092,N,00837.72556,E,0.074,,120324,3.02,E,A*23

$GPRMC,101034.30,A,4548.66091,N,00837.72554,E,0.027,,120324,3.02,E,A*25

$GPRMC,101034.40,A,4548.66090,N,00837.72552,E,0.031,,120324,3.02,E,A*22

$GPRMC,101034.50,A,4548.66091,N,00837.72550,E,0.056,,120324,3.02,E,A*21

$GPGST,101034.50,33,3.9,3.6,165,1.6,1.5,1.4*6E

$GPRMC,101034.60,A,4548.66090,N,00837.72549,E,0.084,,120324,3.02,E,A*24

$GPRMC,101034.70,A,4548.66090,N,00837.72548,E,0.064,,120324,3.02,E,A*2A

$GPRMC,101034.80,A,4548.66089,N,00837.72547,E,0.057,,120324,3.02,E,A*22

$GPRMC,101034.90,A,4548.66089,N,00837.72546,E,0.058,,120324,3.02,E,A*2D

$GPRMC,101035.00,A,4548.66089,N,00837.72546,E,0.081,,120324,3.02,E,A*21

$GPRMC,101035.10,A,4548.66089,N,00837.72545,E,0.097,,120324,3.02,E,A*24

$GPRMC,101035.20,A,4548.66089,N,00837.72544,E,0.044,,120324,3.02,E,A*28

$GPRMC,101035.30,A,4548.66088,N,00837.72544,E,0.031,,120324,3.02,E,A*2A

$GPRMC,101035.40,A,4548.66089,N,00837.72543,E,0.061,,120324,3.02,E,A*2E

$GPTXT,01,01,01,NMEA unknown msg*58

$GPRMC,101035.50,A,4548.66089,N,00837.72542,E,0.120,,120324,3.02,E,A*2A

$GPGST,101035.50,33,3.9,3.2,166,1.6,1.3,1.2*68

$GPRMC,101035.60,A,4548.66089,N,00837.72541,E,0.084,,120324,3.02,E,A*25

$GPTXT,01,01,01,NMEA unknown msg*58

$GPRMC,101035.70,A,4548.66090,N,00837.72540,E,0.106,,120324,3.02,E,A*26

$GPRMC,101035.80,A,4548.66091,N,00837.72539,E,0.174,,120324,3.02,E,A*23

$GPRMC,101035.90,A,4548.66091,N,00837.72538,E,0.120,,120324,3.02,E,A*22

$GPRMC,101036.00,A,4548.66091,N,00837.72537,E,0.084,,120324,3.02,E,A*28

$GPRMC,101036.10,A,4548.66091,N,00837.72536,E,0.041,,120324,3.02,E,A*21

$GPRMC,101036.20,A,4548.66092,N,00837.72535,E,0.039,,120324,3.02,E,A*2D

$GPRMC,101036.30,A,4548.66092,N,00837.72534,E,0.076,,120324,3.02,E,A*26

$GPRMC,101036.40,A,4548.66092,N,00837.72533,E,0.036,,120324,3.02,E,A*22

$GPRMC,101036.50,A,4548.66092,N,00837.72532,E,0.021,,120324,3.02,E,A*24

$GPGST,101036.50,35,3.9,2.9,167,1.6,1.2,1.2*67

$GPRMC,101036.60,A,4548.66093,N,00837.72531,E,0.038,,120324,3.02,E,A*2D

$GPRMC,101036.70,A,4548.66094,N,00837.72530,E,0.046,,120324,3.02,E,A*23

$GPRMC,101036.80,A,4548.66095,N,00837.72528,E,0.015,,120324,3.02,E,A*22

$GPRMC,101036.90,A,4548.66096,N,00837.72527,E,0.084,,120324,3.02,E,A*27

$GPRMC,101037.00,A,4548.66098,N,00837.72525,E,0.024,,120324,3.02,E,A*29

$GPTXT,01,01,01,NMEA unknown msg*58

$GPRMC,101037.10,A,4548.66099,N,00837.72523,E,0.131,,120324,3.02,E,A*2A

$GPRMC,101037.20,A,4548.66101,N,00837.72522,E,0.163,,120324,3.02,E,A*2F

$GPTXT,01,01,01,NMEA unknown msg*58

$GPRMC,101037.30,A,4548.66103,N,00837.72520,E,0.106,,120324,3.02,E,A*2D

$GPRMC,101037.40,A,4548.66104,N,00837.72519,E,0.131,,120324,3.02,E,A*23

$GPRMC,101037.50,A,4548.66106,N,00837.72517,E,0.147,,120324,3.02,E,A*2F

$GPGST,101037.50,35,4.0,2.7,168,1.6,1.1,1.2*6A

$GPTXT,01,01,01,NMEA unknown msg*58

$GPRMC,101037.60,A,4548.66107,N,00837.72515,E,0.115,,120324,3.02,E,A*28

$GPRMC,101037.70,A,4548.66108,N,00837.72514,E,0.094,,120324,3.02,E,A*2F

$GPRMC,101037.80,A,4548.66108,N,00837.72513,E,0.080,,120324,3.02,E,A*22

$GPRMC,101037.90,A,4548.66109,N,00837.72512,E,0.094,,120324,3.02,E,A*26

$GPRMC,101038.00,A,4548.66109,N,00837.72510,E,0.119,,120324,3.02,E,A*26

$GPTXT,01,01,01,NMEA unknown msg*58

$GPRMC,101038.10,A,4548.66110,N,00837.72509,E,0.115,,120324,3.02,E,A*2B

$GPRMC,101038.20,A,4548.66110,N,00837.72508,E,0.061,,120324,3.02,E,A*2B

$GPRMC,101038.30,A,4548.66112,N,00837.72506,E,0.047,,120324,3.02,E,A*22

$GPRMC,101038.40,A,4548.66112,N,00837.72505,E,0.084,,120324,3.02,E,A*29

$GPRMC,101038.50,A,4548.66114,N,00837.72504,E,0.035,,120324,3.02,E,A*25

$GPGST,101038.50,24,4.1,2.5,168,1.6,1.0,1.3*66

$GPRMC,101038.60,A,4548.66114,N,00837.72502,E,0.032,,120324,3.02,E,A*27

$GPTXT,01,01,01,NMEA unknown msg*58

$GPRMC,101038.70,A,4548.66117,N,00837.72501,E,0.065,,120324,3.02,E,A*24

$GPRMC,101038.80,A,4548.66118,N,00837.72500,E,0.066,,120324,3.02,E,A*26

$GPRMC,101038.90,A,4548.66121,N,00837.72498,E,0.040,,120324,3.02,E,A*29

$GPRMC,101039.00,A,4548.66122,N,00837.72497,E,0.044,,120324,3.02,E,A*29

$GPRMC,101039.10,A,4548.66124,N,00837.72496,E,0.020,,120324,3.02,E,A*2D

$GPRMC,101039.20,A,4548.66128,N,00837.72494,E,0.038,,120324,3.02,E,A*29

$GPRMC,101039.30,A,4548.66130,N,00837.72493,E,0.064,,120324,3.02,E,A*2F

$GPRMC,101039.40,A,4548.66133,N,00837.72492,E,0.046,,120324,3.02,E,A*2A

$GPRMC,101039.50,A,4548.66135,N,00837.72491,E,0.028,,120324,3.02,E,A*26

$GPGST,101039.50,25,4.1,2.4,168,1.6,1.0,1.3*67

$GPTXT,01,01,01,NMEA unknown msg*58

$GPRMC,101039.60,A,4548.66136,N,00837.72490,E,0.068,,120324,3.02,E,A*23

$GPRMC,101039.70,A,4548.66138,N,00837.72489,E,0.048,,120324,3.02,E,A*26

$GPRMC,101039.80,A,4548.66139,N,00837.72487,E,0.029,,120324,3.02,E,A*21

$GPRMC,101039.90,A,4548.66139,N,00837.72487,E,0.072,,120324,3.02,E,A*2E

$GPRMC,101040.00,A,4548.66140,N,00837.72485,E,0.020,,120324,3.02,E,A*22

$GPRMC,101040.10,A,4548.66141,N,00837.72484,E,0.039,,120324,3.02,E,A*2B

$GPRMC,101040.20,A,4548.66141,N,00837.72483,E,0.078,,120324,3.02,E,A*2A

$GPTXT,01,01,01,NMEA unknown msg*58

$GPRMC,101040.30,A,4548.66142,N,00837.72482,E,0.083,,120324,3.02,E,A*2D

$GPRMC,101040.40,A,4548.66142,N,00837.72481,E,0.117,,120324,3.02,E,A*25

$GPRMC,101040.50,A,4548.66143,N,00837.72480,E,0.076,,120324,3.02,E,A*22

$GPGST,101040.50,28,4.2,2.3,168,1.7,0.96,1.3*5F

$GPRMC,101040.60,A,4548.66144,N,00837.72479,E,0.068,,120324,3.02,E,A*2F

$GPRMC,101040.70,A,4548.66145,N,00837.72478,E,0.115,,120324,3.02,E,A*25

$GPRMC,101040.80,A,4548.66146,N,00837.72477,E,0.048,,120324,3.02,E,A*2F

$GPTXT,01,01,01,NMEA unknown msg*58

$GPTXT,01,01,01,NMEA unknown msg*58

$GPRMC,101040.90,A,4548.66146,N,00837.72476,E,0.062,,120324,3.02,E,A*27

$GPRMC,101041.00,A,4548.66148,N,00837.72475,E,0.080,,120324,3.02,E,A*2E

$GPRMC,101041.10,A,4548.66152,N,00837.72474,E,0.056,,120324,3.02,E,A*2E

$GPRMC,101041.20,A,4548.66160,N,00837.72473,E,0.066,,120324,3.02,E,A*28

$GPTXT,01,01,01,NMEA unknown msg*58

$GPRMC,101041.30,A,4548.66168,N,00837.72471,E,0.087,,120324,3.02,E,A*2C

$GPRMC,101041.40,A,4548.66182,N,00837.72469,E,0.286,,120324,3.02,E,A*25

$GPTXT,01,01,01,NMEA unknown msg*58

$GPRMC,101041.50,A,4548.66191,N,00837.72468,E,0.184,,120324,3.02,E,A*26

$GPGST,101041.50,23,4.2,2.2,168,1.6,0.93,1.3*50

$GPRMC,101041.60,A,4548.66201,N,00837.72466,E,0.086,,120324,3.02,E,A*22

$GPRMC,101041.70,A,4548.66210,N,00837.72465,E,0.166,,120324,3.02,E,A*2F

$GPRMC,101041.80,A,4548.66219,N,00837.72464,E,0.292,,120324,3.02,E,A*20

$GPRMC,101041.90,A,4548.66228,N,00837.72463,E,0.178,,120324,3.02,E,A*23

$GPTXT,01,01,01,NMEA unknown msg*58

$GPRMC,101042.00,A,4548.66237,N,00837.72461,E,0.182,,120324,3.02,E,A*20

$GPRMC,101042.10,A,4548.66242,N,00837.72460,E,0.102,,120324,3.02,E,A*2A

$GPRMC,101042.20,A,4548.66248,N,00837.72459,E,0.094,,120324,3.02,E,A*27

$GPRMC,101042.30,A,4548.66252,N,00837.72459,E,0.047,,120324,3.02,E,A*23

$GPRMC,101042.40,A,4548.66255,N,00837.72459,E,0.057,,120324,3.02,E,A*22

$GPRMC,101042.50,A,4548.66257,N,00837.72458,E,0.074,,120324,3.02,E,A*21

$GPGST,101042.50,34,4.0,2.1,167,1.6,0.91,1.4*5E

$GPRMC,101042.60,A,4548.66258,N,00837.72457,E,0.113,,120324,3.02,E,A*22

$GPRMC,101042.70,A,4548.66258,N,00837.72458,E,0.081,,120324,3.02,E,A*26

$GPRMC,101042.80,A,4548.66256,N,00837.72458,E,0.139,,120324,3.02,E,A*25

$GPRMC,101042.90,A,4548.66255,N,00837.72459,E,0.105,,120324,3.02,E,A*29

$GPRMC,101043.00,A,4548.66256,N,00837.72460,E,0.419,,120324,3.02,E,A*20

$GPRMC,101043.10,A,4548.66257,N,00837.72459,E,0.516,,120324,3.02,E,A*24

$GPRMC,101043.20,A,4548.66258,N,00837.72457,E,0.518,,120324,3.02,E,A*28

$GPRMC,101043.30,V,,,,,,,120324,3.02,E,N*25

$GPRMC,101043.40,V,,,,,,,120324,3.02,E,N*22

$GPRMC,101043.50,A,4548.66259,N,00837.72456,E,0.228,,120324,3.02,E,A*2B

$GPGST,101043.50,36,3.9,2.1,167,1.5,0.91,1.4*50

$GPRMC,101043.60,A,4548.66257,N,00837.72457,E,0.262,,120324,3.02,E,A*29

$GPRMC,101043.70,A,4548.66251,N,00837.72458,E,0.248,,120324,3.02,E,A*29

$GPTXT,01,01,01,NMEA unknown msg*58

$GPRMC,101043.80,A,4548.66249,N,00837.72458,E,0.372,,120324,3.02,E,A*27

$GPTXT,01,01,01,NMEA unknown msg*58

$GPRMC,101043.90,A,4548.66248,N,00837.72458,E,0.225,,120324,3.02,E,A*24

$GPRMC,101044.00,A,4548.66251,N,00837.72457,E,0.325,,120324,3.02,E,A*2C

$GPRMC,101044.10,A,4548.66252,N,00837.72457,E,0.241,,120324,3.02,E,A*2D

$GPRMC,101044.20,A,4548.66253,N,00837.72455,E,0.091,,120324,3.02,E,A*22

$GPRMC,101044.30,A,4548.66255,N,00837.72454,E,0.297,,120324,3.02,E,A*20

$GPRMC,101044.40,A,4548.66254,N,00837.72453,E,0.213,,120324,3.02,E,A*2D

$GPRMC,101044.50,A,4548.66254,N,00837.72453,E,0.152,,120324,3.02,E,A*2A

$GPGST,101044.50,34,3.7,2.1,167,1.5,0.90,1.5*5B

$GPRMC,101044.60,A,4548.66256,N,00837.72452,E,0.228,,120324,3.02,E,A*24

$GPRMC,101044.70,A,4548.66256,N,00837.72451,E,0.134,,120324,3.02,E,A*28

$GPRMC,101044.80,A,4548.66254,N,00837.72450,E,0.036,,120324,3.02,E,A*27

$GPRMC,101044.90,A,4548.66254,N,00837.72449,E,0.112,,120324,3.02,E,A*29

$GPRMC,101045.00,A,4548.66255,N,00837.72449,E,0.120,,120324,3.02,E,A*21

$GPRMC,101045.10,A,4548.66257,N,00837.72449,E,0.113,,120324,3.02,E,A*22

$GPRMC,101045.20,A,4548.66260,N,00837.72448,E,0.174,,120324,3.02,E,A*25

$GPRMC,101045.30,A,4548.66263,N,00837.72447,E,0.192,,120324,3.02,E,A*20

$GPTXT,01,01,01,NMEA unknown msg*58

$GPRMC,101045.40,A,4548.66265,N,00837.72447,E,0.080,,120324,3.02,E,A*23

$GPRMC,101045.50,A,4548.66269,N,00837.72445,E,0.163,,120324,3.02,E,A*20

$GPGST,101045.50,17,3.5,2.0,167,1.4,0.86,1.5*5E

$GPRMC,101045.60,A,4548.66269,N,00837.72444,E,0.177,,120324,3.02,E,A*27

$GPTXT,01,01,01,NMEA unknown msg*58

$GPRMC,101045.70,A,4548.66269,N,00837.72444,E,0.180,,120324,3.02,E,A*2E

$GPRMC,101045.80,A,4548.66265,N,00837.72445,E,0.075,,120324,3.02,E,A*27

$GPRMC,101045.90,A,4548.66263,N,00837.72447,E,0.043,,120324,3.02,E,A*27

$GPRMC,101046.00,A,4548.66261,N,00837.72450,E,0.208,,120324,3.02,E,A*24

$GPRMC,101046.10,A,4548.66256,N,00837.72453,E,0.065,,120324,3.02,E,A*2B

$GPRMC,101046.20,A,4548.66251,N,00837.72457,E,0.120,,120324,3.02,E,A*2B

$GPTXT,01,01,01,NMEA unknown msg*58

$GPRMC,101046.30,A,4548.66249,N,00837.72460,E,0.227,,120324,3.02,E,A*23

$GPRMC,101046.40,A,4548.66246,N,00837.72462,E,0.145,,120324,3.02,E,A*2E

$GPRMC,101046.50,A,4548.66245,N,00837.72463,E,0.022,,120324,3.02,E,A*2D

$GPGST,101046.50,16,3.4,1.9,167,1.3,0.82,1.5*54

$GPRMC,101046.60,A,4548.66245,N,00837.72466,E,0.132,,120324,3.02,E,A*2B

$GPRMC,101046.70,A,4548.66246,N,00837.72468,E,0.166,,120324,3.02,E,A*26

$GPRMC,101046.80,A,4548.66249,N,00837.72472,E,0.149,,120324,3.02,E,A*20

$GPRMC,101046.90,A,4548.66251,N,00837.72476,E,0.056,,120324,3.02,E,A*23

$GPRMC,101047.00,A,4548.66253,N,00837.72478,E,0.062,,120324,3.02,E,A*20

$GPRMC,101047.10,A,4548.66255,N,00837.72480,E,0.023,,120324,3.02,E,A*25

$GPTXT,01,01,01,NMEA unknown msg*58

$GPRMC,101047.20,A,4548.66258,N,00837.72481,E,0.058,,120324,3.02,E,A*26

$GPRMC,101047.30,A,4548.66262,N,00837.72482,E,0.038,,120324,3.02,E,A*2B

$GPRMC,101047.40,A,4548.66265,N,00837.72483,E,0.078,,120324,3.02,E,A*2E

$GPRMC,101047.50,A,4548.66268,N,00837.72484,E,0.040,,120324,3.02,E,A*2E

$GPGST,101047.50,16,3.2,1.8,167,1.3,0.78,1.5*57

$GPRMC,101047.60,A,4548.66271,N,00837.72485,E,0.015,,120324,3.02,E,A*24

$GPTXT,01,01,01,NMEA unknown msg*58

$GPRMC,101047.70,A,4548.66273,N,00837.72486,E,0.038,,120324,3.02,E,A*2B

$GPRMC,101047.80,A,4548.66277,N,00837.72486,E,0.073,,120324,3.02,E,A*2F

$GPRMC,101047.90,A,4548.66279,N,00837.72487,E,0.023,,120324,3.02,E,A*24

$GPTXT,01,01,01,NMEA unknown msg*58

$GPRMC,101048.00,A,4548.66282,N,00837.72489,E,0.040,,120324,3.02,E,A*2D

$GPRMC,101048.10,A,4548.66285,N,00837.72490,E,0.029,,120324,3.02,E,A*2C

$GPRMC,101048.20,A,4548.66288,N,00837.72491,E,0.064,,120324,3.02,E,A*2A

$GPRMC,101048.30,A,4548.66291,N,00837.72491,E,0.060,,120324,3.02,E,A*27

$GPRMC,101048.40,A,4548.66294,N,00837.72492,E,0.034,,120324,3.02,E,A*27

$GPRMC,101048.50,A,4548.66297,N,00837.72492,E,0.037,,120324,3.02,E,A*26

$GPGST,101048.50,16,3.1,1.7,166,1.2,0.74,1.5*58

$GPRMC,101048.60,A,4548.66301,N,00837.72493,E,0.055,,120324,3.02,E,A*2E

$GPRMC,101048.70,A,4548.66304,N,00837.72494,E,0.045,,120324,3.02,E,A*2C

$GPRMC,101048.80,A,4548.66307,N,00837.72494,E,0.080,,120324,3.02,E,A*29

$GPTXT,01,01,01,NMEA unknown msg*58

$GPRMC,101048.90,A,4548.66310,N,00837.72494,E,0.021,,120324,3.02,E,A*25

$GPRMC,101049.00,A,4548.66312,N,00837.72495,E,0.012,,120324,3.02,E,A*2E

$GPRMC,101049.10,A,4548.66313,N,00837.72496,E,0.022,,120324,3.02,E,A*2E

$GPRMC,101049.20,A,4548.66314,N,00837.72496,E,0.030,,120324,3.02,E,A*29

$GPRMC,101049.30,A,4548.66315,N,00837.72497,E,0.031,,120324,3.02,E,A*29

$GPRMC,101049.40,A,4548.66316,N,00837.72498,E,0.060,,120324,3.02,E,A*26

$GPRMC,101049.50,A,4548.66317,N,00837.72498,E,0.075,,120324,3.02,E,A*22

$GPGST,101049.50,16,3.0,1.7,166,1.2,0.71,1.5*5D

$GPTXT,01,01,01,NMEA unknown msg*58

$GPRMC,101049.60,A,4548.66317,N,00837.72499,E,0.026,,120324,3.02,E,A*26

$GPRMC,101049.70,A,4548.66317,N,00837.72500,E,0.014,,120324,3.02,E,A*27

$GPRMC,101049.80,A,4548.66317,N,00837.72501,E,0.029,,120324,3.02,E,A*27

$GPRMC,101049.90,A,4548.66317,N,00837.72503,E,0.038,,120324,3.02,E,A*24

$GPRMC,101050.00,A,4548.66317,N,00837.72504,E,0.039,,120324,3.02,E,A*23

$GPRMC,101050.10,A,4548.66317,N,00837.72505,E,0.068,,120324,3.02,E,A*27

$GPRMC,101050.20,A,4548.66316,N,00837.72507,E,0.010,,120324,3.02,E,A*28

$GPRMC,101050.30,A,4548.66314,N,00837.72508,E,0.008,,120324,3.02,E,A*2D

$GPTXT,01,01,01,NMEA unknown msg*58

$GPRMC,101050.40,A,4548.66313,N,00837.72510,E,0.022,,120324,3.02,E,A*2C

$GPRMC,101050.50,A,4548.66312,N,00837.72512,E,0.039,,120324,3.02,E,A*24

$GPGST,101050.50,20,2.9,1.6,166,1.2,0.69,1.5*50

$GPRMC,101050.60,A,4548.66310,N,00837.72513,E,0.035,,120324,3.02,E,A*28

$GPRMC,101050.70,A,4548.66308,N,00837.72514,E,0.058,,120324,3.02,E,A*2C

$GPRMC,101050.80,A,4548.66306,N,00837.72515,E,0.039,,120324,3.02,E,A*2B

$GPRMC,101050.90,A,4548.66305,N,00837.72516,E,0.045,,120324,3.02,E,A*21

$GPRMC,101051.00,A,4548.66303,N,00837.72518,E,0.027,,120324,3.02,E,A*25

$GPTXT,01,01,01,NMEA unknown msg*58

$GPTXT,01,01,01,NMEA unknown msg*58

$GPTXT,01,01,01,NMEA unknown msg*58

$GPRMC,101051.10,A,4548.66301,N,00837.72519,E,0.027,,120324,3.02,E,A*27

$GPRMC,101051.20,A,4548.66299,N,00837.72520,E,0.049,,120324,3.02,E,A*26

$GPRMC,101051.30,A,4548.66297,N,00837.72521,E,0.027,,120324,3.02,E,A*20

$GPRMC,101051.40,A,4548.66295,N,00837.72523,E,0.061,,120324,3.02,E,A*25

$GPRMC,101051.50,A,4548.66293,N,00837.72524,E,0.057,,120324,3.02,E,A*20

$GPGST,101051.50,20,2.8,1.5,166,1.1,0.66,1.4*5E

$GPTXT,01,01,01,NMEA unknown msg*58

$GPRMC,101051.60,A,4548.66291,N,00837.72525,E,0.051,,120324,3.02,E,A*26

$GPRMC,101051.70,A,4548.66291,N,00837.72525,E,0.000,,120324,3.02,E,A*23

$GPRMC,101051.80,A,4548.66288,N,00837.72528,E,0.050,,120324,3.02,E,A*2C

$GPRMC,101051.90,A,4548.66285,N,00837.72532,E,0.074,,120324,3.02,E,A*2D

$GPRMC,101052.00,A,4548.66281,N,00837.72534,E,0.060,,120324,3.02,E,A*20

$GPRMC,101052.10,A,4548.66278,N,00837.72537,E,0.020,,120324,3.02,E,A*20

$GPRMC,101052.20,A,4548.66275,N,00837.72539,E,0.049,,120324,3.02,E,A*2F

$GPTXT,01,01,01,NMEA unknown msg*58

$GPRMC,101052.30,A,4548.66271,N,00837.72542,E,0.022,,120324,3.02,E,A*2B

$GPRMC,101052.40,A,4548.66268,N,00837.72543,E,0.080,,120324,3.02,E,A*2D

$GPRMC,101052.50,A,4548.66265,N,00837.72545,E,0.044,,120324,3.02,E,A*2F

$GPGST,101052.50,21,3.2,3.0,161,1.3,1.2,1.2*60

$GPTXT,01,01,01,NMEA unknown msg*58

$GPRMC,101052.60,A,4548.66263,N,00837.72546,E,0.035,,120324,3.02,E,A*2F

$GPRMC,101052.70,A,4548.66260,N,00837.72547,E,0.027,,120324,3.02,E,A*2F

$GPRMC,101052.80,A,4548.66257,N,00837.72548,E,0.064,,120324,3.02,E,A*2C

$GPRMC,101052.90,A,4548.66254,N,00837.72548,E,0.068,,120324,3.02,E,A*22

$GPRMC,101053.00,A,4548.66251,N,00837.72548,E,0.093,,120324,3.02,E,A*2B

$GPRMC,101053.10,A,4548.66249,N,00837.72549,E,0.154,,120324,3.02,E,A*28

$GPRMC,101053.20,A,4548.66246,N,00837.72549,E,0.084,,120324,3.02,E,A*28

$GPRMC,101053.30,A,4548.66243,N,00837.72549,E,0.086,,120324,3.02,E,A*2E

$GPRMC,101053.40,A,4548.66241,N,00837.72550,E,0.058,,120324,3.02,E,A*20

$GPRMC,101053.50,A,4548.66238,N,00837.72550,E,0.039,,120324,3.02,E,A*28

$GPGST,101053.50,20,3.0,2.6,161,1.2,1.1,1.1*64

$GPRMC,101053.60,A,4548.66235,N,00837.72551,E,0.011,,120324,3.02,E,A*2D

$GPRMC,101053.70,A,4548.66232,N,00837.72551,E,0.128,,120324,3.02,E,A*20

$GPTXT,01,01,01,NMEA unknown msg*58

$GPRMC,101053.80,A,4548.66229,N,00837.72551,E,0.089,,120324,3.02,E,A*2F

$GPRMC,101053.90,A,4548.66226,N,00837.72552,E,0.095,,120324,3.02,E,A*2F

$GPRMC,101054.00,A,4548.66223,N,00837.72553,E,0.074,,120324,3.02,E,A*2A

$GPRMC,101054.10,A,4548.66220,N,00837.72553,E,0.033,,120324,3.02,E,A*2B

$GPRMC,101054.20,A,4548.66218,N,00837.72554,E,0.005,,120324,3.02,E,A*21

$GPRMC,101054.30,A,4548.66216,N,00837.72555,E,0.030,,120324,3.02,E,A*29

$GPRMC,101054.40,A,4548.66215,N,00837.72556,E,0.051,,120324,3.02,E,A*29

$GPRMC,101054.50,A,4548.66213,N,00837.72557,E,0.056,,120324,3.02,E,A*28

$GPGST,101054.50,21,2.9,2.4,161,1.1,0.97,1.1*55

$GPRMC,101054.60,A,4548.66212,N,00837.72558,E,0.082,,120324,3.02,E,A*2C

$GPRMC,101054.70,A,4548.66210,N,00837.72559,E,0.085,,120324,3.02,E,A*29

$GPTXT,01,01,01,NMEA unknown msg*58

$GPRMC,101054.80,A,4548.66209,N,00837.72560,E,0.051,,120324,3.02,E,A*2D

$GPRMC,101054.90,A,4548.66207,N,00837.72561,E,0.066,,120324,3.02,E,A*27

$GPTXT,01,01,01,NMEA unknown msg*58

$GPRMC,101055.00,A,4548.66206,N,00837.72562,E,0.058,,120324,3.02,E,A*20

$GPRMC,101055.10,A,4548.66204,N,00837.72563,E,0.035,,120324,3.02,E,A*29

$GPRMC,101055.20,A,4548.66203,N,00837.72565,E,0.018,,120324,3.02,E,A*24

$GPRMC,101055.30,A,4548.66201,N,00837.72566,E,0.021,,120324,3.02,E,A*2E

$GPRMC,101055.40,A,4548.66200,N,00837.72566,E,0.063,,120324,3.02,E,A*2E

$GPRMC,101055.50,A,4548.66198,N,00837.72567,E,0.056,,120324,3.02,E,A*2A

$GPGST,101055.50,22,2.8,2.2,163,1.1,0.91,1.1*54

$GPTXT,01,01,01,NMEA unknown msg*58

$GPRMC,101055.60,A,4548.66197,N,00837.72567,E,0.012,,120324,3.02,E,A*26

$GPRMC,101055.70,A,4548.66195,N,00837.72568,E,0.046,,120324,3.02,E,A*2B

$GPRMC,101055.80,A,4548.66194,N,00837.72569,E,0.067,,120324,3.02,E,A*27

$GPRMC,101055.90,A,4548.66194,N,00837.72569,E,0.046,,120324,3.02,E,A*25

$GPTXT,01,01,01,NMEA unknown msg*58

$GPRMC,101056.00,A,4548.66193,N,00837.72570,E,0.086,,120324,3.02,E,A*2C

$GPRMC,101056.10,A,4548.66191,N,00837.72570,E,0.078,,120324,3.02,E,A*2E

$GPRMC,101056.20,A,4548.66191,N,00837.72571,E,0.099,,120324,3.02,E,A*23

$GPRMC,101056.30,A,4548.66189,N,00837.72571,E,0.050,,120324,3.02,E,A*2E

$GPTXT,01,01,01,NMEA unknown msg*58

$GPRMC,101056.40,A,4548.66189,N,00837.72572,E,0.105,,120324,3.02,E,A*2B

$GPTXT,01,01,01,NMEA unknown msg*58

$GPRMC,101056.50,A,4548.66188,N,00837.72572,E,0.097,,120324,3.02,E,A*21

$GPGST,101056.50,23,2.8,2.1,164,1.1,0.86,1.1*54

$GPTXT,01,01,01,NMEA unknown msg*58

$GPRMC,101056.60,A,4548.66187,N,00837.72573,E,0.091,,120324,3.02,E,A*2A

$GPRMC,101056.70,A,4548.66186,N,00837.72574,E,0.051,,120324,3.02,E,A*21

$GPRMC,101056.80,A,4548.66185,N,00837.72574,E,0.005,,120324,3.02,E,A*2C

$GPRMC,101056.90,A,4548.66184,N,00837.72574,E,0.041,,120324,3.02,E,A*2C

$GPRMC,101057.00,A,4548.66183,N,00837.72575,E,0.054,,120324,3.02,E,A*26

$GPRMC,101057.10,A,4548.66182,N,00837.72576,E,0.033,,120324,3.02,E,A*24

$GPRMC,101057.20,A,4548.66181,N,00837.72576,E,0.019,,120324,3.02,E,A*2C

$GPRMC,101057.30,A,4548.66180,N,00837.72577,E,0.015,,120324,3.02,E,A*21

$GPRMC,101057.40,A,4548.66179,N,00837.72577,E,0.015,,120324,3.02,E,A*20

$GPRMC,101057.50,A,4548.66177,N,00837.72578,E,0.012,,120324,3.02,E,A*27

$GPGST,101057.50,23,2.7,2.0,165,1.1,0.81,1.2*5E

$GPRMC,101057.60,A,4548.66177,N,00837.72578,E,0.000,,120324,3.02,E,A*27

$GPTXT,01,01,01,NMEA unknown msg*58

$GPRMC,101057.70,A,4548.66177,N,00837.72578,E,0.000,,120324,3.02,E,A*26

$GPRMC,101057.80,A,4548.66176,N,00837.72579,E,0.009,,120324,3.02,E,A*20

$GPRMC,101057.90,A,4548.66175,N,00837.72581,E,0.031,,120324,3.02,E,A*2E

$GPRMC,101058.00,A,4548.66173,N,00837.72582,E,0.017,,120324,3.02,E,A*29

$GPRMC,101058.10,A,4548.66171,N,00837.72583,E,0.011,,120324,3.02,E,A*2D

$GPRMC,101058.20,A,4548.66169,N,00837.72585,E,0.079,,120324,3.02,E,A*2F

$GPTXT,01,01,01,NMEA unknown msg*58

$GPRMC,101058.30,A,4548.66168,N,00837.72586,E,0.022,,120324,3.02,E,A*22

$GPRMC,101058.40,A,4548.66166,N,00837.72587,E,0.021,,120324,3.02,E,A*29

$GPRMC,101058.50,A,4548.66164,N,00837.72588,E,0.039,,120324,3.02,E,A*2C

$GPGST,101058.50,22,3.0,2.8,163,1.2,1.1,1.1*61

$GPRMC,101058.60,A,4548.66162,N,00837.72589,E,0.059,,120324,3.02,E,A*2E

$GPRMC,101058.70,A,4548.66160,N,00837.72590,E,0.054,,120324,3.02,E,A*28

$GPRMC,101058.80,A,4548.66159,N,00837.72591,E,0.125,,120324,3.02,E,A*2B

$GPRMC,101058.90,A,4548.66157,N,00837.72592,E,0.094,,120324,3.02,E,A*2C

$GPRMC,101059.00,A,4548.66155,N,00837.72593,E,0.051,,120324,3.02,E,A*2E

$GPRMC,101059.10,A,4548.66154,N,00837.72593,E,0.035,,120324,3.02,E,A*2C

$GPRMC,101059.20,A,4548.66152,N,00837.72594,E,0.055,,120324,3.02,E,A*28

$GPRMC,101059.30,A,4548.66150,N,00837.72595,E,0.069,,120324,3.02,E,A*25

$GPRMC,101059.40,A,4548.66148,N,00837.72595,E,0.027,,120324,3.02,E,A*21

$GPRMC,101059.50,A,4548.66147,N,00837.72596,E,0.042,,120324,3.02,E,A*2F

$GPGST,101059.50,21,2.8,2.5,162,1.1,1.0,1.0*65

$GPRMC,101059.60,A,4548.66145,N,00837.72596,E,0.103,,120324,3.02,E,A*2A

$GPRMC,101059.70,A,4548.66144,N,00837.72596,E,0.119,,120324,3.02,E,A*21

$GPRMC,101059.80,A,4548.66142,N,00837.72596,E,0.084,,120324,3.02,E,A*2D

$GPRMC,101059.90,A,4548.66141,N,00837.72597,E,0.123,,120324,3.02,E,A*22

$GPRMC,101100.00,A,4548.66139,N,00837.72597,E,0.087,,120324,3.02,E,A*26

$GPRMC,101100.10,A,4548.66137,N,00837.72597,E,0.035,,120324,3.02,E,A*20

$GPRMC,101100.20,A,4548.66134,N,00837.72597,E,0.046,,120324,3.02,E,A*24

$GPRMC,101100.30,A,4548.66132,N,00837.72597,E,0.023,,120324,3.02,E,A*20

$GPRMC,101100.40,A,4548.66130,N,00837.72597,E,0.038,,120324,3.02,E,A*2F

$GPRMC,101100.50,A,4548.66128,N,00837.72597,E,0.054,,120324,3.02,E,A*2D

$GPGST,101100.50,20,2.7,2.3,161,1.1,0.93,1.0*58

$GPRMC,101100.60,A,4548.66126,N,00837.72597,E,0.136,,120324,3.02,E,A*25

$GPRMC,101100.70,A,4548.66124,N,00837.72597,E,0.113,,120324,3.02,E,A*21

$GPRMC,101100.80,A,4548.66121,N,00837.72597,E,0.054,,120324,3.02,E,A*29

$GPRMC,101100.90,A,4548.66119,N,00837.72597,E,0.022,,120324,3.02,E,A*22

$GPRMC,101101.00,A,4548.66117,N,00837.72597,E,0.029,,120324,3.02,E,A*2F

$GPRMC,101101.10,A,4548.66114,N,00837.72597,E,0.047,,120324,3.02,E,A*25

$GPRMC,101101.20,A,4548.66112,N,00837.72597,E,0.044,,120324,3.02,E,A*23

$GPRMC,101101.30,A,4548.66110,N,00837.72597,E,0.032,,120324,3.02,E,A*21

$GPTXT,01,01,01,NMEA unknown msg*58

$GPRMC,101101.40,A,4548.66108,N,00837.72596,E,0.021,,120324,3.02,E,A*2C

$GPRMC,101101.50,A,4548.66106,N,00837.72596,E,0.037,,120324,3.02,E,A*24

$GPGST,101101.50,20,2.6,2.1,161,1.0,0.86,1.0*5F

$GPRMC,101101.60,A,4548.66104,N,00837.72596,E,0.077,,120324,3.02,E,A*21

$GPRMC,101101.70,A,4548.66102,N,00837.72596,E,0.051,,120324,3.02,E,A*22

$GPRMC,101101.80,A,4548.66099,N,00837.72595,E,0.047,,120324,3.02,E,A*2A

$GPRMC,101101.90,A,4548.66097,N,00837.72595,E,0.061,,120324,3.02,E,A*21

$GPRMC,101102.00,A,4548.66095,N,00837.72594,E,0.020,,120324,3.02,E,A*2D

$GPRMC,101102.10,A,4548.66093,N,00837.72594,E,0.059,,120324,3.02,E,A*24

$GPRMC,101102.20,A,4548.66090,N,00837.72593,E,0.029,,120324,3.02,E,A*24

$GPRMC,101102.30,A,4548.66088,N,00837.72593,E,0.042,,120324,3.02,E,A*21

$GPRMC,101102.40,A,4548.66085,N,00837.72593,E,0.047,,120324,3.02,E,A*2E

$GPRMC,101102.50,A,4548.66083,N,00837.72592,E,0.036,,120324,3.02,E,A*2E

$GPGST,101102.50,20,2.5,2.0,161,0.99,0.81,1.0*68

$GPRMC,101102.60,A,4548.66081,N,00837.72592,E,0.034,,120324,3.02,E,A*2D

$GPRMC,101102.70,A,4548.66079,N,00837.72592,E,0.023,,120324,3.02,E,A*2D

$GPRMC,101102.80,A,4548.66076,N,00837.72591,E,0.025,,120324,3.02,E,A*28

$GPRMC,101102.90,A,4548.66074,N,00837.72591,E,0.067,,120324,3.02,E,A*2D

$GPRMC,101103.00,A,4548.66072,N,00837.72590,E,0.018,,120324,3.02,E,A*2A

$GPRMC,101103.10,A,4548.66070,N,00837.72590,E,0.046,,120324,3.02,E,A*22

$GPRMC,101103.20,A,4548.66068,N,00837.72590,E,0.054,,120324,3.02,E,A*2B

$GPRMC,101103.30,A,4548.66066,N,00837.72589,E,0.032,,120324,3.02,E,A*2C

$GPRMC,101103.40,A,4548.66064,N,00837.72589,E,0.036,,120324,3.02,E,A*2D

$GPRMC,101103.50,A,4548.66062,N,00837.72589,E,0.063,,120324,3.02,E,A*2A

$GPGST,101103.50,22,2.5,1.8,161,0.96,0.77,1.0*66

$GPRMC,101103.60,A,4548.66059,N,00837.72589,E,0.021,,120324,3.02,E,A*27

$GPRMC,101103.70,A,4548.66057,N,00837.72589,E,0.017,,120324,3.02,E,A*2D

$GPRMC,101103.80,A,4548.66056,N,00837.72589,E,0.101,,120324,3.02,E,A*25

$GPRMC,101103.90,A,4548.66053,N,00837.72589,E,0.020,,120324,3.02,E,A*23

$GPRMC,101104.00,A,4548.66052,N,00837.72589,E,0.035,,120324,3.02,E,A*28

$GPRMC,101104.10,A,4548.66050,N,00837.72589,E,0.046,,120324,3.02,E,A*2F

$GPRMC,101104.20,A,4548.66048,N,00837.72589,E,0.032,,120324,3.02,E,A*26

$GPRMC,101104.30,A,4548.66046,N,00837.72588,E,0.114,,120324,3.02,E,A*2D

$GPRMC,101104.40,A,4548.66044,N,00837.72587,E,0.254,,120324,3.02,E,A*20

$GPTXT,01,01,01,NMEA unknown msg*58

$GPRMC,101104.50,A,4548.66042,N,00837.72587,E,0.019,,120324,3.02,E,A*2C

$GPGST,101104.50,23,2.4,1.8,161,0.94,0.74,1.1*61

$GPRMC,101104.60,A,4548.66041,N,00837.72587,E,0.155,,120324,3.02,E,A*25

$GPRMC,101104.70,A,4548.66038,N,00837.72587,E,0.132,,120324,3.02,E,A*2B

$GPRMC,101104.80,A,4548.66035,N,00837.72588,E,0.155,,120324,3.02,E,A*27

$GPTXT,01,01,01,NMEA unknown msg*58

$GPRMC,101104.90,A,4548.66034,N,00837.72588,E,0.086,,120324,3.02,E,A*28

$GPRMC,101105.00,A,4548.66031,N,00837.72588,E,0.061,,120324,3.02,E,A*2C

$GPRMC,101105.10,A,4548.66030,N,00837.72589,E,0.104,,120324,3.02,E,A*2F

$GPRMC,101105.20,A,4548.66028,N,00837.72589,E,0.101,,120324,3.02,E,A*20

$GPRMC,101105.30,A,4548.66026,N,00837.72589,E,0.090,,120324,3.02,E,A*26

$GPRMC,101105.40,A,4548.66024,N,00837.72589,E,0.207,,120324,3.02,E,A*2F

$GPRMC,101105.50,A,4548.66023,N,00837.72590,E,0.042,,120324,3.02,E,A*22

$GPGST,101105.50,23,2.4,1.7,160,0.93,0.71,1.1*6C

$GPRMC,101105.60,A,4548.66021,N,00837.72590,E,0.137,,120324,3.02,E,A*20

$GPRMC,101105.70,A,4548.66020,N,00837.72590,E,0.138,,120324,3.02,E,A*2F

$GPRMC,101105.80,A,4548.66019,N,00837.72589,E,0.016,,120324,3.02,E,A*2F

$GPRMC,101105.90,A,4548.66019,N,00837.72589,E,0.071,,120324,3.02,E,A*2F

$GPRMC,101106.00,A,4548.66018,N,00837.72589,E,0.067,,120324,3.02,E,A*23

$GPRMC,101106.10,A,4548.66017,N,00837.72589,E,0.059,,120324,3.02,E,A*20

$GPRMC,101106.20,A,4548.66016,N,00837.72589,E,0.037,,120324,3.02,E,A*2A

$GPTXT,01,01,01,NMEA unknown msg*58

$GPRMC,101106.30,A,4548.66016,N,00837.72589,E,0.117,,120324,3.02,E,A*28

$GPRMC,101106.40,A,4548.66016,N,00837.72589,E,0.103,,120324,3.02,E,A*2A

$GPRMC,101106.50,A,4548.66015,N,00837.72589,E,0.050,,120324,3.02,E,A*2F

$GPGST,101106.50,15,2.4,1.6,160,0.92,0.69,1.1*63

$GPRMC,101106.60,A,4548.66014,N,00837.72589,E,0.051,,120324,3.02,E,A*2C

$GPRMC,101106.70,A,4548.66013,N,00837.72589,E,0.026,,120324,3.02,E,A*2A

$GPRMC,101106.80,A,4548.66012,N,00837.72589,E,0.034,,120324,3.02,E,A*27

$GPRMC,101106.90,A,4548.66011,N,00837.72589,E,0.059,,120324,3.02,E,A*2E

$GPRMC,101107.00,A,4548.66010,N,00837.72589,E,0.045,,120324,3.02,E,A*2A

$GPRMC,101107.10,A,4548.66010,N,00837.72590,E,0.096,,120324,3.02,E,A*2D

$GPRMC,101107.20,A,4548.66010,N,00837.72590,E,0.094,,120324,3.02,E,A*2C

$GPRMC,101107.30,A,4548.66009,N,00837.72590,E,0.093,,120324,3.02,E,A*22

$GPRMC,101107.40,A,4548.66009,N,00837.72591,E,0.090,,120324,3.02,E,A*27

$GPRMC,101107.50,A,4548.66008,N,00837.72591,E,0.087,,120324,3.02,E,A*21

$GPGST,101107.50,14,2.3,1.6,160,0.91,0.67,1.1*69

$GPRMC,101107.60,A,4548.66007,N,00837.72592,E,0.082,,120324,3.02,E,A*2B

$GPRMC,101107.70,A,4548.66007,N,00837.72592,E,0.087,,120324,3.02,E,A*2F

$GPTXT,01,01,01,NMEA unknown msg*58

$GPRMC,101107.80,A,4548.66006,N,00837.72593,E,0.016,,120324,3.02,E,A*28

$GPRMC,101107.90,A,4548.66006,N,00837.72593,E,0.051,,120324,3.02,E,A*2A

$GPRMC,101108.00,A,4548.66005,N,00837.72594,E,0.060,,120324,3.02,E,A*2A

$GPRMC,101108.10,A,4548.66005,N,00837.72594,E,0.021,,120324,3.02,E,A*2E

$GPRMC,101108.20,A,4548.66004,N,00837.72595,E,0.028,,120324,3.02,E,A*24

$GPRMC,101108.30,A,4548.66003,N,00837.72596,E,0.035,,120324,3.02,E,A*2D

$GPTXT,01,01,01,NMEA unknown msg*58

$GPRMC,101108.40,A,4548.66003,N,00837.72596,E,0.034,,120324,3.02,E,A*2B

$GPRMC,101108.50,A,4548.66002,N,00837.72597,E,0.030,,120324,3.02,E,A*2E

$GPGST,101108.50,14,2.3,1.5,160,0.89,0.65,1.1*6E

$GPRMC,101108.60,A,4548.66001,N,00837.72598,E,0.059,,120324,3.02,E,A*2E

$GPTXT,01,01,01,NMEA unknown msg*58

$GPRMC,101108.70,A,4548.66001,N,00837.72598,E,0.040,,120324,3.02,E,A*27

$GPRMC,101108.80,A,4548.66001,N,00837.72599,E,0.033,,120324,3.02,E,A*2D

$GPRMC,101108.90,A,4548.66000,N,00837.72599,E,0.050,,120324,3.02,E,A*28

$GPRMC,101109.00,A,4548.66000,N,00837.72600,E,0.051,,120324,3.02,E,A*22

$GPRMC,101109.10,A,4548.66000,N,00837.72600,E,0.115,,120324,3.02,E,A*22

$GPRMC,101109.20,A,4548.65999,N,00837.72601,E,0.179,,120324,3.02,E,A*20

$GPRMC,101109.30,A,4548.65998,N,00837.72602,E,0.257,,120324,3.02,E,A*2C

$GPRMC,101109.40,A,4548.65996,N,00837.72603,E,0.279,,120324,3.02,E,A*28

$GPRMC,101109.50,A,4548.65995,N,00837.72604,E,0.250,,120324,3.02,E,A*26

$GPGST,101109.50,22,2.3,1.5,161,0.89,0.64,1.1*6A

$GPTXT,01,01,01,NMEA unknown msg*58

$GPRMC,101109.60,A,4548.65995,N,00837.72604,E,0.154,,120324,3.02,E,A*22

$GPRMC,101109.70,A,4548.65994,N,00837.72605,E,0.006,,120324,3.02,E,A*25

$GPRMC,101109.80,A,4548.65994,N,00837.72605,E,0.046,,120324,3.02,E,A*2E

$GPRMC,101109.90,A,4548.65993,N,00837.72606,E,0.083,,120324,3.02,E,A*22

$GPRMC,101110.00,A,4548.65993,N,00837.72607,E,0.074,,120324,3.02,E,A*2A

$GPRMC,101110.10,A,4548.65992,N,00837.72607,E,0.072,,120324,3.02,E,A*2C

$GPRMC,101110.20,A,4548.65992,N,00837.72608,E,0.038,,120324,3.02,E,A*2E

$GPRMC,101110.30,A,4548.65991,N,00837.72608,E,0.045,,120324,3.02,E,A*26

$GPRMC,101110.40,A,4548.65991,N,00837.72609,E,0.172,,120324,3.02,E,A*25

$GPRMC,101110.50,A,4548.65992,N,00837.72609,E,0.261,,120324,3.02,E,A*26

$GPGST,101110.50,37,2.3,1.4,161,0.90,0.63,1.2*6B

$GPRMC,101110.60,A,4548.65992,N,00837.72609,E,0.283,,120324,3.02,E,A*29

$GPRMC,101110.70,A,4548.65990,N,00837.72610,E,0.115,,120324,3.02,E,A*2E

$GPRMC,101110.80,A,4548.65989,N,00837.72611,E,0.021,,120324,3.02,E,A*2E

$GPRMC,101110.90,A,4548.65988,N,00837.72612,E,0.029,,120324,3.02,E,A*25

$GPRMC,101111.00,A,4548.65987,N,00837.72613,E,0.139,,120324,3.02,E,A*23

$GPRMC,101111.10,A,4548.65986,N,00837.72614,E,0.131,,120324,3.02,E,A*2C

$GPRMC,101111.20,A,4548.65986,N,00837.72615,E,0.034,,120324,3.02,E,A*2A

$GPRMC,101111.30,A,4548.65984,N,00837.72616,E,0.165,,120324,3.02,E,A*2F

$GPRMC,101111.40,A,4548.65982,N,00837.72617,E,0.195,,120324,3.02,E,A*20

$GPRMC,101111.50,A,4548.65981,N,00837.72618,E,0.215,,120324,3.02,E,A*26

$GPGST,101111.50,37,2.4,1.4,161,0.92,0.62,1.2*6E

$GPRMC,101111.60,A,4548.65980,N,00837.72619,E,0.157,,120324,3.02,E,A*20

$GPRMC,101111.70,A,4548.65979,N,00837.72620,E,0.114,,120324,3.02,E,A*2A

$GPRMC,101111.80,A,4548.65979,N,00837.72621,E,0.098,,120324,3.02,E,A*21

$GPRMC,101111.90,A,4548.65978,N,00837.72621,E,0.068,,120324,3.02,E,A*2E

$GPTXT,01,01,01,NMEA unknown msg*58

$GPRMC,101112.00,A,4548.65978,N,00837.72622,E,0.196,,120324,3.02,E,A*27

$GPRMC,101112.10,A,4548.65978,N,00837.72623,E,0.167,,120324,3.02,E,A*29

$GPRMC,101112.20,A,4548.65978,N,00837.72623,E,0.212,,120324,3.02,E,A*2B

$GPRMC,101112.30,A,4548.65977,N,00837.72624,E,0.148,,120324,3.02,E,A*2E

$GPTXT,01,01,01,NMEA unknown msg*58

$GPRMC,101112.40,A,4548.65976,N,00837.72624,E,0.045,,120324,3.02,E,A*24

$GPRMC,101112.50,A,4548.65975,N,00837.72625,E,0.091,,120324,3.02,E,A*2E

$GPGST,101112.50,35,2.4,1.4,161,0.92,0.61,1.2*6C

$GPTXT,01,01,01,NMEA unknown msg*58

$GPRMC,101112.60,A,4548.65974,N,00837.72626,E,0.008,,120324,3.02,E,A*2F

$GPRMC,101112.70,A,4548.65973,N,00837.72627,E,0.005,,120324,3.02,E,A*25

$GPRMC,101112.80,A,4548.65972,N,00837.72627,E,0.103,,120324,3.02,E,A*2C

$GPRMC,101112.90,A,4548.65972,N,00837.72627,E,0.165,,120324,3.02,E,A*2D

$GPRMC,101113.00,A,4548.65971,N,00837.72628,E,0.074,,120324,3.02,E,A*28

$GPRMC,101113.10,A,4548.65970,N,00837.72629,E,0.116,,120324,3.02,E,A*2C

$GPRMC,101113.20,A,4548.65969,N,00837.72630,E,0.059,,120324,3.02,E,A*25

$GPRMC,101113.30,A,4548.65968,N,00837.72630,E,0.161,,120324,3.02,E,A*2F

$GPRMC,101113.40,A,4548.65967,N,00837.72631,E,0.116,,120324,3.02,E,A*26

$GPRMC,101113.50,A,4548.65965,N,00837.72632,E,0.136,,120324,3.02,E,A*24

$GPGST,101113.50,39,2.4,1.4,162,0.92,0.60,1.2*63

$GPRMC,101113.60,A,4548.65964,N,00837.72633,E,0.066,,120324,3.02,E,A*23

$GPRMC,101113.70,A,4548.65963,N,00837.72634,E,0.107,,120324,3.02,E,A*24

$GPRMC,101113.80,A,4548.65961,N,00837.72635,E,0.124,,120324,3.02,E,A*29

$GPRMC,101113.90,A,4548.65960,N,00837.72635,E,0.031,,120324,3.02,E,A*2C

$GPRMC,101114.00,A,4548.65960,N,00837.72636,E,0.092,,120324,3.02,E,A*28

$GPRMC,101114.10,A,4548.65958,N,00837.72637,E,0.037,,120324,3.02,E,A*2C

$GPTXT,01,01,01,NMEA unknown msg*58

$GPRMC,101114.20,A,4548.65957,N,00837.72638,E,0.031,,120324,3.02,E,A*29

$GPRMC,101114.30,A,4548.65957,N,00837.72639,E,0.106,,120324,3.02,E,A*2C

$GPRMC,101114.40,A,4548.65955,N,00837.72640,E,0.125,,120324,3.02,E,A*26

$GPRMC,101114.50,A,4548.65954,N,00837.72641,E,0.085,,120324,3.02,E,A*2C

$GPGST,101114.50,40,2.3,1.3,162,0.91,0.59,1.2*63

$GPRMC,101114.60,A,4548.65953,N,00837.72641,E,0.082,,120324,3.02,E,A*2F

$GPRMC,101114.70,A,4548.65952,N,00837.72642,E,0.026,,120324,3.02,E,A*22

$GPRMC,101114.80,A,4548.65951,N,00837.72643,E,0.089,,120324,3.02,E,A*2A

$GPRMC,101114.90,A,4548.65950,N,00837.72644,E,0.062,,120324,3.02,E,A*28

$GPRMC,101115.00,A,4548.65949,N,00837.72644,E,0.128,,120324,3.02,E,A*27

$GPRMC,101115.10,A,4548.65948,N,00837.72644,E,0.040,,120324,3.02,E,A*28

$GPRMC,101115.20,A,4548.65947,N,00837.72646,E,0.119,,120324,3.02,E,A*2B

$GPRMC,101115.30,A,4548.65946,N,00837.72647,E,0.105,,120324,3.02,E,A*27

$GPRMC,101115.40,A,4548.65945,N,00837.72647,E,0.066,,120324,3.02,E,A*27

$GPRMC,101115.50,A,4548.65944,N,00837.72648,E,0.094,,120324,3.02,E,A*25

$GPGST,101115.50,41,2.3,1.3,162,0.91,0.58,1.3*63

$GPRMC,101115.60,A,4548.65943,N,00837.72650,E,0.188,,120324,3.02,E,A*24

$GPTXT,01,01,01,NMEA unknown msg*58

$GPRMC,101115.70,A,4548.65942,N,00837.72650,E,0.071,,120324,3.02,E,A*23

$GPRMC,101115.80,A,4548.65941,N,00837.72651,E,0.035,,120324,3.02,E,A*2E

$GPRMC,101115.90,A,4548.65941,N,00837.72652,E,0.057,,120324,3.02,E,A*28

$GPRMC,101116.00,A,4548.65940,N,00837.72653,E,0.019,,120324,3.02,E,A*28

$GPRMC,101116.10,A,4548.65940,N,00837.72653,E,0.056,,120324,3.02,E,A*22

$GPRMC,101116.20,A,4548.65940,N,00837.72654,E,0.131,,120324,3.02,E,A*26

$GPRMC,101116.30,A,4548.65940,N,00837.72655,E,0.065,,120324,3.02,E,A*26

$GPRMC,101116.40,A,4548.65939,N,00837.72656,E,0.024,,120324,3.02,E,A*29

$GPRMC,101116.50,A,4548.65939,N,00837.72657,E,0.045,,120324,3.02,E,A*2E

$GPGST,101116.50,43,2.3,1.3,162,0.90,0.58,1.3*63

$GPTXT,01,01,01,NMEA unknown msg*58

$GPTXT,01,01,01,NMEA unknown msg*58

$GPRMC,101116.60,A,4548.65938,N,00837.72658,E,0.083,,120324,3.02,E,A*29

$GPRMC,101116.70,A,4548.65937,N,00837.72659,E,0.076,,120324,3.02,E,A*2C

$GPRMC,101116.80,A,4548.65936,N,00837.72660,E,0.094,,120324,3.02,E,A*24

$GPRMC,101116.90,A,4548.65936,N,00837.72661,E,0.060,,120324,3.02,E,A*2F

$GPRMC,101117.00,A,4548.65935,N,00837.72662,E,0.032,,120324,3.02,E,A*20

$GPRMC,101117.10,A,4548.65935,N,00837.72662,E,0.039,,120324,3.02,E,A*2A

$GPRMC,101117.20,A,4548.65934,N,00837.72663,E,0.043,,120324,3.02,E,A*24

$GPRMC,101117.30,A,4548.65934,N,00837.72663,E,0.025,,120324,3.02,E,A*25

$GPRMC,101117.40,A,4548.65933,N,00837.72664,E,0.052,,120324,3.02,E,A*22

$GPTXT,01,01,01,NMEA unknown msg*58

$GPRMC,101117.50,A,4548.65933,N,00837.72665,E,0.088,,120324,3.02,E,A*25

$GPGST,101117.50,41,2.3,1.3,161,0.90,0.57,1.3*6C

$GPRMC,101117.60,A,4548.65933,N,00837.72666,E,0.073,,120324,3.02,E,A*21

$GPTXT,01,01,01,NMEA unknown msg*58

$GPRMC,101117.70,A,4548.65932,N,00837.72666,E,0.055,,120324,3.02,E,A*25

$GPRMC,101117.80,A,4548.65932,N,00837.72667,E,0.054,,120324,3.02,E,A*2A

$GPRMC,101117.90,A,4548.65931,N,00837.72668,E,0.028,,120324,3.02,E,A*2C

$GPRMC,101118.00,A,4548.65930,N,00837.72669,E,0.132,,120324,3.02,E,A*20

$GPRMC,101118.10,A,4548.65929,N,00837.72670,E,0.037,,120324,3.02,E,A*25

$GPRMC,101118.20,A,4548.65929,N,00837.72671,E,0.069,,120324,3.02,E,A*2C

$GPTXT,01,01,01,NMEA unknown msg*58

$GPRMC,101118.30,A,4548.65928,N,00837.72671,E,0.093,,120324,3.02,E,A*29

$GPRMC,101118.40,A,4548.65928,N,00837.72672,E,0.065,,120324,3.02,E,A*24

$GPRMC,101118.50,A,4548.65927,N,00837.72672,E,0.069,,120324,3.02,E,A*26

$GPGST,101118.50,36,2.3,1.3,161,0.90,0.57,1.3*63

$GPRMC,101118.60,A,4548.65927,N,00837.72673,E,0.057,,120324,3.02,E,A*29

$GPRMC,101118.70,A,4548.65927,N,00837.72674,E,0.031,,120324,3.02,E,A*2F

$GPRMC,101118.80,A,4548.65927,N,00837.72674,E,0.167,,120324,3.02,E,A*22

$GPRMC,101118.90,A,4548.65926,N,00837.72675,E,0.158,,120324,3.02,E,A*2F

$GPRMC,101119.00,A,4548.65926,N,00837.72676,E,0.134,,120324,3.02,E,A*2E

$GPRMC,101119.10,A,4548.65926,N,00837.72677,E,0.053,,120324,3.02,E,A*2E

$GPTXT,01,01,01,NMEA unknown msg*58

$GPRMC,101119.20,A,4548.65924,N,00837.72677,E,0.156,,120324,3.02,E,A*2B

$GPRMC,101119.30,A,4548.65924,N,00837.72677,E,0.067,,120324,3.02,E,A*29

$GPRMC,101119.40,A,4548.65924,N,00837.72677,E,0.116,,120324,3.02,E,A*29

$GPTXT,01,01,01,NMEA unknown msg*58

$GPRMC,101119.50,A,4548.65923,N,00837.72678,E,0.148,,120324,3.02,E,A*2B

$GPGST,101119.50,37,2.3,1.3,161,0.90,0.57,1.3*63

$GPRMC,101119.60,A,4548.65921,N,00837.72680,E,0.353,,120324,3.02,E,A*25

$GPRMC,101119.70,A,4548.65921,N,00837.72680,E,0.196,,120324,3.02,E,A*2F

$GPRMC,101119.80,A,4548.65920,N,00837.72681,E,0.104,,120324,3.02,E,A*2B

$GPRMC,101119.90,A,4548.65920,N,00837.72681,E,0.131,,120324,3.02,E,A*2C

$GPRMC,101120.00,A,4548.65919,N,00837.72682,E,0.179,,120324,3.02,E,A*2A

$GPRMC,101120.10,A,4548.65918,N,00837.72683,E,0.073,,120324,3.02,E,A*20

$GPRMC,101120.20,A,4548.65918,N,00837.72684,E,0.152,,120324,3.02,E,A*26

$GPRMC,101120.30,A,4548.65917,N,00837.72684,E,0.174,,120324,3.02,E,A*2C

$GPRMC,101120.40,A,4548.65917,N,00837.72685,E,0.039,,120324,3.02,E,A*22

$GPRMC,101120.50,A,4548.65916,N,00837.72685,E,0.071,,120324,3.02,E,A*2E

$GPGST,101120.50,25,2.3,1.3,161,0.90,0.58,1.4*62

$GPRMC,101120.60,A,4548.65916,N,00837.72686,E,0.098,,120324,3.02,E,A*29

$GPTXT,01,01,01,NMEA unknown msg*58

$GPRMC,101120.70,A,4548.65915,N,00837.72686,E,0.003,,120324,3.02,E,A*29

$GPRMC,101120.80,A,4548.65914,N,00837.72687,E,0.070,,120324,3.02,E,A*22

$GPRMC,101120.90,A,4548.65913,N,00837.72688,E,0.061,,120324,3.02,E,A*2B

$GPRMC,101121.00,A,4548.65913,N,00837.72688,E,0.076,,120324,3.02,E,A*25

$GPRMC,101121.10,A,4548.65912,N,00837.72689,E,0.070,,120324,3.02,E,A*22

$GPRMC,101121.20,A,4548.65911,N,00837.72690,E,0.138,,120324,3.02,E,A*27

$GPRMC,101121.30,A,4548.65911,N,00837.72691,E,0.054,,120324,3.02,E,A*2C

$GPRMC,101121.40,A,4548.65910,N,00837.72691,E,0.028,,120324,3.02,E,A*21

$GPRMC,101121.50,A,4548.65909,N,00837.72692,E,0.059,,120324,3.02,E,A*2D

$GPGST,101121.50,21,2.3,1.3,161,0.90,0.59,1.4*66

$GPRMC,101121.60,A,4548.65908,N,00837.72693,E,0.061,,120324,3.02,E,A*25

$GPRMC,101121.70,A,4548.65907,N,00837.72694,E,0.037,,120324,3.02,E,A*2F

$GPRMC,101121.80,A,4548.65906,N,00837.72695,E,0.103,,120324,3.02,E,A*26

$GPRMC,101121.90,A,4548.65905,N,00837.72695,E,0.060,,120324,3.02,E,A*20

$GPRMC,101122.00,A,4548.65905,N,00837.72696,E,0.142,,120324,3.02,E,A*28

$GPRMC,101122.10,A,4548.65903,N,00837.72697,E,0.086,,120324,3.02,E,A*27

$GPRMC,101122.20,A,4548.65903,N,00837.72698,E,0.064,,120324,3.02,E,A*27

$GPTXT,01,01,01,NMEA unknown msg*58

$GPRMC,101122.30,A,4548.65902,N,00837.72698,E,0.093,,120324,3.02,E,A*2F

$GPRMC,101122.40,A,4548.65901,N,00837.72699,E,0.090,,120324,3.02,E,A*29

$GPRMC,101122.50,A,4548.65900,N,00837.72700,E,0.086,,120324,3.02,E,A*2F

$GPGST,101122.50,19,2.3,1.4,161,0.90,0.60,1.4*63

$GPTXT,01,01,01,NMEA unknown msg*58

$GPRMC,101122.60,A,4548.65899,N,00837.72700,E,0.076,,120324,3.02,E,A*22

$GPRMC,101122.70,A,4548.65898,N,00837.72701,E,0.037,,120324,3.02,E,A*26

$GPRMC,101122.80,A,4548.65897,N,00837.72702,E,0.044,,120324,3.02,E,A*21

$GPRMC,101122.90,A,4548.65896,N,00837.72703,E,0.031,,120324,3.02,E,A*22

$GPRMC,101123.00,A,4548.65895,N,00837.72703,E,0.062,,120324,3.02,E,A*2F

$GPRMC,101123.10,A,4548.65894,N,00837.72704,E,0.049,,120324,3.02,E,A*21

$GPRMC,101123.20,A,4548.65893,N,00837.72705,E,0.075,,120324,3.02,E,A*2B

$GPRMC,101123.30,A,4548.65891,N,00837.72706,E,0.052,,120324,3.02,E,A*2E

$GPRMC,101123.40,A,4548.65890,N,00837.72707,E,0.092,,120324,3.02,E,A*25

$GPRMC,101123.50,A,4548.65889,N,00837.72708,E,0.067,,120324,3.02,E,A*29

