$GPGGA,150623.00,4548.6589839,N,00837.7264414,E,4,12,0.98,212.131,M,48.401,M,,0000*54
$GPGGA,150623.10,4548.6589842,N,00837.7264413,E,4,12,0.98,212.131,M,48.401,M,,0001*5F
$GPGGA,150623.20,4548.6589843,N,00837.7264411,E,4,12,0.98,212.131,M,48.401,M,,0002*5C
$GPGGA,150623.30,4548.6589842,N,00837.7264409,E,4,12,0.98,212.131,M,48.401,M,,0003*54
$GPGGA,150623.40,4548.6589839,N,00837.7264407,E,4,12,0.98,212.132,M,48.401,M,,0004*55
$GPGGA,150623.50,4548.6589835,N,00837.7264407,E,4,12,0.98,212.132,M,48.401,M,,0005*59
$GPGGA,150623.60,4548.6589832,N,00837.7264407,E,4,12,0.98,212.132,M,48.401,M,,0006*5E
$GPGGA,150623.70,4548.6589830,N,00837.7264408,E,4,12,0.98,212.133,M,48.401,M,,0007*52
$GPGGA,150623.80,4548.6589827,N,00837.7264409,E,4,12,0.98,212.133,M,48.401,M,,0008*55
$GPGGA,150623.90,4548.6589825,N,00837.7264411,E,4,12,0.98,212.133,M,48.401,M,,0009*5E
$GPGGA,150624.00,4548.6589824,N,00837.7264411,E,4,12,0.98,212.133,M,48.401,M,,0010*59
$GPGGA,150624.10,4548.6589824,N,00837.7264410,E,4,12,0.98,212.133,M,48.401,M,,0011*58
$GPGGA,150624.20,4548.6589826,N,00837.7264408,E,4,12,0.98,212.133,M,48.401,M,,0012*53
$GPGGA,150624.30,4548.6589828,N,00837.7264406,E,4,12,0.98,212.133,M,48.401,M,,0013*53
$GPGGA,150624.40,4548.6589830,N,00837.7264405,E,4,12,0.98,212.132,M,48.401,M,,0014*58
$GPGGA,150624.50,4548.6589832,N,00837.7264402,E,4,12,0.98,212.132,M,48.401,M,,0015*5D
$GPGGA,150624.60,4548.6589833,N,00837.7264401,E,4,12,0.98,212.132,M,48.401,M,,0016*5F
$GPGGA,150624.70,4548.6589833,N,00837.7264400,E,4,12,0.98,212.132,M,48.401,M,,0017*5E
$GPGGA,150624.80,4548.6589832,N,00837.7264400,E,4,12,0.98,212.131,M,48.401,M,,0018*5C
$GPGGA,150624.90,4548.6589832,N,00837.7264400,E,4,12,0.98,212.131,M,48.401,M,,0019*5C
$GPGGA,150625.00,4548.6589834,N,00837.7264401,E,4,12,0.98,212.131,M,48.401,M,,0020*59
$GPGGA,150625.10,4548.6589833,N,00837.7264402,E,4,12,0.98,212.131,M,48.401,M,,0021*5D
$GPGGA,150625.20,4548.6589833,N,00837.7264403,E,4,12,0.98,212.130,M,48.401,M,,0022*5D
$GPGGA,150625.30,4548.6589834,N,00837.7264403,E,4,12,0.98,212.130,M,48.401,M,,0023*5A
$GPGGA,150625.40,4548.6589837,N,00837.7264403,E,4,12,0.98,212.130,M,48.401,M,,0024*59
$GPGGA,150625.50,4548.6589838,N,00837.7264405,E,4,12,0.98,212.130,M,48.401,M,,0025*50
$GPGGA,150625.60,4548.6589838,N,00837.7264406,E,4,12,0.98,212.130,M,48.401,M,,0026*53
$GPGGA,150625.70,4548.6589837,N,00837.7264408,E,4,12,0.98,212.130,M,48.401,M,,0027*52
$GPGGA,150625.80,4548.6589839,N,00837.7264407,E,4,12,0.98,212.129,M,48.401,M,,0028*5B
$GPGGA,150625.90,4548.6589842,N,00837.7264407,E,4,12,0.98,212.129,M,48.401,M,,0029*57
$GPGGA,150626.00,4548.6589843,N,00837.7264409,E,4,12,0.98,212.129,M,48.401,M,,0030*5A
$GPGGA,150626.10,4548.6589844,N,00837.7264413,E,4,12,0.98,212.129,M,48.401,M,,0031*56
$GPGGA,150626.20,4548.6589844,N,00837.7264412,E,4,12,0.98,212.129,M,48.401,M,,0032*57
$GPGGA,150626.30,4548.6589845,N,00837.7264414,E,4,12,0.98,212.129,M,48.401,M,,0033*50
$GPGGA,150626.40,4548.6589850,N,00837.7264415,E,4,12,0.98,212.129,M,48.401,M,,0034*55
$GPGGA,150626.50,4548.6589853,N,00837.7264414,E,4,12,0.98,212.129,M,48.401,M,,0035*57
$GPGGA,150626.60,4548.6589853,N,00837.7264414,E,4,12,0.98,212.129,M,48.401,M,,0036*57
$GPGGA,150626.70,4548.6589851,N,00837.7264414,E,4,12,0.98,212.129,M,48.401,M,,0037*55
$GPGGA,150626.80,4548.6589847,N,00837.7264415,E,4,12,0.98,212.129,M,48.401,M,,0038*53
$GPGGA,150626.90,4548.6589844,N,00837.7264416,E,4,12,0.98,212.129,M,48.401,M,,0039*53
$GPGGA,150627.00,4548.6589841,N,00837.7264416,E,4,12,0.98,212.129,M,48.401,M,,0040*50
$GPGGA,150627.10,4548.6589840,N,00837.7264416,E,4,12,0.98,212.129,M,48.401,M,,0041*51
$GPGGA,150627.20,4548.6589840,N,00837.7264417,E,4,12,0.98,212.129,M,48.401,M,,0042*50
$GPGGA,150627.30,4548.6589839,N,00837.7264417,E,4,12,0.98,212.129,M,48.401,M,,0043*5E
$GPGGA,150627.40,4548.6589838,N,00837.7264418,E,4,12,0.98,212.129,M,48.401,M,,0044*50
$GPGGA,150627.50,4548.6589839,N,00837.7264417,E,4,12,0.98,212.129,M,48.401,M,,0045*5E
$GPGGA,150627.60,4548.6589840,N,00837.7264415,E,4,12,0.98,212.129,M,48.401,M,,0046*52
$GPGGA,150627.70,4548.6589840,N,00837.7264412,E,4,12,0.98,212.129,M,48.401,M,,0047*55
$GPGGA,150627.80,4548.6589840,N,00837.7264410,E,4,12,0.98,212.129,M,48.401,M,,0048*57
$GPGGA,150627.90,4548.6589839,N,00837.7264409,E,4,12,0.98,212.129,M,48.401,M,,0049*51
$GPGGA,150628.00,4548.6589840,N,00837.7264409,E,4,12,0.98,212.129,M,48.401,M,,0050*51
$GPGGA,150628.10,4548.6589841,N,00837.7264410,E,4,12,0.98,212.129,M,48.401,M,,0051*58
$GPGGA,150628.20,4548.6589842,N,00837.7264412,E,4,12,0.98,212.129,M,48.401,M,,0052*59
$GPGGA,150628.30,4548.6589843,N,00837.7264415,E,4,12,0.98,212.129,M,48.401,M,,0053*5F
$GPGGA,150628.40,4548.6589842,N,00837.7264417,E,4,12,0.98,212.129,M,48.401,M,,0054*5C
$GPGGA,150628.50,4548.6589840,N,00837.7264418,E,4,12,0.98,212.129,M,48.401,M,,0055*51
$GPGGA,150628.60,4548.6589838,N,00837.7264420,E,4,12,0.98,212.129,M,48.401,M,,0056*55
$GPGGA,150628.70,4548.6589837,N,00837.7264421,E,4,12,0.98,212.129,M,48.401,M,,0057*5B
$GPGGA,150628.80,4548.6589836,N,00837.7264423,E,4,12,0.98,212.130,M,48.401,M,,0058*50
$GPGGA,150628.90,4548.6589838,N,00837.7264424,E,4,12,0.98,212.130,M,48.401,M,,0059*59
$GPGGA,150629.00,4548.6589840,N,00837.7264424,E,4,12,0.98,212.130,M,48.401,M,,0060*54
$GPGGA,150629.10,4548.6589840,N,00837.7264424,E,4,12,0.98,212.130,M,48.401,M,,0061*54
$GPGGA,150629.20,4548.6589839,N,00837.7264424,E,4,12,0.98,212.130,M,48.401,M,,0062*5A
$GPGGA,150629.30,4548.6589837,N,00837.7264423,E,4,12,0.98,212.131,M,48.401,M,,0063*52
$GPGGA,150629.40,4548.6589837,N,00837.7264420,E,4,12,0.98,212.131,M,48.401,M,,0064*51
$GPGGA,150629.50,4548.6589837,N,00837.7264419,E,4,12,0.98,212.131,M,48.401,M,,0065*5B
$GPGGA,150629.60,4548.6589835,N,00837.7264418,E,4,12,0.98,212.131,M,48.401,M,,0066*58
$GPGGA,150629.70,4548.6589833,N,00837.7264420,E,4,12,0.98,212.132,M,48.401,M,,0067*56
$GPGGA,150629.80,4548.6589830,N,00837.7264420,E,4,12,0.98,212.132,M,48.401,M,,0068*55
$GPGGA,150629.90,4548.6589830,N,00837.7264421,E,4,12,0.98,212.132,M,48.401,M,,0069*54
$GPGGA,150630.00,4548.6589831,N,00837.7264420,E,4,12,0.98,212.132,M,48.401,M,,0070*5D
$GPGGA,150630.10,4548.6589831,N,00837.7264421,E,4,12,0.98,212.133,M,48.401,M,,0071*5D
$GPGGA,150630.20,4548.6589830,N,00837.7264421,E,4,12,0.98,212.132,M,48.401,M,,0072*5D
$GPGGA,150630.30,4548.6589831,N,00837.7264424,E,4,12,0.98,212.132,M,48.401,M,,0073*59
$GPGGA,150630.40,4548.6589832,N,00837.7264426,E,4,12,0.98,212.132,M,48.401,M,,0074*58
$GPGGA,150630.50,4548.6589833,N,00837.7264428,E,4,12,0.98,212.132,M,48.401,M,,0075*57
$GPGGA,150630.60,4548.6589835,N,00837.7264429,E,4,12,0.98,212.131,M,48.401,M,,0076*53
$GPGGA,150630.70,4548.6589838,N,00837.7264428,E,4,12,0.98,212.131,M,48.401,M,,0077*5F
$GPGGA,150630.80,4548.6589840,N,00837.7264428,E,4,12,0.98,212.131,M,48.401,M,,0078*50
$GPGGA,150630.90,4548.6589842,N,00837.7264428,E,4,12,0.98,212.130,M,48.401,M,,0079*53
$GPGGA,150631.00,4548.6589843,N,00837.7264428,E,4,12,0.98,212.129,M,48.401,M,,0080*54
$GPGGA,150631.10,4548.6589842,N,00837.7264427,E,4,12,0.98,212.129,M,48.401,M,,0081*5A
$GPGGA,150631.20,4548.6589843,N,00837.7264426,E,4,12,0.98,212.128,M,48.401,M,,0082*5B
$GPGGA,150631.30,4548.6589845,N,00837.7264425,E,4,12,0.98,212.128,M,48.401,M,,0083*5E
$GPGGA,150631.40,4548.6589846,N,00837.7264425,E,4,12,0.98,212.127,M,48.401,M,,0084*52
$GPGGA,150631.50,4548.6589847,N,00837.7264425,E,4,12,0.98,212.127,M,48.401,M,,0085*53
$GPGGA,150631.60,4548.6589847,N,00837.7264426,E,4,12,0.98,212.127,M,48.401,M,,0086*50
$GPGGA,150631.70,4548.6589848,N,00837.7264426,E,4,12,0.98,212.127,M,48.401,M,,0087*5F
$GPGGA,150631.80,4548.6589848,N,00837.7264426,E,4,12,0.98,212.126,M,48.401,M,,0088*5E
$GPGGA,150631.90,4548.6589849,N,00837.7264426,E,4,12,0.98,212.126,M,48.401,M,,0089*5F
$GPGGA,150632.00,4548.6589850,N,00837.7264426,E,4,12,0.98,212.125,M,48.401,M,,0090*56
$GPGGA,150632.10,4548.6589850,N,00837.7264426,E,4,12,0.98,212.125,M,48.401,M,,0091*56
$GPGGA,150632.20,4548.6589851,N,00837.7264424,E,4,13,0.94,212.124,M,48.401,M,,0092*59
$GPGGA,150632.30,4548.6589852,N,00837.7264423,E,4,13,0.94,212.124,M,48.401,M,,0093*5D
$GPGGA,150632.40,4548.6589854,N,00837.7264421,E,4,13,0.94,212.123,M,48.401,M,,0094*5E
$GPGGA,150632.50,4548.6589856,N,00837.7264420,E,4,13,0.94,212.123,M,48.401,M,,0095*5D
$GPGGA,150632.60,4548.6589858,N,00837.7264417,E,4,13,0.94,212.123,M,48.401,M,,0096*57
$GPGGA,150632.70,4548.6589859,N,00837.7264415,E,4,13,0.94,212.123,M,48.401,M,,0097*54
$GPGGA,150632.80,4548.6589861,N,00837.7264415,E,4,13,0.94,212.122,M,48.401,M,,0098*5E
$GPGGA,150632.90,4548.6589864,N,00837.7264415,E,4,13,0.94,212.122,M,48.401,M,,0099*5B
$GPGGA,150633.00,4548.6589866,N,00837.7264414,E,4,13,0.94,212.122,M,48.401,M,,0100*51
$GPGGA,150633.10,4548.6589869,N,00837.7264415,E,4,13,0.94,212.122,M,48.401,M,,0101*5F
$GPGGA,150633.20,4548.6589871,N,00837.7264415,E,4,13,0.94,212.122,M,48.401,M,,0102*56
$GPGGA,150633.30,4548.6589872,N,00837.7264416,E,4,13,0.94,212.122,M,48.401,M,,0103*56
$GPGGA,150633.40,4548.6589873,N,00837.7264415,E,4,13,0.94,212.122,M,48.401,M,,0104*54
$GPGGA,150633.50,4548.6589875,N,00837.7264414,E,4,13,0.94,212.122,M,48.401,M,,0105*53
$GPGGA,150633.60,4548.6589878,N,00837.7264414,E,4,13,0.94,212.122,M,48.401,M,,0106*5E
$GPGGA,150633.70,4548.6589880,N,00837.7264414,E,4,13,0.94,212.122,M,48.401,M,,0107*59
$GPGGA,150633.80,4548.6589881,N,00837.7264416,E,4,13,0.94,212.123,M,48.401,M,,0108*5B
$GPGGA,150633.90,4548.6589880,N,00837.7264418,E,4,13,0.94,212.123,M,48.401,M,,0109*54
$GPGGA,150634.00,4548.6589878,N,00837.7264419,E,4,13,0.94,212.123,M,48.401,M,,0110*54
$GPGGA,150634.10,4548.6589876,N,00837.7264418,E,4,13,0.94,212.123,M,48.401,M,,0111*5B
$GPGGA,150634.20,4548.6589874,N,00837.7264418,E,4,13,0.94,212.123,M,48.401,M,,0112*59
$GPGGA,150634.30,4548.6589872,N,00837.7264417,E,4,13,0.94,212.123,M,48.401,M,,0113*50
$GPGGA,150634.40,4548.6589870,N,00837.7264417,E,4,13,0.94,212.123,M,48.401,M,,0114*52
$GPGGA,150634.50,4548.6589870,N,00837.7264418,E,4,13,0.94,212.124,M,48.401,M,,0115*5A
$GPGGA,150634.60,4548.6589870,N,00837.7264417,E,4,13,0.94,212.124,M,48.401,M,,0116*55
$GPGGA,150634.70,4548.6589870,N,00837.7264416,E,4,13,0.94,212.124,M,48.401,M,,0117*54
$GPGGA,150634.80,4548.6589870,N,00837.7264417,E,4,13,0.94,212.124,M,48.401,M,,0118*55
$GPGGA,150634.90,4548.6589867,N,00837.7264419,E,4,13,0.94,212.124,M,48.401,M,,0119*5D
$GPGGA,150635.00,4548.6589863,N,00837.7264421,E,4,13,0.94,212.124,M,48.401,M,,0120*50
$GPGGA,150635.10,4548.6589858,N,00837.7264423,E,4,13,0.94,212.124,M,48.401,M,,0121*5A
$GPGGA,150635.20,4548.6589854,N,00837.7264425,E,4,13,0.94,212.125,M,48.401,M,,0122*51
$GPGGA,150635.30,4548.6589853,N,00837.7264427,E,4,13,0.94,212.125,M,48.401,M,,0123*54
$GPGGA,150635.40,4548.6589853,N,00837.7264427,E,4,13,0.94,212.124,M,48.401,M,,0124*55
$GPGGA,150635.50,4548.6589855,N,00837.7264428,E,4,13,0.94,212.124,M,48.401,M,,0125*5C
$GPGGA,150635.60,4548.6589858,N,00837.7264427,E,4,13,0.94,212.124,M,48.401,M,,0126*5E
$GPGGA,150635.70,4548.6589860,N,00837.7264426,E,4,13,0.94,212.124,M,48.401,M,,0127*54
$GPGGA,150635.80,4548.6589862,N,00837.7264426,E,4,13,0.94,212.124,M,48.401,M,,0128*56
$GPGGA,150635.90,4548.6589866,N,00837.7264426,E,4,13,0.94,212.124,M,48.401,M,,0129*52
$GPGGA,150636.00,4548.6589871,N,00837.7264426,E,4,13,0.94,212.124,M,48.401,M,,0130*56
$GPGGA,150636.10,4548.6589876,N,00837.7264425,E,4,13,0.94,212.124,M,48.401,M,,0131*52
$GPGGA,150636.20,4548.6589881,N,00837.7264427,E,4,13,0.94,212.124,M,48.401,M,,0132*58
$GPGGA,150636.30,4548.6589885,N,00837.7264432,E,4,13,0.94,212.124,M,48.401,M,,0133*58
$GPGGA,150636.40,4548.6589886,N,00837.7264435,E,4,13,0.94,212.124,M,48.401,M,,0134*5C
$GPGGA,150636.50,4548.6589886,N,00837.7264435,E,4,13,0.94,212.123,M,48.401,M,,0135*5B
$GPGGA,150636.60,4548.6589884,N,00837.7264431,E,4,13,0.94,212.123,M,48.401,M,,0136*5D
$GPGGA,150636.70,4548.6589880,N,00837.7264430,E,4,13,0.94,212.123,M,48.401,M,,0137*58
$GPGGA,150636.80,4548.6589874,N,00837.7264429,E,4,13,0.94,212.123,M,48.401,M,,0138*5B
$GPGGA,150636.90,4548.6589869,N,00837.7264428,E,4,13,0.94,212.123,M,48.401,M,,0139*56
$GPGGA,150637.00,4548.6589865,N,00837.7264429,E,4,13,0.94,212.123,M,48.401,M,,0140*5D
$GPGGA,150637.10,4548.6589862,N,00837.7264433,E,4,13,0.94,212.124,M,48.401,M,,0141*56
$GPGGA,150637.20,4548.6589859,N,00837.7264435,E,4,13,0.94,212.124,M,48.401,M,,0142*58
$GPGGA,150637.30,4548.6589854,N,00837.7264434,E,4,13,0.94,212.124,M,48.401,M,,0143*54
$GPGGA,150637.40,4548.6589850,N,00837.7264433,E,4,13,0.94,212.124,M,48.401,M,,0144*57
$GPGGA,150637.50,4548.6589849,N,00837.7264432,E,4,13,0.94,212.124,M,48.401,M,,0145*5E
$GPGGA,150637.60,4548.6589847,N,00837.7264432,E,4,13,0.94,212.124,M,48.401,M,,0146*50
$GPGGA,150637.70,4548.6589847,N,00837.7264433,E,4,13,0.94,212.124,M,48.401,M,,0147*51
$GPGGA,150637.80,4548.6589847,N,00837.7264432,E,4,13,0.94,212.124,M,48.401,M,,0148*50
$GPGGA,150637.90,4548.6589847,N,00837.7264432,E,4,13,0.94,212.124,M,48.401,M,,0149*50
$GPGGA,150638.00,4548.6589845,N,00837.7264432,E,4,13,0.94,212.124,M,48.401,M,,0150*5C
$GPGGA,150638.10,4548.6589842,N,00837.7264429,E,4,13,0.94,212.124,M,48.401,M,,0151*51
$GPGGA,150638.20,4548.6589841,N,00837.7264427,E,4,13,0.94,212.124,M,48.401,M,,0152*5C
$GPGGA,150638.30,4548.6589842,N,00837.7264426,E,4,13,0.94,212.123,M,48.401,M,,0153*59
$GPGGA,150638.40,4548.6589844,N,00837.7264428,E,4,13,0.94,212.123,M,48.401,M,,0154*51
$GPGGA,150638.50,4548.6589845,N,00837.7264429,E,4,13,0.94,212.123,M,48.401,M,,0155*51
$GPGGA,150638.60,4548.6589846,N,00837.7264427,E,4,13,0.94,212.123,M,48.401,M,,0156*5C
$GPGGA,150638.70,4548.6589846,N,00837.7264426,E,4,13,0.94,212.123,M,48.401,M,,0157*5D
$GPGGA,150638.80,4548.6589846,N,00837.7264426,E,4,13,0.94,212.123,M,48.401,M,,0158*5D
$GPGGA,150638.90,4548.6589848,N,00837.7264428,E,4,13,0.94,212.123,M,48.401,M,,0159*5D
$GPGGA,150639.00,4548.6589850,N,00837.7264429,E,4,13,0.94,212.123,M,48.401,M,,0160*57
$GPGGA,150639.10,4548.6589851,N,00837.7264429,E,4,13,0.94,212.123,M,48.401,M,,0161*56
$GPGGA,150639.20,4548.6589853,N,00837.7264429,E,4,13,0.94,212.123,M,48.401,M,,0162*54
$GPGGA,150639.30,4548.6589856,N,00837.7264431,E,4,13,0.94,212.123,M,48.401,M,,0163*58
$GPGGA,150639.40,4548.6589857,N,00837.7264432,E,4,13,0.94,212.123,M,48.401,M,,0164*5A
$GPGGA,150639.50,4548.6589857,N,00837.7264431,E,4,13,0.94,212.123,M,48.401,M,,0165*59
$GPGGA,150639.60,4548.6589855,N,00837.7264431,E,4,13,0.94,212.124,M,48.401,M,,0166*5C
$GPGGA,150639.70,4548.6589854,N,00837.7264432,E,4,12,0.98,212.124,M,48.401,M,,0167*53
$GPGGA,150639.80,4548.6589851,N,00837.7264432,E,4,13,0.94,212.124,M,48.401,M,,0168*5B
$GPGGA,150639.90,4548.6589846,N,00837.7264430,E,4,13,0.94,212.124,M,48.401,M,,0169*5F
$GPGGA,150640.00,4548.6589842,N,00837.7264430,E,4,13,0.94,212.125,M,48.401,M,,0170*55
$GPGGA,150640.10,4548.6589839,N,00837.7264430,E,4,13,0.94,212.125,M,48.401,M,,0171*59
$GPGGA,150640.20,4548.6589837,N,00837.7264427,E,4,13,0.94,212.125,M,48.401,M,,0172*51
$GPGGA,150640.30,4548.6589837,N,00837.7264427,E,4,13,0.94,212.126,M,48.401,M,,0173*52
$GPGGA,150640.40,4548.6589835,N,00837.7264427,E,4,13,0.94,212.126,M,48.401,M,,0174*50
$GPGGA,150640.50,4548.6589831,N,00837.7264430,E,4,13,0.94,212.126,M,48.401,M,,0175*52
$GPGGA,150640.60,4548.6589832,N,00837.7264433,E,4,12,0.98,212.126,M,48.401,M,,0176*5F
$GPGGA,150640.70,4548.6589835,N,00837.7264435,E,4,13,0.94,212.127,M,48.401,M,,0177*52
$GPGGA,150640.80,4548.6589837,N,00837.7264437,E,4,13,0.94,212.127,M,48.401,M,,0178*52
$GPGGA,150640.90,4548.6589836,N,00837.7264436,E,4,13,0.94,212.127,M,48.401,M,,0179*52
$GPGGA,150641.00,4548.6589834,N,00837.7264437,E,4,13,0.94,212.127,M,48.401,M,,0180*5F
$GPGGA,150641.10,4548.6589832,N,00837.7264437,E,4,13,0.94,212.128,M,48.401,M,,0181*56
$GPGGA,150641.20,4548.6589831,N,00837.7264438,E,4,13,0.94,212.128,M,48.401,M,,0182*5A
$GPGGA,150641.30,4548.6589831,N,00837.7264438,E,4,13,0.94,212.129,M,48.401,M,,0183*5B
$GPGGA,150641.40,4548.6589829,N,00837.7264437,E,4,12,0.98,212.129,M,48.401,M,,0184*50
$GPGGA,150641.50,4548.6589827,N,00837.7264438,E,4,13,0.94,212.129,M,48.401,M,,0185*5C
$GPGGA,150641.60,4548.6589824,N,00837.7264438,E,4,12,0.98,212.130,M,48.401,M,,0186*5A
$GPGGA,150641.70,4548.6589819,N,00837.7264437,E,4,13,0.94,212.130,M,48.401,M,,0187*56
$GPGGA,150641.80,4548.6589814,N,00837.7264434,E,4,13,0.94,212.131,M,48.401,M,,0188*59
$GPGGA,150641.90,4548.6589810,N,00837.7264433,E,4,13,0.94,212.131,M,48.401,M,,0189*5A
$GPGGA,150642.00,4548.6589805,N,00837.7264433,E,4,13,0.94,212.131,M,48.401,M,,0190*5C
$GPGGA,150642.10,4548.6589801,N,00837.7264434,E,4,13,0.94,212.131,M,48.401,M,,0191*5F
$GPGGA,150642.20,4548.6589801,N,00837.7264434,E,4,13,0.94,212.131,M,48.401,M,,0192*5F
$GPGGA,150642.30,4548.6589806,N,00837.7264434,E,4,13,0.94,212.131,M,48.401,M,,0193*58
$GPGGA,150642.40,4548.6589816,N,00837.7264433,E,4,13,0.94,212.130,M,48.401,M,,0194*5F
$GPGGA,150642.50,4548.6589824,N,00837.7264436,E,4,13,0.94,212.129,M,48.401,M,,0195*53
$GPGGA,150642.60,4548.6589831,N,00837.7264441,E,4,13,0.94,212.128,M,48.401,M,,0196*56
$GPGGA,150642.70,4548.6589836,N,00837.7264445,E,4,13,0.94,212.127,M,48.401,M,,0197*5A
$GPGGA,150642.80,4548.6589839,N,00837.7264448,E,4,13,0.94,212.127,M,48.401,M,,0198*58
$GPGGA,150642.90,4548.6589840,N,00837.7264449,E,4,13,0.94,212.126,M,48.401,M,,0199*56
$GPGGA,150643.00,4548.6589838,N,00837.7264450,E,4,13,0.94,212.126,M,48.401,M,,0200*5A
$GPGGA,150643.10,4548.6589839,N,00837.7264448,E,4,13,0.94,212.126,M,48.401,M,,0201*52
$GPGGA,150643.20,4548.6589840,N,00837.7264443,E,4,13,0.94,212.126,M,48.401,M,,0202*57
$GPGGA,150643.30,4548.6589838,N,00837.7264436,E,4,13,0.94,212.125,M,48.401,M,,0203*59
$GPGGA,150643.40,4548.6589836,N,00837.7264433,E,4,13,0.94,212.125,M,48.401,M,,0204*52
$GPGGA,150643.50,4548.6589834,N,00837.7264433,E,4,12,0.98,212.126,M,48.401,M,,0205*5E
$GPGGA,150643.60,4548.6589832,N,00837.7264434,E,4,13,0.94,212.126,M,48.401,M,,0206*52
$GPGGA,150643.70,4548.6589832,N,00837.7264435,E,4,13,0.94,212.126,M,48.401,M,,0207*53
$GPGGA,150643.80,4548.6589830,N,00837.7264435,E,4,13,0.94,212.126,M,48.401,M,,0208*51
$GPGGA,150643.90,4548.6589828,N,00837.7264435,E,4,13,0.94,212.127,M,48.401,M,,0209*59
$GPGGA,150644.00,4548.6589823,N,00837.7264434,E,4,13,0.94,212.127,M,48.401,M,,0210*55
$GPGGA,150644.10,4548.6589820,N,00837.7264433,E,4,13,0.94,212.128,M,48.401,M,,0211*5E
$GPGGA,150644.20,4548.6589819,N,00837.7264433,E,4,13,0.94,212.128,M,48.401,M,,0212*54
$GPGGA,150644.30,4548.6589816,N,00837.7264429,E,4,13,0.94,212.129,M,48.401,M,,0213*51
$GPGGA,150644.40,4548.6589814,N,00837.7264428,E,4,13,0.94,212.130,M,48.401,M,,0214*5A
$GPGGA,150644.50,4548.6589809,N,00837.7264429,E,4,13,0.94,212.130,M,48.401,M,,0215*57
$GPGGA,150644.60,4548.6589802,N,00837.7264428,E,4,13,0.94,212.131,M,48.401,M,,0216*5C
$GPGGA,150644.70,4548.6589795,N,00837.7264427,E,4,13,0.94,212.132,M,48.401,M,,0217*51
$GPGGA,150644.80,4548.6589789,N,00837.7264427,E,4,13,0.94,212.134,M,48.401,M,,0218*5A
$GPGGA,150644.90,4548.6589784,N,00837.7264425,E,4,13,0.94,212.135,M,48.401,M,,0219*54
$GPGGA,150645.00,4548.6589779,N,00837.7264422,E,4,13,0.94,212.136,M,48.401,M,,0220*50
$GPGGA,150645.10,4548.6589776,N,00837.7264422,E,4,13,0.94,212.137,M,48.401,M,,0221*5E
$GPGGA,150645.20,4548.6589771,N,00837.7264422,E,4,13,0.94,212.138,M,48.401,M,,0222*56
$GPGGA,150645.30,4548.6589765,N,00837.7264424,E,4,13,0.94,212.139,M,48.401,M,,0223*54
$GPGGA,150645.40,4548.6589762,N,00837.7264426,E,4,13,0.94,212.139,M,48.401,M,,0224*51
$GPGGA,150645.50,4548.6589763,N,00837.7264428,E,4,13,0.94,212.140,M,48.401,M,,0225*50
$GPGGA,150645.60,4548.6589767,N,00837.7264430,E,4,13,0.94,212.140,M,48.401,M,,0226*5D
$GPGGA,150645.70,4548.6589772,N,00837.7264431,E,4,13,0.94,212.140,M,48.401,M,,0227*58
$GPGGA,150645.80,4548.6589775,N,00837.7264432,E,4,13,0.94,212.139,M,48.401,M,,0228*52
$GPGGA,150645.90,4548.6589778,N,00837.7264432,E,4,13,0.94,212.139,M,48.401,M,,0229*5F
$GPGGA,150646.00,4548.6589780,N,00837.7264431,E,4,13,0.94,212.139,M,48.401,M,,0230*59
$GPGGA,150646.10,4548.6589782,N,00837.7264431,E,4,13,0.94,212.138,M,48.401,M,,0231*5A
$GPGGA,150646.20,4548.6589786,N,00837.7264430,E,4,13,0.94,212.138,M,48.401,M,,0232*5F
$GPGGA,150646.30,4548.6589791,N,00837.7264430,E,4,12,0.98,212.137,M,48.401,M,,0233*5B
$GPGGA,150646.40,4548.6589794,N,00837.7264431,E,4,13,0.94,212.136,M,48.401,M,,0234*53
$GPGGA,150646.50,4548.6589796,N,00837.7264434,E,4,13,0.94,212.136,M,48.401,M,,0235*54
$GPGGA,150646.60,4548.6589801,N,00837.7264437,E,4,13,0.94,212.136,M,48.401,M,,0236*56
$GPGGA,150646.70,4548.6589805,N,00837.7264439,E,4,13,0.94,212.135,M,48.401,M,,0237*5F
$GPGGA,150646.80,4548.6589806,N,00837.7264440,E,4,13,0.94,212.135,M,48.401,M,,0238*52
$GPGGA,150646.90,4548.6589804,N,00837.7264438,E,4,13,0.94,212.135,M,48.401,M,,0239*5F
$GPGGA,150647.00,4548.6589803,N,00837.7264437,E,4,13,0.94,212.136,M,48.401,M,,0240*52
$GPGGA,150647.10,4548.6589801,N,00837.7264434,E,4,13,0.94,212.136,M,48.401,M,,0241*53
$GPGGA,150647.20,4548.6589798,N,00837.7264433,E,4,13,0.94,212.136,M,48.401,M,,0242*5B
$GPGGA,150647.30,4548.6589796,N,00837.7264433,E,4,13,0.94,212.136,M,48.401,M,,0243*55
$GPGGA,150647.40,4548.6589794,N,00837.7264434,E,4,13,0.94,212.137,M,48.401,M,,0244*51
$GPGGA,150647.50,4548.6589792,N,00837.7264436,E,4,13,0.94,212.137,M,48.401,M,,0245*55
$GPGGA,150647.60,4548.6589790,N,00837.7264435,E,4,13,0.94,212.138,M,48.401,M,,0246*5B
$GPGGA,150647.70,4548.6589788,N,00837.7264434,E,4,13,0.94,212.138,M,48.401,M,,0247*53
$GPGGA,150647.80,4548.6589786,N,00837.7264435,E,4,13,0.94,212.139,M,48.401,M,,0248*5D
$GPGGA,150647.90,4548.6589781,N,00837.7264435,E,4,13,0.94,212.140,M,48.401,M,,0249*54
$GPGGA,150648.00,4548.6589776,N,00837.7264434,E,4,13,0.94,212.140,M,48.401,M,,0250*53
$GPGGA,150648.10,4548.6589773,N,00837.7264432,E,4,13,0.94,212.141,M,48.401,M,,0251*51
$GPGGA,150648.20,4548.6589773,N,00837.7264431,E,4,13,0.94,212.142,M,48.401,M,,0252*51
$GPGGA,150648.30,4548.6589773,N,00837.7264429,E,4,13,0.94,212.142,M,48.401,M,,0253*58
$GPGGA,150648.40,4548.6589771,N,00837.7264428,E,4,12,0.98,212.143,M,48.401,M,,0254*57
$GPGGA,150648.50,4548.6589768,N,00837.7264427,E,4,13,0.94,212.144,M,48.401,M,,0255*5A
$GPGGA,150648.60,4548.6589768,N,00837.7264429,E,4,13,0.94,212.144,M,48.401,M,,0256*54
$GPGGA,150648.70,4548.6589767,N,00837.7264429,E,4,13,0.94,212.145,M,48.401,M,,0257*5A
$GPGGA,150648.80,4548.6589766,N,00837.7264431,E,4,13,0.94,212.145,M,48.401,M,,0258*52
$GPGGA,150648.90,4548.6589764,N,00837.7264432,E,4,13,0.94,212.146,M,48.401,M,,0259*50
$GPGGA,150649.00,4548.6589763,N,00837.7264432,E,4,13,0.94,212.146,M,48.401,M,,0260*55
$GPGGA,150649.10,4548.6589762,N,00837.7264431,E,4,13,0.94,212.147,M,48.401,M,,0261*56
$GPGGA,150649.20,4548.6589763,N,00837.7264431,E,4,13,0.94,212.147,M,48.401,M,,0262*57
$GPGGA,150649.30,4548.6589763,N,00837.7264430,E,4,12,0.98,212.148,M,48.401,M,,0263*54
$GPGGA,150649.40,4548.6589758,N,00837.7264427,E,4,13,0.94,212.149,M,48.401,M,,0264*56
$GPGGA,150649.50,4548.6589754,N,00837.7264426,E,4,13,0.94,212.149,M,48.401,M,,0265*5B
$GPGGA,150649.60,4548.6589750,N,00837.7264425,E,4,13,0.94,212.150,M,48.401,M,,0266*54
$GPGGA,150649.70,4548.6589746,N,00837.7264424,E,4,13,0.94,212.151,M,48.401,M,,0267*53
$GPGGA,150649.80,4548.6589744,N,00837.7264424,E,4,13,0.94,212.152,M,48.401,M,,0268*52
$GPGGA,150649.90,4548.6589742,N,00837.7264425,E,4,13,0.94,212.153,M,48.401,M,,0269*54
$GPGGA,150650.00,4548.6589742,N,00837.7264427,E,4,13,0.94,212.153,M,48.401,M,,0270*5F
$GPGGA,150650.10,4548.6589738,N,00837.7264430,E,4,13,0.94,212.154,M,48.401,M,,0271*53
$GPGGA,150650.20,4548.6589737,N,00837.7264432,E,4,13,0.94,212.155,M,48.401,M,,0272*5F
$GPGGA,150650.30,4548.6589733,N,00837.7264429,E,4,13,0.94,212.155,M,48.401,M,,0273*51
$GPGGA,150650.40,4548.6589725,N,00837.7264430,E,4,13,0.94,212.156,M,48.401,M,,0274*5D
$GPGGA,150650.50,4548.6589720,N,00837.7264435,E,4,13,0.94,212.157,M,48.401,M,,0275*5C
$GPGGA,150650.60,4548.6589717,N,00837.7264440,E,4,13,0.94,212.157,M,48.401,M,,0276*5A
$GPGGA,150650.70,4548.6589716,N,00837.7264444,E,4,13,0.94,212.157,M,48.401,M,,0277*5F
$GPGGA,150650.80,4548.6589718,N,00837.7264444,E,4,13,0.94,212.158,M,48.401,M,,0278*5E
$GPGGA,150650.90,4548.6589719,N,00837.7264441,E,4,13,0.94,212.158,M,48.401,M,,0279*5A
$GPGGA,150651.00,4548.6589719,N,00837.7264438,E,4,13,0.94,212.158,M,48.401,M,,0280*5A
$GPGGA,150651.10,4548.6589717,N,00837.7264434,E,4,13,0.94,212.158,M,48.401,M,,0281*58
$GPGGA,150651.20,4548.6589716,N,00837.7264434,E,4,13,0.94,212.158,M,48.401,M,,0282*59
$GPGGA,150651.30,4548.6589712,N,00837.7264436,E,4,13,0.94,212.158,M,48.401,M,,0283*5F
$GPGGA,150651.40,4548.6589711,N,00837.7264440,E,4,13,0.94,212.158,M,48.401,M,,0284*5D
$GPGGA,150651.50,4548.6589718,N,00837.7264443,E,4,13,0.94,212.157,M,48.401,M,,0285*58
$GPGGA,150651.60,4548.6589725,N,00837.7264443,E,4,13,0.94,212.156,M,48.401,M,,0286*57
$GPGGA,150651.70,4548.6589732,N,00837.7264443,E,4,13,0.94,212.156,M,48.401,M,,0287*51
$GPGGA,150651.80,4548.6589737,N,00837.7264439,E,4,13,0.94,212.155,M,48.401,M,,0288*5A
$GPGGA,150651.90,4548.6589740,N,00837.7264434,E,4,13,0.94,212.154,M,48.401,M,,0289*56
$GPGGA,150652.00,4548.6589745,N,00837.7264431,E,4,13,0.94,212.153,M,48.401,M,,0290*53
$GPGGA,150652.10,4548.6589744,N,00837.7264426,E,4,13,0.94,212.153,M,48.401,M,,0291*54
$GPGGA,150652.20,4548.6589741,N,00837.7264423,E,4,13,0.94,212.153,M,48.401,M,,0292*54
$GPGGA,150652.30,4548.6589739,N,00837.7264421,E,4,13,0.94,212.153,M,48.401,M,,0293*59
$GPGGA,150652.40,4548.6589738,N,00837.7264420,E,4,13,0.94,212.153,M,48.401,M,,0294*59
$GPGGA,150652.50,4548.6589735,N,00837.7264422,E,4,13,0.94,212.153,M,48.401,M,,0295*56
$GPGGA,150652.60,4548.6589731,N,00837.7264424,E,4,13,0.94,212.153,M,48.401,M,,0296*54
$GPGGA,150652.70,4548.6589732,N,00837.7264425,E,4,13,0.94,212.153,M,48.401,M,,0297*56
$GPGGA,150652.80,4548.6589731,N,00837.7264424,E,4,13,0.94,212.153,M,48.401,M,,0298*54
$GPGGA,150652.90,4548.6589730,N,00837.7264423,E,4,13,0.94,212.153,M,48.401,M,,0299*52
$GPGGA,150653.00,4548.6589729,N,00837.7264421,E,4,13,0.94,212.153,M,48.401,M,,0300*51
$GPGGA,150653.10,4548.6589726,N,00837.7264419,E,4,13,0.94,212.153,M,48.401,M,,0301*55
$GPGGA,150653.20,4548.6589725,N,00837.7264418,E,4,13,0.94,212.153,M,48.401,M,,0302*57
$GPGGA,150653.30,4548.6589726,N,00837.7264416,E,4,13,0.94,212.153,M,48.401,M,,0303*5A
$GPGGA,150653.40,4548.6589726,N,00837.7264416,E,4,13,0.94,212.152,M,48.401,M,,0304*5B
$GPGGA,150653.50,4548.6589726,N,00837.7264416,E,4,13,0.94,212.152,M,48.401,M,,0305*5B
$GPGGA,150653.60,4548.6589730,N,00837.7264417,E,4,13,0.94,212.152,M,48.401,M,,0306*5D
$GPGGA,150653.70,4548.6589737,N,00837.7264419,E,4,13,0.94,212.151,M,48.401,M,,0307*57
$GPGGA,150653.80,4548.6589743,N,00837.7264422,E,4,13,0.94,212.150,M,48.401,M,,0308*5D
$GPGGA,150653.90,4548.6589742,N,00837.7264423,E,4,13,0.94,212.150,M,48.401,M,,0309*5D
$GPGGA,150654.00,4548.6589741,N,00837.7264422,E,4,13,0.94,212.150,M,48.401,M,,0310*59
$GPGGA,150654.10,4548.6589741,N,00837.7264419,E,4,12,0.98,212.150,M,48.401,M,,0311*5C
$GPGGA,150654.20,4548.6589741,N,00837.7264417,E,4,12,0.98,212.150,M,48.401,M,,0312*52
$GPGGA,150654.30,4548.6589746,N,00837.7264418,E,4,13,0.94,212.149,M,48.401,M,,0313*5F
$GPGGA,150654.40,4548.6589746,N,00837.7264421,E,4,13,0.94,212.149,M,48.401,M,,0314*55
$GPGGA,150654.50,4548.6589745,N,00837.7264422,E,4,13,0.94,212.149,M,48.401,M,,0315*55
$GPGGA,150654.60,4548.6589747,N,00837.7264425,E,4,13,0.94,212.149,M,48.401,M,,0316*50
$GPGGA,150654.70,4548.6589750,N,00837.7264427,E,4,13,0.94,212.149,M,48.401,M,,0317*54
$GPGGA,150654.80,4548.6589753,N,00837.7264428,E,4,13,0.94,212.149,M,48.401,M,,0318*58
$GPGGA,150654.90,4548.6589753,N,00837.7264429,E,4,13,0.94,212.149,M,48.401,M,,0319*59
$GPGGA,150655.00,4548.6589753,N,00837.7264430,E,4,13,0.94,212.149,M,48.401,M,,0320*53
$GPGGA,150655.10,4548.6589752,N,00837.7264431,E,4,13,0.94,212.150,M,48.401,M,,0321*5B
$GPGGA,150655.20,4548.6589752,N,00837.7264432,E,4,13,0.94,212.150,M,48.401,M,,0322*58
$GPGGA,150655.30,4548.6589752,N,00837.7264431,E,4,13,0.94,212.150,M,48.401,M,,0323*5B
$GPGGA,150655.40,4548.6589751,N,00837.7264432,E,4,13,0.94,212.151,M,48.401,M,,0324*5A
$GPGGA,150655.50,4548.6589750,N,00837.7264432,E,4,13,0.94,212.151,M,48.401,M,,0325*5B
$GPGGA,150655.60,4548.6589749,N,00837.7264433,E,4,13,0.94,212.152,M,48.401,M,,0326*51
$GPGGA,150655.70,4548.6589746,N,00837.7264430,E,4,13,0.94,212.152,M,48.401,M,,0327*5D
$GPGGA,150655.80,4548.6589743,N,00837.7264430,E,4,13,0.94,212.153,M,48.401,M,,0328*59
$GPGGA,150655.90,4548.6589739,N,00837.7264429,E,4,13,0.94,212.153,M,48.401,M,,0329*5C
$GPGGA,150656.00,4548.6589734,N,00837.7264429,E,4,13,0.94,212.154,M,48.401,M,,0330*54
$GPGGA,150656.10,4548.6589728,N,00837.7264429,E,4,13,0.94,212.154,M,48.401,M,,0331*59
$GPGGA,150656.20,4548.6589724,N,00837.7264430,E,4,13,0.94,212.155,M,48.401,M,,0332*5C
$GPGGA,150656.30,4548.6589724,N,00837.7264433,E,4,13,0.94,212.155,M,48.401,M,,0333*5F
$GPGGA,150656.40,4548.6589725,N,00837.7264434,E,4,13,0.94,212.155,M,48.401,M,,0334*59
$GPGGA,150656.50,4548.6589726,N,00837.7264435,E,4,13,0.94,212.155,M,48.401,M,,0335*5B
$GPGGA,150656.60,4548.6589727,N,00837.7264436,E,4,13,0.94,212.155,M,48.401,M,,0336*59
$GPGGA,150656.70,4548.6589729,N,00837.7264436,E,4,13,0.94,212.154,M,48.401,M,,0337*56
$GPGGA,150656.80,4548.6589731,N,00837.7264435,E,4,13,0.94,212.154,M,48.401,M,,0338*5C
$GPGGA,150656.90,4548.6589732,N,00837.7264434,E,4,13,0.94,212.153,M,48.401,M,,0339*59
$GPGGA,150657.00,4548.6589735,N,00837.7264433,E,4,13,0.94,212.152,M,48.401,M,,0340*5E
$GPGGA,150657.10,4548.6589739,N,00837.7264431,E,4,13,0.94,212.152,M,48.401,M,,0341*50
$GPGGA,150657.20,4548.6589741,N,00837.7264429,E,4,13,0.94,212.151,M,48.401,M,,0342*55
$GPGGA,150657.30,4548.6589746,N,00837.7264428,E,4,13,0.94,212.150,M,48.401,M,,0343*52
$GPGGA,150657.40,4548.6589750,N,00837.7264427,E,4,13,0.94,212.149,M,48.401,M,,0344*52
$GPGGA,150657.50,4548.6589755,N,00837.7264426,E,4,13,0.94,212.148,M,48.401,M,,0345*57
$GPGGA,150657.60,4548.6589759,N,00837.7264425,E,4,13,0.94,212.147,M,48.401,M,,0346*57
$GPGGA,150657.70,4548.6589762,N,00837.7264426,E,4,13,0.94,212.146,M,48.401,M,,0347*5D
$GPGGA,150657.80,4548.6589760,N,00837.7264427,E,4,13,0.94,212.146,M,48.401,M,,0348*5E
$GPGGA,150657.90,4548.6589759,N,00837.7264426,E,4,13,0.94,212.145,M,48.401,M,,0349*56
$GPGGA,150658.00,4548.6589759,N,00837.7264424,E,4,13,0.94,212.145,M,48.401,M,,0350*5A
$GPGGA,150658.10,4548.6589758,N,00837.7264422,E,4,13,0.94,212.145,M,48.401,M,,0351*5D
$GPGGA,150658.20,4548.6589756,N,00837.7264422,E,4,13,0.94,212.145,M,48.401,M,,0352*53
$GPGGA,150658.30,4548.6589753,N,00837.7264421,E,4,13,0.94,212.145,M,48.401,M,,0353*55
$GPGGA,150658.40,4548.6589750,N,00837.7264420,E,4,13,0.94,212.145,M,48.401,M,,0354*57
$GPGGA,150658.50,4548.6589751,N,00837.7264421,E,4,13,0.94,212.145,M,48.401,M,,0355*57
$GPGGA,150658.60,4548.6589753,N,00837.7264422,E,4,13,0.94,212.145,M,48.401,M,,0356*56
$GPGGA,150658.70,4548.6589753,N,00837.7264425,E,4,13,0.94,212.145,M,48.401,M,,0357*51
$GPGGA,150658.80,4548.6589749,N,00837.7264426,E,4,13,0.94,212.145,M,48.401,M,,0358*59
$GPGGA,150658.90,4548.6589747,N,00837.7264427,E,4,13,0.94,212.145,M,48.401,M,,0359*56
$GPGGA,150659.00,4548.6589749,N,00837.7264426,E,4,13,0.94,212.145,M,48.401,M,,0360*5B
$GPGGA,150659.10,4548.6589752,N,00837.7264426,E,4,13,0.94,212.145,M,48.401,M,,0361*51
$GPGGA,150659.20,4548.6589754,N,00837.7264425,E,4,13,0.94,212.145,M,48.401,M,,0362*54
$GPGGA,150659.30,4548.6589754,N,00837.7264425,E,4,13,0.94,212.145,M,48.401,M,,0363*54
$GPGGA,150659.40,4548.6589754,N,00837.7264425,E,4,13,0.94,212.145,M,48.401,M,,0364*54
$GPGGA,150659.50,4548.6589754,N,00837.7264426,E,4,13,0.94,212.144,M,48.401,M,,0365*56
$GPGGA,150659.60,4548.6589755,N,00837.7264425,E,4,13,0.94,212.144,M,48.401,M,,0366*54
$GPGGA,150659.70,4548.6589755,N,00837.7264424,E,4,13,0.94,212.144,M,48.401,M,,0367*55
$GPGGA,150659.80,4548.6589758,N,00837.7264420,E,4,13,0.94,212.144,M,48.401,M,,0368*5C
$GPGGA,150659.90,4548.6589762,N,00837.7264418,E,4,13,0.94,212.143,M,48.401,M,,0369*59
$GPGGA,150700.00,4548.6589766,N,00837.7264418,E,4,13,0.94,212.143,M,48.401,M,,0370*51
$GPGGA,150700.10,4548.6589769,N,00837.7264419,E,4,13,0.94,212.143,M,48.401,M,,0371*5F
$GPGGA,150700.20,4548.6589769,N,00837.7264422,E,4,13,0.94,212.143,M,48.401,M,,0372*57
$GPGGA,150700.30,4548.6589768,N,00837.7264423,E,4,13,0.94,212.143,M,48.401,M,,0373*57
$GPGGA,150700.40,4548.6589765,N,00837.7264423,E,4,13,0.94,212.144,M,48.401,M,,0374*5D
$GPGGA,150700.50,4548.6589761,N,00837.7264422,E,4,13,0.94,212.144,M,48.401,M,,0375*58
$GPGGA,150700.60,4548.6589760,N,00837.7264421,E,4,13,0.94,212.145,M,48.401,M,,0376*5B
$GPGGA,150700.70,4548.6589761,N,00837.7264420,E,4,13,0.94,212.146,M,48.401,M,,0377*58
$GPGGA,150700.80,4548.6589761,N,00837.7264420,E,4,13,0.94,212.146,M,48.401,M,,0378*58
$GPGGA,150700.90,4548.6589758,N,00837.7264424,E,4,13,0.94,212.147,M,48.401,M,,0379*57
$GPGGA,150701.00,4548.6589753,N,00837.7264427,E,4,13,0.94,212.148,M,48.401,M,,0380*5E
$GPGGA,150701.10,4548.6589750,N,00837.7264430,E,4,13,0.94,212.149,M,48.401,M,,0381*5A
$GPGGA,150701.20,4548.6589747,N,00837.7264431,E,4,13,0.94,212.149,M,48.401,M,,0382*5D
$GPGGA,150701.30,4548.6589744,N,00837.7264434,E,4,13,0.94,212.150,M,48.401,M,,0383*53
$GPGGA,150701.40,4548.6589740,N,00837.7264436,E,4,13,0.94,212.151,M,48.401,M,,0384*54
$GPGGA,150701.50,4548.6589739,N,00837.7264438,E,4,13,0.94,212.151,M,48.401,M,,0385*54
$GPGGA,150701.60,4548.6589741,N,00837.7264438,E,4,13,0.94,212.151,M,48.401,M,,0386*5B
$GPGGA,150701.70,4548.6589744,N,00837.7264441,E,4,13,0.94,212.151,M,48.401,M,,0387*50
$GPGGA,150701.80,4548.6589741,N,00837.7264443,E,4,13,0.94,212.151,M,48.401,M,,0388*57
$GPGGA,150701.90,4548.6589737,N,00837.7264444,E,4,13,0.94,212.152,M,48.401,M,,0389*52
$GPGGA,150702.00,4548.6589736,N,00837.7264443,E,4,13,0.94,212.152,M,48.401,M,,0390*56
$GPGGA,150702.10,4548.6589736,N,00837.7264440,E,4,13,0.94,212.151,M,48.401,M,,0391*56
$GPGGA,150702.20,4548.6589739,N,00837.7264437,E,4,13,0.94,212.151,M,48.401,M,,0392*59
$GPGGA,150702.30,4548.6589744,N,00837.7264434,E,4,13,0.94,212.150,M,48.401,M,,0393*51
$GPGGA,150702.40,4548.6589750,N,00837.7264434,E,4,13,0.94,212.149,M,48.401,M,,0394*5C
$GPGGA,150702.50,4548.6589755,N,00837.7264434,E,4,13,0.94,212.149,M,48.401,M,,0395*59
$GPGGA,150702.60,4548.6589757,N,00837.7264435,E,4,13,0.94,212.148,M,48.401,M,,0396*5B
$GPGGA,150702.70,4548.6589757,N,00837.7264435,E,4,13,0.94,212.147,M,48.401,M,,0397*54
$GPGGA,150702.80,4548.6589760,N,00837.7264434,E,4,13,0.94,212.147,M,48.401,M,,0398*51
$GPGGA,150702.90,4548.6589762,N,00837.7264433,E,4,13,0.94,212.146,M,48.401,M,,0399*55
$GPGGA,150703.00,4548.6589762,N,00837.7264431,E,4,13,0.94,212.146,M,48.401,M,,0400*58
$GPGGA,150703.10,4548.6589760,N,00837.7264428,E,4,13,0.94,212.145,M,48.401,M,,0401*51
$GPGGA,150703.20,4548.6589760,N,00837.7264425,E,4,13,0.94,212.145,M,48.401,M,,0402*5C
$GPGGA,150703.30,4548.6589761,N,00837.7264422,E,4,13,0.94,212.145,M,48.401,M,,0403*5A
$GPGGA,150703.40,4548.6589762,N,00837.7264422,E,4,13,0.94,212.144,M,48.401,M,,0404*58
$GPGGA,150703.50,4548.6589763,N,00837.7264424,E,4,13,0.94,212.144,M,48.401,M,,0405*5F
$GPGGA,150703.60,4548.6589764,N,00837.7264425,E,4,13,0.94,212.143,M,48.401,M,,0406*5E
$GPGGA,150703.70,4548.6589767,N,00837.7264427,E,4,13,0.94,212.143,M,48.401,M,,0407*5F
$GPGGA,150703.80,4548.6589768,N,00837.7264427,E,4,13,0.94,212.143,M,48.401,M,,0408*50
$GPGGA,150703.90,4548.6589767,N,00837.7264425,E,4,13,0.94,212.143,M,48.401,M,,0409*5D
$GPGGA,150704.00,4548.6589764,N,00837.7264423,E,4,13,0.94,212.143,M,48.401,M,,0410*5E
$GPGGA,150704.10,4548.6589763,N,00837.7264419,E,4,13,0.94,212.143,M,48.401,M,,0411*50
$GPGGA,150704.20,4548.6589765,N,00837.7264416,E,4,13,0.94,212.142,M,48.401,M,,0412*58
$GPGGA,150704.30,4548.6589766,N,00837.7264413,E,4,13,0.94,212.142,M,48.401,M,,0413*5E
$GPGGA,150704.40,4548.6589766,N,00837.7264416,E,4,13,0.94,212.142,M,48.401,M,,0414*5B
$GPGGA,150704.50,4548.6589763,N,00837.7264418,E,4,13,0.94,212.142,M,48.401,M,,0415*50
$GPGGA,150704.60,4548.6589761,N,00837.7264421,E,4,13,0.94,212.142,M,48.401,M,,0416*58
$GPGGA,150704.70,4548.6589762,N,00837.7264422,E,4,13,0.94,212.142,M,48.401,M,,0417*58
$GPGGA,150704.80,4548.6589764,N,00837.7264421,E,4,13,0.94,212.142,M,48.401,M,,0418*5D
$GPGGA,150704.90,4548.6589766,N,00837.7264421,E,4,13,0.94,212.142,M,48.401,M,,0419*5F
$GPGGA,150705.00,4548.6589765,N,00837.7264419,E,4,13,0.94,212.141,M,48.401,M,,0420*56
$GPGGA,150705.10,4548.6589765,N,00837.7264418,E,4,13,0.94,212.141,M,48.401,M,,0421*57
$GPGGA,150705.20,4548.6589767,N,00837.7264417,E,4,13,0.94,212.141,M,48.401,M,,0422*5A
$GPGGA,150705.30,4548.6589769,N,00837.7264417,E,4,13,0.94,212.141,M,48.401,M,,0423*54
$GPGGA,150705.40,4548.6589770,N,00837.7264418,E,4,13,0.94,212.140,M,48.401,M,,0424*52
$GPGGA,150705.50,4548.6589769,N,00837.7264420,E,4,13,0.94,212.140,M,48.401,M,,0425*51
$GPGGA,150705.60,4548.6589767,N,00837.7264421,E,4,13,0.94,212.140,M,48.401,M,,0426*5E
$GPGGA,150705.70,4548.6589767,N,00837.7264419,E,4,13,0.94,212.140,M,48.401,M,,0427*55
$GPGGA,150705.80,4548.6589769,N,00837.7264418,E,4,13,0.94,212.140,M,48.401,M,,0428*5A
$GPGGA,150705.90,4548.6589771,N,00837.7264416,E,4,13,0.94,212.140,M,48.401,M,,0429*5D
$GPGGA,150706.00,4548.6589772,N,00837.7264415,E,4,13,0.94,212.140,M,48.401,M,,0430*5F
$GPGGA,150706.10,4548.6589772,N,00837.7264415,E,4,13,0.94,212.139,M,48.401,M,,0431*51
$GPGGA,150706.20,4548.6589773,N,00837.7264415,E,4,13,0.94,212.139,M,48.401,M,,0432*50
$GPGGA,150706.30,4548.6589776,N,00837.7264416,E,4,13,0.94,212.139,M,48.401,M,,0433*56
$GPGGA,150706.40,4548.6589778,N,00837.7264415,E,4,13,0.94,212.139,M,48.401,M,,0434*5B
$GPGGA,150706.50,4548.6589777,N,00837.7264416,E,4,13,0.94,212.139,M,48.401,M,,0435*57
$GPGGA,150706.60,4548.6589774,N,00837.7264416,E,4,13,0.94,212.139,M,48.401,M,,0436*54
$GPGGA,150706.70,4548.6589770,N,00837.7264415,E,4,13,0.94,212.139,M,48.401,M,,0437*53
$GPGGA,150706.80,4548.6589767,N,00837.7264413,E,4,13,0.94,212.139,M,48.401,M,,0438*53
$GPGGA,150706.90,4548.6589765,N,00837.7264410,E,4,13,0.94,212.140,M,48.401,M,,0439*5C
$GPGGA,150707.00,4548.6589760,N,00837.7264409,E,4,13,0.94,212.140,M,48.401,M,,0440*57
$GPGGA,150707.10,4548.6589759,N,00837.7264409,E,4,13,0.94,212.140,M,48.401,M,,0441*5D
$GPGGA,150707.20,4548.6589758,N,00837.7264410,E,4,13,0.94,212.140,M,48.401,M,,0442*54
$GPGGA,150707.30,4548.6589756,N,00837.7264411,E,4,13,0.94,212.140,M,48.401,M,,0443*5B
$GPGGA,150707.40,4548.6589756,N,00837.7264412,E,4,13,0.94,212.140,M,48.401,M,,0444*58
$GPGGA,150707.50,4548.6589756,N,00837.7264411,E,4,13,0.94,212.140,M,48.401,M,,0445*5B
$GPGGA,150707.60,4548.6589757,N,00837.7264410,E,4,13,0.94,212.140,M,48.401,M,,0446*5B
$GPGGA,150707.70,4548.6589760,N,00837.7264410,E,4,13,0.94,212.140,M,48.401,M,,0447*5F
$GPGGA,150707.80,4548.6589763,N,00837.7264410,E,4,13,0.94,212.140,M,48.401,M,,0448*5C
$GPGGA,150707.90,4548.6589763,N,00837.7264410,E,4,13,0.94,212.141,M,48.401,M,,0449*5D
$GPGGA,150708.00,4548.6589762,N,00837.7264410,E,4,13,0.94,212.141,M,48.401,M,,0450*52
$GPGGA,150708.10,4548.6589760,N,00837.7264410,E,4,13,0.94,212.141,M,48.401,M,,0451*50
$GPGGA,150708.20,4548.6589759,N,00837.7264411,E,4,13,0.94,212.142,M,48.401,M,,0452*58
$GPGGA,150708.30,4548.6589757,N,00837.7264412,E,4,13,0.94,212.142,M,48.401,M,,0453*55
$GPGGA,150708.40,4548.6589755,N,00837.7264413,E,4,13,0.94,212.143,M,48.401,M,,0454*57
$GPGGA,150708.50,4548.6589752,N,00837.7264415,E,4,13,0.94,212.143,M,48.401,M,,0455*56
$GPGGA,150708.60,4548.6589749,N,00837.7264417,E,4,13,0.94,212.144,M,48.401,M,,0456*59
$GPGGA,150708.70,4548.6589747,N,00837.7264417,E,4,13,0.94,212.145,M,48.401,M,,0457*56
$GPGGA,150708.80,4548.6589744,N,00837.7264418,E,4,13,0.94,212.145,M,48.401,M,,0458*5A
$GPGGA,150708.90,4548.6589741,N,00837.7264417,E,4,13,0.94,212.146,M,48.401,M,,0459*53
$GPGGA,150709.00,4548.6589739,N,00837.7264418,E,4,13,0.94,212.147,M,48.401,M,,0460*50
$GPGGA,150709.10,4548.6589737,N,00837.7264419,E,4,13,0.94,212.147,M,48.401,M,,0461*5F
$GPGGA,150709.20,4548.6589735,N,00837.7264420,E,4,13,0.94,212.148,M,48.401,M,,0462*58
$GPGGA,150709.30,4548.6589734,N,00837.7264420,E,4,13,0.94,212.148,M,48.401,M,,0463*59
$GPGGA,150709.40,4548.6589733,N,00837.7264420,E,4,13,0.94,212.148,M,48.401,M,,0464*5E
$GPGGA,150709.50,4548.6589732,N,00837.7264421,E,4,13,0.94,212.149,M,48.401,M,,0465*5F
$GPGGA,150709.60,4548.6589733,N,00837.7264421,E,4,13,0.94,212.149,M,48.401,M,,0466*5E
$GPGGA,150709.70,4548.6589736,N,00837.7264422,E,4,13,0.94,212.149,M,48.401,M,,0467*58
$GPGGA,150709.80,4548.6589738,N,00837.7264422,E,4,13,0.94,212.149,M,48.401,M,,0468*56
$GPGGA,150709.90,4548.6589738,N,00837.7264424,E,4,13,0.94,212.149,M,48.401,M,,0469*50
$GPGGA,150710.00,4548.6589735,N,00837.7264426,E,4,13,0.94,212.150,M,48.401,M,,0470*5E
$GPGGA,150710.10,4548.6589732,N,00837.7264428,E,4,13,0.94,212.150,M,48.401,M,,0471*57
$GPGGA,150710.20,4548.6589731,N,00837.7264428,E,4,13,0.94,212.150,M,48.401,M,,0472*54
$GPGGA,150710.30,4548.6589730,N,00837.7264428,E,4,13,0.94,212.151,M,48.401,M,,0473*54
$GPGGA,150710.40,4548.6589729,N,00837.7264428,E,4,13,0.94,212.151,M,48.401,M,,0474*5C
$GPGGA,150710.50,4548.6589728,N,00837.7264428,E,4,13,0.94,212.151,M,48.401,M,,0475*5D
$GPGGA,150710.60,4548.6589729,N,00837.7264429,E,4,13,0.94,212.151,M,48.401,M,,0476*5D
$GPGGA,150710.70,4548.6589731,N,00837.7264428,E,4,13,0.94,212.151,M,48.401,M,,0477*55
$GPGGA,150710.80,4548.6589733,N,00837.7264428,E,4,13,0.94,212.151,M,48.401,M,,0478*57
$GPGGA,150710.90,4548.6589737,N,00837.7264430,E,4,13,0.94,212.151,M,48.401,M,,0479*5A
$GPGGA,150711.00,4548.6589738,N,00837.7264433,E,4,13,0.94,212.151,M,48.401,M,,0480*58
$GPGGA,150711.10,4548.6589737,N,00837.7264436,E,4,13,0.94,212.151,M,48.401,M,,0481*52
$GPGGA,150711.20,4548.6589738,N,00837.7264438,E,4,13,0.94,212.151,M,48.401,M,,0482*53
$GPGGA,150711.30,4548.6589738,N,00837.7264439,E,4,13,0.94,212.151,M,48.401,M,,0483*52
$GPGGA,150711.40,4548.6589738,N,00837.7264440,E,4,13,0.94,212.151,M,48.401,M,,0484*5C
$GPGGA,150711.50,4548.6589737,N,00837.7264441,E,4,13,0.94,212.151,M,48.401,M,,0485*52
$GPGGA,150711.60,4548.6589736,N,00837.7264441,E,4,13,0.94,212.151,M,48.401,M,,0486*53
$GPGGA,150711.70,4548.6589735,N,00837.7264441,E,4,13,0.94,212.151,M,48.401,M,,0487*50
$GPGGA,150711.80,4548.6589734,N,00837.7264440,E,4,13,0.94,212.151,M,48.401,M,,0488*50
$GPGGA,150711.90,4548.6589731,N,00837.7264439,E,4,13,0.94,212.152,M,48.401,M,,0489*58
$GPGGA,150712.00,4548.6589727,N,00837.7264439,E,4,13,0.94,212.152,M,48.401,M,,0490*5D
$GPGGA,150712.10,4548.6589725,N,00837.7264439,E,4,13,0.94,212.152,M,48.401,M,,0491*5F
$GPGGA,150712.20,4548.6589724,N,00837.7264442,E,4,13,0.94,212.152,M,48.401,M,,0492*52
$GPGGA,150712.30,4548.6589725,N,00837.7264443,E,4,13,0.94,212.152,M,48.401,M,,0493*52
$GPGGA,150712.40,4548.6589725,N,00837.7264444,E,4,13,0.94,212.152,M,48.401,M,,0494*55
$GPGGA,150712.50,4548.6589726,N,00837.7264445,E,4,13,0.94,212.152,M,48.401,M,,0495*57
$GPGGA,150712.60,4548.6589727,N,00837.7264445,E,4,13,0.94,212.152,M,48.401,M,,0496*56
$GPGGA,150712.70,4548.6589728,N,00837.7264447,E,4,13,0.94,212.152,M,48.401,M,,0497*5B
$GPGGA,150712.80,4548.6589730,N,00837.7264448,E,4,13,0.94,212.151,M,48.401,M,,0498*5E
$GPGGA,150712.90,4548.6589731,N,00837.7264448,E,4,13,0.94,212.151,M,48.401,M,,0499*5F
$GPGGA,150713.00,4548.6589734,N,00837.7264448,E,4,13,0.94,212.151,M,48.401,M,,0500*53
$GPGGA,150713.10,4548.6589737,N,00837.7264446,E,4,13,0.94,212.150,M,48.401,M,,0501*5F
$GPGGA,150713.20,4548.6589740,N,00837.7264446,E,4,13,0.94,212.150,M,48.401,M,,0502*5F
$GPGGA,150713.30,4548.6589742,N,00837.7264445,E,4,13,0.94,212.150,M,48.401,M,,0503*5E
$GPGGA,150713.40,4548.6589742,N,00837.7264445,E,4,13,0.94,212.149,M,48.401,M,,0504*56
$GPGGA,150713.50,4548.6589742,N,00837.7264444,E,4,13,0.94,212.149,M,48.401,M,,0505*57
$GPGGA,150713.60,4548.6589741,N,00837.7264442,E,4,13,0.94,212.149,M,48.401,M,,0506*52
$GPGGA,150713.70,4548.6589740,N,00837.7264439,E,4,13,0.94,212.149,M,48.401,M,,0507*5F
$GPGGA,150713.80,4548.6589740,N,00837.7264438,E,4,13,0.94,212.149,M,48.401,M,,0508*5E
$GPGGA,150713.90,4548.6589741,N,00837.7264438,E,4,13,0.94,212.149,M,48.401,M,,0509*5F
$GPGGA,150714.00,4548.6589741,N,00837.7264439,E,4,13,0.94,212.148,M,48.401,M,,0510*59
$GPGGA,150714.10,4548.6589741,N,00837.7264438,E,4,13,0.94,212.148,M,48.401,M,,0511*58
$GPGGA,150714.20,4548.6589742,N,00837.7264438,E,4,13,0.94,212.148,M,48.401,M,,0512*5B
$GPGGA,150714.30,4548.6589743,N,00837.7264437,E,4,13,0.94,212.148,M,48.401,M,,0513*55
$GPGGA,150714.40,4548.6589745,N,00837.7264437,E,4,13,0.94,212.148,M,48.401,M,,0514*53
$GPGGA,150714.50,4548.6589748,N,00837.7264436,E,4,13,0.94,212.147,M,48.401,M,,0515*50
$GPGGA,150714.60,4548.6589751,N,00837.7264437,E,4,13,0.94,212.147,M,48.401,M,,0516*59
$GPGGA,150714.70,4548.6589753,N,00837.7264437,E,4,13,0.94,212.147,M,48.401,M,,0517*5B
$GPGGA,150714.80,4548.6589754,N,00837.7264436,E,4,13,0.94,212.147,M,48.401,M,,0518*5D
$GPGGA,150714.90,4548.6589755,N,00837.7264436,E,4,13,0.94,212.146,M,48.401,M,,0519*5D
$GPGGA,150715.00,4548.6589754,N,00837.7264435,E,4,13,0.94,212.146,M,48.401,M,,0520*5D
$GPGGA,150715.10,4548.6589755,N,00837.7264434,E,4,13,0.94,212.146,M,48.401,M,,0521*5D
$GPGGA,150715.20,4548.6589756,N,00837.7264433,E,4,13,0.94,212.146,M,48.401,M,,0522*59
$GPGGA,150715.30,4548.6589757,N,00837.7264433,E,4,13,0.94,212.146,M,48.401,M,,0523*58
$GPGGA,150715.40,4548.6589758,N,00837.7264433,E,4,13,0.94,212.146,M,48.401,M,,0524*57
$GPGGA,150715.50,4548.6589759,N,00837.7264432,E,4,13,0.94,212.146,M,48.401,M,,0525*57
$GPGGA,150715.60,4548.6589760,N,00837.7264430,E,4,13,0.94,212.146,M,48.401,M,,0526*5F
$GPGGA,150715.70,4548.6589758,N,00837.7264430,E,4,13,0.94,212.146,M,48.401,M,,0527*54
$GPGGA,150715.80,4548.6589758,N,00837.7264430,E,4,13,0.94,212.146,M,48.401,M,,0528*54
$GPGGA,150715.90,4548.6589755,N,00837.7264430,E,4,13,0.94,212.146,M,48.401,M,,0529*59
$GPGGA,150716.00,4548.6589753,N,00837.7264431,E,4,13,0.94,212.146,M,48.401,M,,0530*5C
$GPGGA,150716.10,4548.6589751,N,00837.7264433,E,4,13,0.94,212.147,M,48.401,M,,0531*5D
$GPGGA,150716.20,4548.6589748,N,00837.7264434,E,4,13,0.94,212.147,M,48.401,M,,0532*52
$GPGGA,150716.30,4548.6589748,N,00837.7264436,E,4,13,0.94,212.147,M,48.401,M,,0533*50
$GPGGA,150716.40,4548.6589749,N,00837.7264437,E,4,13,0.94,212.147,M,48.401,M,,0534*50
$GPGGA,150716.50,4548.6589750,N,00837.7264440,E,4,13,0.94,212.147,M,48.401,M,,0535*58
$GPGGA,150716.60,4548.6589752,N,00837.7264440,E,4,13,0.94,212.147,M,48.401,M,,0536*5A
$GPGGA,150716.70,4548.6589752,N,00837.7264441,E,4,13,0.94,212.147,M,48.401,M,,0537*5B
$GPGGA,150716.80,4548.6589752,N,00837.7264441,E,4,13,0.94,212.147,M,48.401,M,,0538*5B
$GPGGA,150716.90,4548.6589753,N,00837.7264442,E,4,13,0.94,212.147,M,48.401,M,,0539*59
$GPGGA,150717.00,4548.6589753,N,00837.7264441,E,4,13,0.94,212.147,M,48.401,M,,0540*5C
$GPGGA,150717.10,4548.6589753,N,00837.7264442,E,4,13,0.94,212.148,M,48.401,M,,0541*50
$GPGGA,150717.20,4548.6589752,N,00837.7264442,E,4,13,0.94,212.148,M,48.401,M,,0542*51
$GPGGA,150717.30,4548.6589751,N,00837.7264443,E,4,13,0.94,212.148,M,48.401,M,,0543*53
$GPGGA,150717.40,4548.6589750,N,00837.7264445,E,4,13,0.94,212.148,M,48.401,M,,0544*54
$GPGGA,150717.50,4548.6589751,N,00837.7264447,E,4,13,0.94,212.148,M,48.401,M,,0545*57
$GPGGA,150717.60,4548.6589753,N,00837.7264449,E,4,13,0.94,212.148,M,48.401,M,,0546*5B
$GPGGA,150717.70,4548.6589753,N,00837.7264449,E,4,13,0.94,212.148,M,48.401,M,,0547*5B
$GPGGA,150717.80,4548.6589752,N,00837.7264449,E,4,13,0.94,212.148,M,48.401,M,,0548*5A
$GPGGA,150717.90,4548.6589751,N,00837.7264447,E,4,13,0.94,212.148,M,48.401,M,,0549*57
$GPGGA,150718.00,4548.6589754,N,00837.7264444,E,4,13,0.94,212.148,M,48.401,M,,0550*5F
$GPGGA,150718.10,4548.6589757,N,00837.7264444,E,4,13,0.94,212.148,M,48.401,M,,0551*5C
$GPGGA,150718.20,4548.6589757,N,00837.7264444,E,4,13,0.94,212.148,M,48.401,M,,0552*5C
$GPGGA,150718.30,4548.6589755,N,00837.7264444,E,4,13,0.94,212.148,M,48.401,M,,0553*5E
$GPGGA,150718.40,4548.6589754,N,00837.7264444,E,4,13,0.94,212.148,M,48.401,M,,0554*5F
$GPGGA,150718.50,4548.6589754,N,00837.7264445,E,4,13,0.94,212.148,M,48.401,M,,0555*5E
$GPGGA,150718.60,4548.6589753,N,00837.7264446,E,4,13,0.94,212.148,M,48.401,M,,0556*5A
$GPGGA,150718.70,4548.6589752,N,00837.7264447,E,4,13,0.94,212.148,M,48.401,M,,0557*5A
$GPGGA,150718.80,4548.6589751,N,00837.7264449,E,4,13,0.94,212.149,M,48.401,M,,0558*56
$GPGGA,150718.90,4548.6589750,N,00837.7264449,E,4,13,0.94,212.149,M,48.401,M,,0559*57
$GPGGA,150719.00,4548.6589750,N,00837.7264447,E,4,13,0.94,212.149,M,48.401,M,,0560*5B
$GPGGA,150719.10,4548.6589749,N,00837.7264448,E,4,13,0.94,212.149,M,48.401,M,,0561*5C
$GPGGA,150719.20,4548.6589750,N,00837.7264448,E,4,13,0.94,212.149,M,48.401,M,,0562*54
$GPGGA,150719.30,4548.6589750,N,00837.7264449,E,4,13,0.94,212.149,M,48.401,M,,0563*55
$GPGGA,150719.40,4548.6589749,N,00837.7264450,E,4,13,0.94,212.149,M,48.401,M,,0564*55
$GPGGA,150719.50,4548.6589747,N,00837.7264451,E,4,13,0.94,212.149,M,48.401,M,,0565*5A
$GPGGA,150719.60,4548.6589746,N,00837.7264451,E,4,13,0.94,212.149,M,48.401,M,,0566*5B
$GPGGA,150719.70,4548.6589745,N,00837.7264451,E,4,13,0.94,212.150,M,48.401,M,,0567*50
$GPGGA,150719.80,4548.6589745,N,00837.7264449,E,4,13,0.94,212.150,M,48.401,M,,0568*59
$GPGGA,150719.90,4548.6589745,N,00837.7264450,E,4,13,0.94,212.150,M,48.401,M,,0569*51
$GPGGA,150720.00,4548.6589745,N,00837.7264451,E,4,13,0.94,212.150,M,48.401,M,,0570*5B
$GPGGA,150720.10,4548.6589744,N,00837.7264453,E,4,13,0.94,212.150,M,48.401,M,,0571*58
$GPGGA,150720.20,4548.6589742,N,00837.7264454,E,4,13,0.94,212.150,M,48.401,M,,0572*59
$GPGGA,150720.30,4548.6589739,N,00837.7264454,E,4,13,0.94,212.151,M,48.401,M,,0573*54
$GPGGA,150720.40,4548.6589739,N,00837.7264453,E,4,13,0.94,212.151,M,48.401,M,,0574*53
$GPGGA,150720.50,4548.6589740,N,00837.7264452,E,4,13,0.94,212.151,M,48.401,M,,0575*5C
$GPGGA,150720.60,4548.6589739,N,00837.7264452,E,4,13,0.94,212.151,M,48.401,M,,0576*52
$GPGGA,150720.70,4548.6589738,N,00837.7264452,E,4,13,0.94,212.151,M,48.401,M,,0577*53
$GPGGA,150720.80,4548.6589737,N,00837.7264451,E,4,13,0.94,212.151,M,48.401,M,,0578*5F
$GPGGA,150720.90,4548.6589735,N,00837.7264450,E,4,13,0.94,212.151,M,48.401,M,,0579*5C
$GPGGA,150721.00,4548.6589737,N,00837.7264450,E,4,13,0.94,212.151,M,48.401,M,,0580*50
$GPGGA,150721.10,4548.6589739,N,00837.7264450,E,4,13,0.94,212.151,M,48.401,M,,0581*5E
$GPGGA,150721.20,4548.6589739,N,00837.7264452,E,4,13,0.94,212.151,M,48.401,M,,0582*5C
$GPGGA,150721.30,4548.6589739,N,00837.7264451,E,4,13,0.94,212.151,M,48.401,M,,0583*5F
$GPGGA,150721.40,4548.6589739,N,00837.7264451,E,4,13,0.94,212.151,M,48.401,M,,0584*5F
$GPGGA,150721.50,4548.6589740,N,00837.7264451,E,4,13,0.94,212.151,M,48.401,M,,0585*51
$GPGGA,150721.60,4548.6589741,N,00837.7264451,E,4,13,0.94,212.152,M,48.401,M,,0586*53
$GPGGA,150721.70,4548.6589742,N,00837.7264451,E,4,13,0.94,212.152,M,48.401,M,,0587*50
$GPGGA,150721.80,4548.6589741,N,00837.7264451,E,4,13,0.94,212.152,M,48.401,M,,0588*53
$GPGGA,150721.90,4548.6589739,N,00837.7264451,E,4,13,0.94,212.152,M,48.401,M,,0589*5C
$GPGGA,150722.00,4548.6589735,N,00837.7264452,E,4,13,0.94,212.152,M,48.401,M,,0590*51
$GPGGA,150722.10,4548.6589735,N,00837.7264454,E,4,13,0.94,212.152,M,48.401,M,,0591*57
$GPGGA,150722.20,4548.6589734,N,00837.7264455,E,4,13,0.94,212.152,M,48.401,M,,0592*57
$GPGGA,150722.30,4548.6589733,N,00837.7264455,E,4,13,0.94,212.152,M,48.401,M,,0593*50
$GPGGA,150722.40,4548.6589734,N,00837.7264455,E,4,13,0.94,212.152,M,48.401,M,,0594*57
$GPGGA,150722.50,4548.6589735,N,00837.7264456,E,4,13,0.94,212.152,M,48.401,M,,0595*55
$GPGGA,150722.60,4548.6589735,N,00837.7264457,E,4,13,0.94,212.152,M,48.401,M,,0596*54
$GPGGA,150722.70,4548.6589736,N,00837.7264457,E,4,13,0.94,212.152,M,48.401,M,,0597*57
$GPGGA,150722.80,4548.6589736,N,00837.7264458,E,4,13,0.94,212.152,M,48.401,M,,0598*58
$GPGGA,150722.90,4548.6589738,N,00837.7264460,E,4,13,0.94,212.152,M,48.401,M,,0599*5D
$GPGGA,150723.00,4548.6589738,N,00837.7264460,E,4,13,0.94,212.153,M,48.401,M,,0600*57
$GPGGA,150723.10,4548.6589738,N,00837.7264461,E,4,13,0.94,212.153,M,48.401,M,,0601*56
$GPGGA,150723.20,4548.6589739,N,00837.7264461,E,4,13,0.94,212.153,M,48.401,M,,0602*57
$GPGGA,150723.30,4548.6589739,N,00837.7264460,E,4,13,0.94,212.153,M,48.401,M,,0603*56
$GPGGA,150723.40,4548.6589739,N,00837.7264461,E,4,13,0.94,212.153,M,48.401,M,,0604*57
$GPGGA,150723.50,4548.6589739,N,00837.7264462,E,4,13,0.94,212.153,M,48.401,M,,0605*54
$GPGGA,150723.60,4548.6589742,N,00837.7264464,E,4,13,0.94,212.153,M,48.401,M,,0606*5E
$GPGGA,150723.70,4548.6589742,N,00837.7264466,E,4,13,0.94,212.153,M,48.401,M,,0607*5C
$GPGGA,150723.80,4548.6589741,N,00837.7264468,E,4,13,0.94,212.153,M,48.401,M,,0608*51
$GPGGA,150723.90,4548.6589739,N,00837.7264469,E,4,13,0.94,212.153,M,48.401,M,,0609*5F
$GPGGA,150724.00,4548.6589740,N,00837.7264469,E,4,13,0.94,212.153,M,48.401,M,,0610*57
$GPGGA,150724.10,4548.6589741,N,00837.7264467,E,4,13,0.94,212.154,M,48.401,M,,0611*5F
$GPGGA,150724.20,4548.6589741,N,00837.7264466,E,4,13,0.94,212.154,M,48.401,M,,0612*5E
$GPGGA,150724.30,4548.6589741,N,00837.7264468,E,4,13,0.94,212.154,M,48.401,M,,0613*50
$GPGGA,150724.40,4548.6589741,N,00837.7264469,E,4,13,0.94,212.154,M,48.401,M,,0614*51
$GPGGA,150724.50,4548.6589742,N,00837.7264471,E,4,13,0.94,212.154,M,48.401,M,,0615*5B
$GPGGA,150724.60,4548.6589744,N,00837.7264474,E,4,13,0.94,212.154,M,48.401,M,,0616*58
$GPGGA,150724.70,4548.6589747,N,00837.7264476,E,4,13,0.94,212.154,M,48.401,M,,0617*59
$GPGGA,150724.80,4548.6589751,N,00837.7264478,E,4,13,0.94,212.154,M,48.401,M,,0618*50
$GPGGA,150724.90,4548.6589754,N,00837.7264480,E,4,13,0.94,212.154,M,48.401,M,,0619*52
$GPGGA,150725.00,4548.6589757,N,00837.7264482,E,4,13,0.94,212.154,M,48.401,M,,0620*51
$GPGGA,150725.10,4548.6589758,N,00837.7264483,E,4,13,0.94,212.154,M,48.401,M,,0621*5F
$GPGGA,150725.20,4548.6589759,N,00837.7264484,E,4,13,0.94,212.154,M,48.401,M,,0622*59
$GPGGA,150725.30,4548.6589759,N,00837.7264483,E,4,13,0.94,212.154,M,48.401,M,,0623*5E
$GPGGA,150725.40,4548.6589758,N,00837.7264482,E,4,13,0.94,212.154,M,48.401,M,,0624*5E
$GPGGA,150725.50,4548.6589757,N,00837.7264480,E,4,13,0.94,212.154,M,48.401,M,,0625*53
$GPGGA,150725.60,4548.6589754,N,00837.7264479,E,4,13,0.94,212.154,M,48.401,M,,0626*56
$GPGGA,150725.70,4548.6589751,N,00837.7264478,E,4,13,0.94,212.154,M,48.401,M,,0627*52
$GPGGA,150725.80,4548.6589749,N,00837.7264479,E,4,13,0.94,212.154,M,48.401,M,,0628*5A
$GPGGA,150725.90,4548.6589749,N,00837.7264479,E,4,13,0.94,212.154,M,48.401,M,,0629*5A
$GPGGA,150726.00,4548.6589750,N,00837.7264481,E,4,13,0.94,212.154,M,48.401,M,,0630*57
$GPGGA,150726.10,4548.6589751,N,00837.7264482,E,4,13,0.94,212.154,M,48.401,M,,0631*55
$GPGGA,150726.20,4548.6589750,N,00837.7264480,E,4,13,0.94,212.154,M,48.401,M,,0632*56
$GPGGA,150726.30,4548.6589750,N,00837.7264480,E,4,13,0.94,212.154,M,48.401,M,,0633*56
$GPGGA,150726.40,4548.6589750,N,00837.7264480,E,4,13,0.94,212.154,M,48.401,M,,0634*56
$GPGGA,150726.50,4548.6589750,N,00837.7264479,E,4,13,0.94,212.155,M,48.401,M,,0635*51
$GPGGA,150726.60,4548.6589749,N,00837.7264480,E,4,13,0.94,212.155,M,48.401,M,,0636*5F
$GPGGA,150726.70,4548.6589748,N,00837.7264481,E,4,13,0.94,212.155,M,48.401,M,,0637*5F
$GPGGA,150726.80,4548.6589749,N,00837.7264483,E,4,13,0.94,212.155,M,48.401,M,,0638*5C
$GPGGA,150726.90,4548.6589751,N,00837.7264484,E,4,13,0.94,212.155,M,48.401,M,,0639*52
$GPGGA,150727.00,4548.6589753,N,00837.7264484,E,4,13,0.94,212.155,M,48.401,M,,0640*56
$GPGGA,150727.10,4548.6589754,N,00837.7264485,E,4,13,0.94,212.155,M,48.401,M,,0641*50
$GPGGA,150727.20,4548.6589754,N,00837.7264484,E,4,13,0.94,212.155,M,48.401,M,,0642*51
$GPGGA,150727.30,4548.6589752,N,00837.7264482,E,4,13,0.94,212.155,M,48.401,M,,0643*51
$GPGGA,150727.40,4548.6589750,N,00837.7264480,E,4,13,0.94,212.155,M,48.401,M,,0644*51
$GPGGA,150727.50,4548.6589748,N,00837.7264478,E,4,13,0.94,212.156,M,48.401,M,,0645*5C
$GPGGA,150727.60,4548.6589747,N,00837.7264477,E,4,13,0.94,212.156,M,48.401,M,,0646*5C
$GPGGA,150727.70,4548.6589746,N,00837.7264478,E,4,13,0.94,212.156,M,48.401,M,,0647*52
$GPGGA,150727.80,4548.6589745,N,00837.7264478,E,4,13,0.94,212.156,M,48.401,M,,0648*51
$GPGGA,150727.90,4548.6589743,N,00837.7264479,E,4,13,0.94,212.156,M,48.401,M,,0649*56
$GPGGA,150728.00,4548.6589741,N,00837.7264480,E,4,13,0.94,212.156,M,48.401,M,,0650*5C
$GPGGA,150728.10,4548.6589740,N,00837.7264480,E,4,13,0.94,212.156,M,48.401,M,,0651*5D
$GPGGA,150728.20,4548.6589738,N,00837.7264478,E,4,13,0.94,212.156,M,48.401,M,,0652*55
$GPGGA,150728.30,4548.6589736,N,00837.7264477,E,4,13,0.94,212.156,M,48.401,M,,0653*54
$GPGGA,150728.40,4548.6589735,N,00837.7264475,E,4,13,0.94,212.156,M,48.401,M,,0654*55
$GPGGA,150728.50,4548.6589733,N,00837.7264474,E,4,13,0.94,212.156,M,48.401,M,,0655*52
$GPGGA,150728.60,4548.6589732,N,00837.7264474,E,4,13,0.94,212.156,M,48.401,M,,0656*53
$GPGGA,150728.70,4548.6589731,N,00837.7264474,E,4,13,0.94,212.156,M,48.401,M,,0657*50
$GPGGA,150728.80,4548.6589729,N,00837.7264474,E,4,13,0.94,212.156,M,48.401,M,,0658*59
$GPGGA,150728.90,4548.6589728,N,00837.7264474,E,4,13,0.94,212.156,M,48.401,M,,0659*58
$GPGGA,150729.00,4548.6589726,N,00837.7264474,E,4,13,0.94,212.156,M,48.401,M,,0660*54
$GPGGA,150729.10,4548.6589727,N,00837.7264474,E,4,13,0.94,212.156,M,48.401,M,,0661*55
$GPGGA,150729.20,4548.6589727,N,00837.7264475,E,4,13,0.94,212.156,M,48.401,M,,0662*54
$GPGGA,150729.30,4548.6589728,N,00837.7264475,E,4,13,0.94,212.156,M,48.401,M,,0663*5B
$GPGGA,150729.40,4548.6589729,N,00837.7264476,E,4,13,0.94,212.156,M,48.401,M,,0664*59
$GPGGA,150729.50,4548.6589729,N,00837.7264476,E,4,13,0.94,212.156,M,48.401,M,,0665*59
$GPGGA,150729.60,4548.6589727,N,00837.7264475,E,4,13,0.94,212.156,M,48.401,M,,0666*54
$GPGGA,150729.70,4548.6589727,N,00837.7264474,E,4,13,0.94,212.156,M,48.401,M,,0667*55
$GPGGA,150729.80,4548.6589726,N,00837.7264472,E,4,13,0.94,212.156,M,48.401,M,,0668*52
$GPGGA,150729.90,4548.6589726,N,00837.7264471,E,4,13,0.94,212.156,M,48.401,M,,0669*51
$GPGGA,150730.00,4548.6589726,N,00837.7264471,E,4,13,0.94,212.156,M,48.401,M,,0670*58
$GPGGA,150730.10,4548.6589725,N,00837.7264473,E,4,13,0.94,212.156,M,48.401,M,,0671*59
$GPGGA,150730.20,4548.6589725,N,00837.7264475,E,4,13,0.94,212.156,M,48.401,M,,0672*5F
$GPGGA,150730.30,4548.6589726,N,00837.7264478,E,4,13,0.94,212.156,M,48.401,M,,0673*51
$GPGGA,150730.40,4548.6589728,N,00837.7264479,E,4,13,0.94,212.156,M,48.401,M,,0674*5E
$GPGGA,150730.50,4548.6589728,N,00837.7264480,E,4,13,0.94,212.157,M,48.401,M,,0675*59
$GPGGA,150730.60,4548.6589727,N,00837.7264480,E,4,13,0.94,212.157,M,48.401,M,,0676*56
$GPGGA,150730.70,4548.6589724,N,00837.7264481,E,4,13,0.94,212.157,M,48.401,M,,0677*54
$GPGGA,150730.80,4548.6589722,N,00837.7264482,E,4,13,0.94,212.157,M,48.401,M,,0678*51
$GPGGA,150730.90,4548.6589722,N,00837.7264483,E,4,13,0.94,212.157,M,48.401,M,,0679*50
$GPGGA,150731.00,4548.6589724,N,00837.7264485,E,4,13,0.94,212.157,M,48.401,M,,0680*5E
$GPGGA,150731.10,4548.6589727,N,00837.7264487,E,4,13,0.94,212.158,M,48.401,M,,0681*50
$GPGGA,150731.20,4548.6589730,N,00837.7264491,E,4,12,0.97,212.158,M,48.401,M,,0682*53
$GPGGA,150731.30,4548.6589732,N,00837.7264495,E,4,13,0.94,212.158,M,48.401,M,,0683*57
$GPGGA,150731.40,4548.6589734,N,00837.7264498,E,4,13,0.94,212.158,M,48.401,M,,0684*5C
$GPGGA,150731.50,4548.6589736,N,00837.7264499,E,4,13,0.94,212.158,M,48.401,M,,0685*5F
$GPGGA,150731.60,4548.6589739,N,00837.7264500,E,4,13,0.94,212.158,M,48.401,M,,0686*51
$GPGGA,150731.70,4548.6589743,N,00837.7264500,E,4,13,0.94,212.158,M,48.401,M,,0687*5C
$GPGGA,150731.80,4548.6589746,N,00837.7264499,E,4,13,0.94,212.158,M,48.401,M,,0688*58
$GPGGA,150731.90,4548.6589751,N,00837.7264498,E,4,13,0.94,212.158,M,48.401,M,,0689*5F
$GPGGA,150732.00,4548.6589756,N,00837.7264499,E,4,13,0.94,212.158,M,48.401,M,,0690*5B
$GPGGA,150732.10,4548.6589761,N,00837.7264498,E,4,13,0.94,212.158,M,48.401,M,,0691*5E
$GPGGA,150732.20,4548.6589766,N,00837.7264499,E,4,13,0.94,212.158,M,48.401,M,,0692*58
$GPGGA,150732.30,4548.6589767,N,00837.7264503,E,4,13,0.94,212.158,M,48.401,M,,0693*5B
$GPGGA,150732.40,4548.6589767,N,00837.7264505,E,4,13,0.94,212.158,M,48.401,M,,0694*5D
$GPGGA,150732.50,4548.6589767,N,00837.7264507,E,4,13,0.94,212.158,M,48.401,M,,0695*5F
$GPGGA,150732.60,4548.6589768,N,00837.7264508,E,4,13,0.94,212.159,M,48.401,M,,0696*5E
