Fix,Provider,LatitudeDegrees,LongitudeDegrees,AltitudeMeters,SpeedMps,AccuracyMeters,BearingDegrees,UnixTimeMillis,SpeedAccuracyMps,BearingAccuracyDegrees,elapsedRealtimeNanos,VerticalAccuracyMeters,MockLocation,NumberOfUsedSignals,VerticalSpeedAccuracyMps,SolutionType

Fix,GPS,45.8108918100,8.6285901000,269.4442138671875,0.0,10.14052,,1710169774000,0.086023256,,33060508563703,8.116067,0,,,
Fix,GPS,45.8108891400,8.6285887600,269.8035888671875,0.0,8.553414,,1710169775000,0.086023256,,33061507732244,7.0344267,0,,,
Fix,GPS,45.8108932400,8.6285954600,270.1282958984375,0.0,7.8400393,,1710169776000,0.086023256,,33062505391567,6.3925643,0,,,
Fix,GPS,45.8108965600,8.6285972200,269.670654296875,0.0,7.32908,,1710169777000,0.086023256,,33063516271462,6.03041,0,,,
Fix,GPS,45.8109037400,8.6286059600,268.8121337890625,0.0,6.850428,,1710169778000,0.086023256,,33064517263233,5.800147,0,,,
Fix,GPS,45.8109060200,8.6286102800,267.9296875,0.15,6.66667,274.7,1710169779000,1.1473883,96.251396,33065519082712,5.5225973,0,,,
Fix,GPS,45.8109383800,8.6286682400,265.33935546875,0.0,6.450241,,1710169780000,0.0781025,,33066529676461,5.4959855,0,,,
Fix,GPS,45.8109467200,8.6286832900,263.69476318359375,0.0,6.315694,,1710169781000,0.092195444,,33067512794950,5.2847643,0,,,
Fix,GPS,45.8109518600,8.6286843400,262.743896484375,0.78,5.6636806,253.1,1710169782000,1.0685036,6.2805133,33068512754065,4.5213547,0,,,
Fix,GPS,45.8109592400,8.6286895200,262.16650390625,0.77,5.1185784,253.2,1710169783000,1.0737784,8.335572,33069511559168,4.0079713,0,,,
Fix,GPS,45.8109597600,8.6286777900,261.6197509765625,0.92,4.8409934,253.5,1710169784000,1.0685036,12.583958,33070515211876,3.6699767,0,,,
Fix,GPS,45.8109623200,8.6286539100,261.3468017578125,1.63,4.595774,259.2,1710169785000,1.1200446,9.427976,33071508135366,3.3577814,0,,,
Fix,GPS,45.8109593800,8.6286336300,260.86627197265625,1.39,4.349302,259.2,1710169786000,0.90972525,17.766436,33072510405313,3.0874844,0,,,
Fix,GPS,45.8109605500,8.6286081200,260.94549560546875,2.04,4.176489,259.2,1710169787000,1.1200446,25.2397,33073514918386,2.7588298,0,,,
Fix,GPS,45.8109619000,8.6285760100,260.5687255859375,2.55,3.8733928,262.8,1710169788000,0.70292246,13.863533,33074514395833,2.5,0,,,
Fix,GPS,45.8109629300,8.6285409300,260.99169921875,2.82,3.7900925,264.3,1710169789000,1.1200446,21.97468,33075532074218,2.5,0,,,
Fix,GPS,45.8109646000,8.6285029200,261.0592041015625,3.01,3.7900925,265.6,1710169790000,1.1200446,20.678738,33076522808489,2.5,0,,,
Fix,GPS,45.8109652700,8.6284627100,261.19818115234375,3.1,3.7900925,266.8,1710169791000,1.1200446,20.100643,33077520545051,2.5,0,,,
Fix,GPS,45.8109601500,8.6283703400,266.3968505859375,3.44,4.3482203,263.7,1710169792000,0.5481788,8.1921625,33078520802811,2.7783153,0,,,
Fix,GPS,45.8109536100,8.6283250600,266.628173828125,3.61,4.343007,262.9,1710169793000,0.60959005,8.3627405,33079520309477,2.7573593,0,,,
Fix,GPS,45.8109474000,8.6283088600,264.839111328125,3.5,3.7900925,259.3,1710169794000,1.1200446,17.86861,33080513151977,2.5,0,,,
Fix,GPS,45.8109327900,8.6282754200,264.6954345703125,3.4,3.7900925,252.5,1710169795000,1.1200446,18.174507,33081522915518,2.5,0,,,
Fix,GPS,45.8109220800,8.6282413800,264.59295654296875,3.38,3.7900925,249.5,1710169796000,1.1250777,18.50647,33082515313070,2.5,0,,,
Fix,GPS,45.8109264200,8.6282011600,265.28125,3.56,3.7900925,289.3,1710169797000,0.28425342,3.268071,33083528282861,2.5,0,,,
Fix,GPS,45.8109500400,8.6281793300,264.6839599609375,3.65,3.7900925,332.3,1710169798000,0.2720294,2.9426148,33084520569163,2.5,0,,,
Fix,GPS,45.8109813300,8.6281681100,264.30792236328125,3.87,3.7900925,345.4,1710169799000,0.09433981,0.94191754,33085512733173,2.5,0,,,
Fix,GPS,45.8110144700,8.6281725800,263.684326171875,3.59,3.7900925,0.4,1710169800000,0.086023256,0.984427,33086520117131,2.5066333,0,,,
Fix,GPS,45.8110472900,8.6281799400,263.88494873046875,3.79,3.7900925,2.6,1710169801000,0.09433981,0.9189166,33087519724214,2.5,0,,,
Fix,GPS,45.8110799400,8.6281828400,263.71832275390625,3.64,3.7900925,358.3,1710169802000,0.09433981,0.9451123,33088509874057,2.5,0,,,
Fix,GPS,45.8111136000,8.6281810600,263.32391357421875,3.69,3.7900925,355.5,1710169803000,0.09433981,0.9930643,33089519986348,2.5,0,,,
Fix,GPS,45.8111516100,8.6281779400,263.01788330078125,4.37,3.7900925,355.6,1710169804000,0.10816654,1.0067859,33090527932129,2.5,0,,,
Fix,GPS,45.8111945000,8.6281757200,262.470703125,4.86,3.7900925,357.8,1710169805000,0.14422205,1.0591708,33091509616295,2.5,0,,,
Fix,GPS,45.8112463400,8.6281736600,262.7254638671875,5.29,3.7900925,356.8,1710169806000,0.116619036,0.7918596,33092514858014,2.5,0,,,
Fix,GPS,45.8112899000,8.6281743300,262.569580078125,5.06,3.7900925,358.8,1710169807000,0.34409302,2.5529625,33093517686399,2.5,0,,,
Fix,GPS,45.8113324000,8.6281664600,262.2900390625,4.89,3.7900925,356.5,1710169808000,0.34669873,2.601008,33094517129888,2.5,0,,,
Fix,GPS,45.8113797200,8.6281592400,262.65087890625,5.27,3.7900925,354.9,1710169809000,0.09433981,0.66809523,33095531203950,2.5,0,,,
Fix,GPS,45.8114237700,8.6281570200,262.08795166015625,5.04,3.7900925,358.1,1710169810000,0.1,0.8305411,33096523769314,2.5,0,,,
Fix,GPS,45.8114679700,8.6281550100,262.22021484375,4.98,3.7900925,358.1,1710169811000,0.1,0.8538381,33097519013793,2.5,0,,,
Fix,GPS,45.8115159900,8.6281551200,262.1123046875,4.95,3.7900925,359.4,1710169812000,0.086023256,0.7350706,33098520341814,2.5,0,,,
Fix,GPS,45.8115633800,8.6281544100,261.63543701171875,5.04,3.7900925,1.7,1710169813000,0.086023256,0.6579114,33099515295094,2.5,0,,,
Fix,GPS,45.8116083800,8.6281510500,261.091552734375,4.86,3.7900925,358.0,1710169814000,0.080622576,0.6554208,33100513595719,2.5,0,,,
Fix,GPS,45.8116549000,8.6281448200,260.61138916015625,5.0,3.7900925,355.6,1710169815000,0.080622576,0.6203147,33101516233896,2.5,0,,,
Fix,GPS,45.8116987400,8.6281442200,260.47381591796875,4.99,3.7900925,359.8,1710169816000,0.080622576,0.6269175,33102522852489,2.5,0,,,
Fix,GPS,45.8117433000,8.6281519300,260.51806640625,4.87,3.7900925,12.2,1710169817000,0.1118034,0.7146744,33103510823374,2.5,0,,,
Fix,GPS,45.8117804300,8.6281858300,260.3702392578125,4.97,3.7900925,36.5,1710169818000,0.1118034,0.73031247,33104511548999,2.5,0,,,
Fix,GPS,45.8118185000,8.6282124900,260.87890625,4.68,3.7900925,35.2,1710169819000,0.092195444,0.8289047,33105523224103,2.5,0,,,
Fix,GPS,45.8118621800,8.6282300600,261.39080810546875,4.64,3.7900925,10.0,1710169820000,0.086023256,0.8003122,33106521783894,2.5,0,,,
Fix,GPS,45.8119046500,8.6282234400,261.268310546875,4.92,3.7900925,343.3,1710169821000,0.08944272,0.6161598,33107512315039,2.5,0,,,
Fix,GPS,45.8119417900,8.6281938600,261.25201416015625,5.16,3.7900925,322.2,1710169822000,0.09433981,0.7273498,33108509385976,2.5,0,,,
Fix,GPS,45.8119521700,8.6281462000,260.791259765625,4.9,3.7900925,283.1,1710169823000,0.13038404,0.9399791,33109513535664,2.5,0,,,
Fix,GPS,45.8119466100,8.6280865400,260.955322265625,5.34,3.7900925,250.7,1710169824000,0.12806249,0.99108416,33110517965924,2.5,0,,,
Fix,GPS,45.8119291100,8.6280308900,260.7528076171875,5.06,3.7900925,239.2,1710169825000,0.12041595,1.0744104,33111513130871,2.5,0,,,
Fix,GPS,45.8119130100,8.6279703600,260.7176513671875,5.09,3.7900925,246.9,1710169826000,0.15,1.5503882,33112518085350,2.5,0,,,
Fix,GPS,45.8119025400,8.6279092700,260.649169921875,4.89,3.7900925,258.4,1710169827000,0.14422205,1.6617812,33113512863891,2.5,0,,,
Fix,GPS,45.8118968000,8.6278448500,260.6669921875,5.16,3.7900925,263.4,1710169828000,0.13453624,1.1786686,33114503668162,2.5,0,,,
Fix,GPS,45.8118898000,8.6277776800,260.7449951171875,4.98,3.7900925,263.4,1710169829000,0.114017546,0.9822233,33115511287953,2.5,0,,,
Fix,GPS,45.8118871300,8.6277151700,260.866943359375,5.09,3.7900925,266.5,1710169830000,0.114017546,0.9272357,33116515567223,2.5,0,,,
Fix,GPS,45.8118864800,8.6276548900,260.7572021484375,5.23,3.7900925,267.1,1710169831000,0.114017546,0.93261826,33117532390140,2.5,0,,,
Fix,GPS,45.8118832500,8.6275866300,260.82568359375,5.18,3.7900925,267.2,1710169832000,0.12206556,0.98304063,33118512839098,2.5,0,,,
Fix,GPS,45.8118783000,8.6275197100,260.744140625,5.26,3.7900925,268.1,1710169833000,0.31400636,2.4466083,33119500580556,2.5,0,,,
Fix,GPS,45.8118743300,8.6274518900,260.6785888671875,5.13,3.7900925,266.8,1710169834000,0.1640122,1.3591872,33120498954878,2.5,0,,,
Fix,GPS,45.8118738000,8.6274108000,260.6260986328125,2.57,3.7900925,262.1,1710169835000,0.12206556,1.9916056,33121503773524,2.5,0,,,
Fix,GPS,45.8118692100,8.6273809900,260.6131591796875,1.32,3.7900925,261.8,1710169836000,0.09433981,2.6674209,33122508827221,2.5,0,,,
Fix,GPS,45.8118703300,8.6273473100,260.6497802734375,2.65,3.7900925,267.1,1710169837000,0.09433981,1.447366,33123521769512,2.5,0,,,
Fix,GPS,45.8118701900,8.6273116300,260.8702392578125,3.31,3.7900925,272.8,1710169838000,0.086023256,1.0010517,33124511284356,2.5,0,,,
Fix,GPS,45.8118696100,8.6272630000,260.8287353515625,3.88,3.7900925,273.7,1710169839000,0.072111025,0.74699986,33125509403626,2.5,0,,,
Fix,GPS,45.8118715700,8.6272136800,260.02056884765625,4.16,3.7900925,268.5,1710169840000,0.1,1.0762038,33126509510084,2.5,0,,,
Fix,GPS,45.8118707500,8.6271578500,260.1439208984375,4.57,3.7900925,267.3,1710169841000,0.114017546,1.0522242,33127521585813,2.5,0,,,
Fix,GPS,45.8118673500,8.6270993600,259.66522216796875,4.75,3.7900925,263.3,1710169842000,0.086023256,0.72563773,33128507820083,2.5,0,,,
Fix,GPS,45.8118634400,8.6270407200,259.19110107421875,4.78,3.7900925,263.8,1710169843000,0.1,0.916015,33129515652062,2.5,0,,,
Fix,GPS,45.8118615100,8.6269783000,259.2099609375,4.96,3.7900925,267.7,1710169844000,0.1,0.9055472,33130519615812,2.5,0,,,
Fix,GPS,45.8118608900,8.6269125900,259.2666015625,5.08,3.7900925,267.4,1710169845000,0.086023256,0.71879953,33131523942426,2.5,0,,,
Fix,GPS,45.8118615900,8.6268446100,259.1380615234375,5.16,3.7900925,268.0,1710169846000,1.1200446,12.198489,33132529157530,2.5,0,,,
Fix,GPS,45.8118615700,8.6267842700,259.00128173828125,5.31,3.7900925,266.3,1710169847000,0.1,0.8123726,33133511959040,2.5,0,,,
Fix,GPS,45.8118602800,8.6267198700,258.5782470703125,5.37,3.7900925,267.1,1710169848000,0.12806249,1.0104012,33134520874300,2.5,0,,,
Fix,GPS,45.8118551300,8.6266402700,259.1717529296875,5.75,3.7900925,264.0,1710169849000,0.116619036,0.7344186,33135511747424,2.5,0,,,
Fix,GPS,45.8118538600,8.6265698200,259.256591796875,5.59,3.7900925,266.8,1710169850000,0.09433981,0.58063227,33136514661435,2.5,0,,,
Fix,GPS,45.8118525500,8.6264988200,258.6790771484375,5.57,3.7900925,268.1,1710169851000,0.086023256,0.6210521,33137509863570,2.5,0,,,
Fix,GPS,45.8118504700,8.6264202200,259.063232421875,5.77,3.7900925,267.2,1710169852000,0.092195444,0.6807868,33138530866382,2.5,0,,,
Fix,GPS,45.8118477600,8.6263477700,259.1865234375,5.86,3.7900925,264.6,1710169853000,0.14422205,0.9411422,33139510301225,2.5,0,,,
Fix,GPS,45.8118451800,8.6262743900,259.30902099609375,5.88,3.7900925,265.7,1710169854000,0.15264338,0.90403414,33140539629766,2.5,0,,,
Fix,GPS,45.8118398600,8.6261997500,259.2572021484375,5.86,3.7900925,267.1,1710169855000,0.13038404,0.83972305,33141519473516,2.5,0,,,
Fix,GPS,45.8118370000,8.6261229400,259.4498291015625,6.06,3.7900925,266.5,1710169856000,0.12206556,0.748623,33142510903411,2.5,0,,,
Fix,GPS,45.8118348600,8.6260481700,259.384765625,5.84,3.7900925,266.8,1710169857000,0.6,5.4130015,33143513489140,2.5,0,,,
Fix,GPS,45.8118339300,8.6259702900,259.33367919921875,6.08,3.7900925,267.8,1710169858000,0.092195444,0.677579,33144512344036,2.5,0,,,
Fix,GPS,45.8118326200,8.6258896500,259.397705078125,6.54,3.7900925,268.6,1710169859000,0.086023256,0.5324475,33145514115181,2.5,0,,,
Fix,GPS,45.8118306900,8.6258067400,259.4193115234375,6.47,3.7900925,266.9,1710169860000,0.086023256,0.58317316,33146508487629,2.5,0,,,
Fix,GPS,45.8118267600,8.6257238400,259.4095458984375,6.52,3.7900925,265.6,1710169861000,0.1,0.6865431,33147510368149,2.5,0,,,
Fix,GPS,45.8118222700,8.6256422500,259.36126708984375,6.46,3.7900925,265.2,1710169862000,0.1360147,0.84284824,33148509358305,2.5,0,,,
Fix,GPS,45.8118183800,8.6255673200,259.3466796875,5.88,3.7900925,265.5,1710169863000,0.13038404,0.8513771,33149512328773,2.5,0,,,
Fix,GPS,45.8118182600,8.6255295000,259.2059326171875,1.88,3.7900925,265.9,1710169864000,0.1029563,2.0159004,33150510997888,2.5,0,,,
Fix,GPS,45.8118146200,8.6255021400,258.90802001953125,1.34,3.7900925,262.2,1710169865000,0.17492856,4.779972,33151519232679,2.5,0,,,
Fix,GPS,45.8118106600,8.6254663400,258.4720458984375,3.09,3.7900925,269.6,1710169866000,0.4,5.039705,33152537579397,2.5,0,,,
Fix,GPS,45.8118035100,8.6254161100,258.74609375,3.7,3.7900925,266.5,1710169867000,0.35,3.6789334,33153511013720,2.5,0,,,
Fix,GPS,45.8118027600,8.6253707700,258.60986328125,3.85,3.7900925,271.9,1710169868000,0.4669047,5.710293,33154524282782,2.5,0,,,
Fix,GPS,45.8118010600,8.6253208600,258.6490478515625,4.05,3.7900925,267.2,1710169869000,0.13892443,1.254168,33155525674084,2.5,0,,,
Fix,GPS,45.8117982000,8.6252669600,258.5172119140625,4.27,3.7900925,265.6,1710169870000,0.24698178,2.1085253,33156510571583,2.5,0,,,
Fix,GPS,45.8117954700,8.6252096700,258.724365234375,4.6,3.7900925,266.1,1710169871000,0.20808652,1.7886399,33157512805593,2.5,0,,,
Fix,GPS,45.8117934700,8.6251505100,259.07794189453125,4.67,3.7900925,266.5,1710169872000,0.1360147,1.1572323,33158508056009,2.5,0,,,
Fix,GPS,45.8117923700,8.6250899100,258.9390869140625,4.83,3.7900925,266.5,1710169873000,0.7720104,8.380578,33159513691061,2.5,0,,,
Fix,GPS,45.8117902900,8.6250264800,259.099853515625,4.96,3.7900925,266.8,1710169874000,0.31890437,3.1930852,33160529917155,2.5,0,,,
Fix,GPS,45.8117893800,8.6249585500,259.10894775390625,5.09,3.7900925,267.5,1710169875000,0.32649654,3.2144086,33161525451373,2.5,0,,,
Fix,GPS,45.8117875000,8.6248916600,259.821044921875,5.3,3.7900925,266.6,1710169876000,0.22022715,2.1106908,33162524254185,2.5,0,,,
Fix,GPS,45.8117870900,8.6248222700,259.7225341796875,5.08,3.7900925,269.1,1710169877000,0.10630146,1.0792749,33163521138143,2.5,0,,,
Fix,GPS,45.8117819300,8.6247541500,259.76849365234375,5.33,3.7900925,265.6,1710169878000,0.09899495,0.904128,33164509236163,2.5,0,,,
Fix,GPS,45.8117745500,8.6246803700,259.93603515625,5.53,3.7900925,262.3,1710169879000,0.09899495,0.8151795,33165508476996,2.5,0,,,
Fix,GPS,45.8117765600,8.6246146100,259.7305908203125,5.5,3.7900925,268.4,1710169880000,0.12041595,0.95958376,33166525721996,2.5,0,,,
Fix,GPS,45.8117732700,8.6245421800,259.859375,5.47,3.7900925,267.4,1710169881000,0.12041595,0.9610609,33167521538402,2.5,0,,,
Fix,GPS,45.8117651500,8.6244726400,260.00634765625,5.4,3.7900925,261.5,1710169882000,0.12041595,0.972122,33168520529964,2.5,0,,,
Fix,GPS,45.8117460300,8.6244084700,259.8873291015625,5.46,3.7900925,249.1,1710169883000,0.10630146,0.8265032,33169519356109,2.5,0,,,
Fix,GPS,45.8117159700,8.6243593900,259.4334716796875,5.59,3.7900925,223.3,1710169884000,0.1029563,0.6587665,33170517089234,2.5,0,,,
Fix,GPS,45.8116677000,8.6243369700,259.56353759765625,6.03,3.7900925,191.2,1710169885000,0.10816654,0.68327165,33171514289442,2.5,0,,,
Fix,GPS,45.8116214500,8.6243342600,259.313232421875,5.89,3.7900925,171.3,1710169886000,0.09433981,0.6200925,33172517916837,2.5,0,,,
Fix,GPS,45.8115712500,8.6243392100,259.26361083984375,5.64,3.7900925,171.8,1710169887000,0.09433981,0.58492035,33173521688920,2.5,0,,,
Fix,GPS,45.8115204400,8.6243427600,259.2796630859375,5.73,3.7900925,178.3,1710169888000,0.072111025,0.5105146,33174519474649,2.5,0,,,
Fix,GPS,45.8114709700,8.6243438100,259.0181884765625,5.46,3.7900925,180.1,1710169889000,0.12206556,0.8347252,33175515660795,2.5,0,,,
Fix,GPS,45.8114193600,8.6243497700,259.05224609375,5.7,3.7900925,176.1,1710169890000,0.28301942,1.8015817,33176514576159,2.5,0,,,
Fix,GPS,45.8113659500,8.6243507200,258.7647705078125,5.49,3.7900925,177.7,1710169891000,1.053945,10.399904,33177518449856,2.5,0,,,
Fix,GPS,45.8113146800,8.6243567500,258.9580078125,5.68,3.7900925,176.9,1710169892000,0.116619036,0.7341358,33178518794387,2.5,0,,,
Fix,GPS,45.8112663400,8.6243633700,258.69903564453125,5.19,3.7900925,175.0,1710169893000,0.3244996,2.233104,33179517243241,2.5,0,,,
Fix,GPS,45.8112125300,8.6243670700,258.85943603515625,5.87,3.7900925,178.6,1710169894000,0.2884441,1.822242,33180527391886,2.5,0,,,
Fix,GPS,45.8111623400,8.6243671200,258.9700927734375,5.69,3.7900925,177.7,1710169895000,0.06403124,0.50399065,33181516811105,2.5,0,,,
Fix,GPS,45.8111100900,8.6243697400,258.9501953125,5.85,3.7900925,175.7,1710169896000,0.080622576,0.52800584,33182514185323,2.5,0,,,
Fix,GPS,45.8110570600,8.6243755400,258.90692138671875,5.86,3.7900925,175.3,1710169897000,0.1118034,0.64419675,33183508909542,2.5,0,,,
Fix,GPS,45.8110023400,8.6243777600,258.83392333984375,5.9,3.7900925,177.5,1710169898000,0.10816654,0.6643585,33184526505791,2.5,0,,,
Fix,GPS,45.8109488800,8.6243764100,259.123779296875,6.2,3.7900925,178.4,1710169899000,0.086023256,0.5556785,33185520998343,2.5,0,,,
Fix,GPS,45.8108950300,8.6243781200,259.01312255859375,5.85,3.7900925,177.9,1710169900000,0.1029563,0.59667075,33186519289697,2.5,0,,,
Fix,GPS,45.8108399400,8.6243794700,259.0230712890625,6.0,3.7900925,178.5,1710169901000,0.12083046,0.6363888,33187519990269,2.5,0,,,
Fix,GPS,45.8107845500,8.6243860900,259.1676025390625,6.26,3.7900925,174.6,1710169902000,0.23706539,1.1538641,33188517943238,2.5,0,,,
Fix,GPS,45.8107347300,8.6243914100,259.2164306640625,5.86,3.7900925,175.8,1710169903000,0.41677332,2.3577855,33189528622300,2.5,0,,,
Fix,GPS,45.8106805700,8.6243942600,259.17047119140625,5.95,3.7900925,177.7,1710169904000,0.30528677,1.7489959,33190508252768,2.5,0,,,
Fix,GPS,45.8106284900,8.6243989400,259.160888671875,5.76,3.7900925,177.3,1710169905000,0.13892443,0.83438677,33191514108080,2.5,0,,,
Fix,GPS,45.8105806900,8.6244027200,259.0694580078125,5.83,3.7900925,178.8,1710169906000,0.13892443,0.8198521,33192512572299,2.5,0,,,
Fix,GPS,45.8105291900,8.6244079900,259.268798828125,5.73,3.7900925,175.6,1710169907000,0.13038404,0.8320258,33193515204798,2.5,0,,,
Fix,GPS,45.8104733200,8.6244075600,259.9034423828125,6.07,3.7900925,177.9,1710169908000,0.13892443,0.7711891,33194528362767,2.5,0,,,
Fix,GPS,45.8104249700,8.6244127000,259.9033203125,5.47,3.7900925,174.8,1710169909000,0.34409302,2.4388478,33195516589225,2.5,0,,,
Fix,GPS,45.8103740600,8.6244143800,260.7420654296875,5.44,3.7900925,180.2,1710169910000,0.62265563,3.747426,33196511469849,2.5,0,,,
Fix,GPS,45.8103245100,8.6244170700,260.38885498046875,5.5,3.7900925,176.7,1710169911000,0.18788294,1.0200253,33197519909693,2.5,0,,,
Fix,GPS,45.8102725900,8.6244201300,260.5181884765625,5.58,3.7900925,176.4,1710169912000,0.114017546,0.8988213,33198511201775,2.5,0,,,
Fix,GPS,45.8102256500,8.6244240600,259.9635009765625,5.41,3.7900925,179.8,1710169913000,0.17492856,1.1555824,33199511921358,2.5,0,,,
Fix,GPS,45.8101782400,8.6244357200,260.57421875,5.22,3.7900925,174.7,1710169914000,0.31622776,2.2539608,33200526515368,2.5,0,,,
Fix,GPS,45.8101315500,8.6244475100,260.4871826171875,5.36,3.7900925,173.1,1710169915000,0.36124784,2.9745138,33201510876618,2.5,0,,,
Fix,GPS,45.8100836900,8.6244486100,260.57904052734375,5.32,3.7900925,177.0,1710169916000,1.1884865,12.477818,33202522230889,2.5,0,,,
Fix,GPS,45.8100369900,8.6244515300,260.5347900390625,5.5,3.7900925,178.0,1710169917000,1.1250777,11.477857,33203541587815,2.5,0,,,
Fix,GPS,45.8099913900,8.6244554300,260.3558349609375,5.11,3.7900925,176.6,1710169918000,0.13038404,0.93393415,33204526094013,2.5,0,,,
Fix,GPS,45.8099445100,8.6244603000,260.338134765625,5.19,3.7900925,174.2,1710169919000,0.1640122,1.3364189,33205508591617,2.5,0,,,
Fix,GPS,45.8098965200,8.6244656700,260.435791015625,5.29,3.7900925,176.8,1710169920000,0.24413112,1.8026915,33206514479689,2.5,0,,,
Fix,GPS,45.8098470400,8.6244735400,260.69830322265625,5.53,3.7900925,171.5,1710169921000,0.092195444,0.7849954,33207510938595,2.5,0,,,
Fix,GPS,45.8097937300,8.6244794200,260.14129638671875,5.74,3.7900925,178.5,1710169922000,0.29832867,2.1718876,33208508991824,2.5,0,,,
Fix,GPS,45.8097403500,8.6244906000,260.1055908203125,5.7,3.7900925,173.2,1710169923000,0.59464276,4.6142354,33209520899375,2.5,0,,,
Fix,GPS,45.8096900500,8.6244928900,259.83050537109375,5.62,3.7900925,179.7,1710169924000,0.4103657,3.287659,33210521203802,2.5,0,,,
Fix,GPS,45.8096393700,8.6244901200,259.325439453125,5.8,3.7900925,187.7,1710169925000,0.114017546,0.78000826,33211515662864,2.5,0,,,
Fix,GPS,45.8095852900,8.6244799500,258.966796875,5.94,3.7900925,190.1,1710169926000,0.3828838,3.252619,33212519396458,2.5,0,,,
Fix,GPS,45.8095365500,8.6244574800,258.837646484375,5.54,3.7900925,201.9,1710169927000,0.65795135,5.630132,33213516012759,2.5,0,,,
Fix,GPS,45.8094927000,8.6244261600,258.6322021484375,5.65,3.7900925,209.6,1710169928000,0.5403702,3.9269993,33214522943488,2.5051022,0,,,
Fix,GPS,45.8094460900,8.6244028700,258.811767578125,5.51,3.7900925,201.3,1710169929000,0.2780288,2.0627482,33215508872342,2.5,0,,,
Fix,GPS,45.8093985400,8.6243770400,258.55908203125,5.48,3.7900925,199.1,1710169930000,0.26400757,1.9107448,33216515280571,2.533771,0,,,
Fix,GPS,45.8093494400,8.6243727900,258.2408447265625,5.49,3.7900925,178.2,1710169931000,0.09433981,0.65147066,33217506831195,2.5166006,0,,,
Fix,GPS,45.8093035300,8.6243971000,258.8406982421875,5.83,3.7900925,147.1,1710169932000,0.22803509,1.619169,33218517426768,2.5,0,,,
Fix,GPS,45.8092755400,8.6244523600,258.7349853515625,5.96,3.7900925,113.9,1710169933000,0.32202485,2.0719662,33219503769736,2.5,0,,,
Fix,GPS,45.8092674200,8.6245205600,258.65234375,5.73,3.7900925,90.0,1710169934000,0.09433981,0.5700653,33220511706819,2.5,0,,,
Fix,GPS,45.8092729500,8.6245846900,258.8646240234375,5.66,3.7900925,74.8,1710169935000,0.09433981,0.6016752,33221509907496,2.5,0,,,
Fix,GPS,45.8092902400,8.6246433800,258.95361328125,5.42,3.7900925,60.8,1710169936000,0.1029563,0.6885656,33222510842079,2.5,0,,,
Fix,GPS,45.8093087800,8.6247060600,259.1666259765625,5.53,3.7900925,63.2,1710169937000,0.29068884,2.280393,33223522282599,2.5,0,,,
Fix,GPS,45.8093276400,8.6247724700,258.56304931640625,5.59,3.7900925,69.9,1710169938000,0.36069378,2.9695053,33224515686870,2.5,0,,,
Fix,GPS,45.8093447800,8.6248416300,258.2291259765625,5.69,3.7900925,75.3,1710169939000,0.12206556,0.8535457,33225518149109,2.5,0,,,
Fix,GPS,45.8093560900,8.6249122800,257.6295166015625,5.62,3.7900925,81.6,1710169940000,0.31906113,1.9652768,33226514963379,2.5,0,,,
Fix,GPS,45.8093649900,8.6249833400,257.8531494140625,5.6,3.7900925,83.9,1710169941000,0.47169906,2.94874,33227510775931,2.5,0,,,
Fix,GPS,45.8093670900,8.6250492500,257.511474609375,5.37,3.7900925,86.7,1710169942000,0.7212489,6.137883,33228519221816,2.5,0,,,
Fix,GPS,45.8093825100,8.6251201600,257.64886474609375,5.67,3.7900925,72.9,1710169943000,0.12083046,0.63986164,33229510830826,2.5,0,,,
Fix,GPS,45.8094089900,8.6251809000,257.53106689453125,5.54,3.7900925,54.3,1710169944000,0.09433981,0.60108703,33230513569472,2.5,0,,,
Fix,GPS,45.8094482400,8.6252335600,258.0035400390625,5.71,3.7900925,33.9,1710169945000,0.22203603,1.4759167,33231513461346,2.5,0,,,
Fix,GPS,45.8094905100,8.6252570100,257.22918701171875,5.54,3.7900925,10.5,1710169946000,0.26627055,1.7456914,33232517179262,2.5,0,,,
Fix,GPS,45.8095366100,8.6252688000,257.42315673828125,5.29,3.7900925,1.9,1710169947000,0.23323807,1.4605498,33233530915877,2.5,0,,,
Fix,GPS,45.8095831000,8.6252712100,258.0335693359375,5.27,3.7900925,354.7,1710169948000,0.1118034,0.677583,33234519998845,2.5,0,,,
Fix,GPS,45.8096247700,8.6252734400,258.01312255859375,4.75,3.7900925,358.1,1710169949000,0.17,1.0862328,33235520518480,2.5,0,,,
Fix,GPS,45.8096679000,8.6252692000,257.9046630859375,4.58,3.7900925,357.2,1710169950000,0.19723083,1.4248359,33236518996188,2.5,0,,,
Fix,GPS,45.8097122700,8.6252619000,257.572265625,5.02,3.7900925,353.9,1710169951000,0.43931764,3.785909,33237514796969,2.5,0,,,
Fix,GPS,45.8097617000,8.6252699300,257.29449462890625,5.46,3.7900925,2.4,1710169952000,1.1250777,11.547913,33238518658896,2.5,0,,,
Fix,GPS,45.8098100800,8.6253048500,257.151123046875,6.31,3.7900925,31.4,1710169953000,0.14764823,0.7483415,33239514102229,2.5,0,,,
Fix,GPS,45.8098452200,8.6253646900,257.0145263671875,6.61,3.7900925,60.9,1710169954000,0.5307542,3.9011822,33240528043895,2.5,0,,,
Fix,GPS,45.8098593700,8.6254411000,256.76629638671875,6.71,3.7900925,82.1,1710169955000,0.12529965,0.62534386,33241521226238,2.5,0,,,
Fix,GPS,45.8098603400,8.6255185300,256.403564453125,6.36,3.7900925,96.3,1710169956000,0.12529965,0.6617921,33242520816759,2.5,0,,,
Fix,GPS,45.8098574900,8.6255968300,256.53448486328125,6.24,3.7900925,99.2,1710169957000,0.13892443,0.7963012,33243515024727,2.5,0,,,
Fix,GPS,45.8098556600,8.6256756400,256.56500244140625,5.91,3.7900925,93.1,1710169958000,0.31906113,1.8899451,33244506760404,2.5,0,,,
Fix,GPS,45.8098572300,8.6257523100,256.71722412109375,6.25,3.7900925,87.4,1710169959000,0.28653097,1.5284237,33245509982018,2.5,0,,,
Fix,GPS,45.8098615500,8.6258324000,256.419189453125,6.03,3.7900925,85.2,1710169960000,0.1118034,0.5496773,33246513533163,2.5,0,,,
Fix,GPS,45.8098672400,8.6259126600,256.53424072265625,6.07,3.7900925,85.7,1710169961000,0.09848858,0.50713617,33247526666548,2.5,0,,,
Fix,GPS,45.8098708000,8.6259902200,257.11395263671875,6.07,3.7900925,87.3,1710169962000,0.09848858,0.47340387,33248509477590,2.5,0,,,
Fix,GPS,45.8098802300,8.6260671900,256.86309814453125,6.02,3.7900925,83.6,1710169963000,0.09848858,0.49672785,33249512175194,2.5,0,,,
Fix,GPS,45.8098846000,8.6261418500,256.5390625,6.0,3.7900925,85.8,1710169964000,0.09848858,0.5346061,33250507424933,2.5,0,,,
Fix,GPS,45.8098856100,8.6262186200,256.11279296875,5.99,3.7900925,86.0,1710169965000,1.020833,8.435049,33251516085557,2.5,0,,,
Fix,GPS,45.8098891500,8.6262887900,255.625244140625,6.07,3.7900925,85.4,1710169966000,0.3138471,1.6967193,33252547789463,2.5,0,,,
Fix,GPS,45.8098920100,8.6263758300,255.9385986328125,6.67,3.7900925,87.5,1710169967000,0.33615473,1.6528707,33253511184098,2.5,0,,,
Fix,GPS,45.8098946500,8.6264578300,255.6092529296875,6.36,3.7900925,88.5,1710169968000,0.20808652,1.2379056,33254513186858,2.5,0,,,
Fix,GPS,45.8098990800,8.6265400700,255.5555419921875,6.28,3.7900925,86.0,1710169969000,0.29832867,1.9909698,33255519985504,2.5,0,,,
Fix,GPS,45.8099027300,8.6266216500,255.2586669921875,6.29,3.7900925,87.1,1710169970000,0.31241,2.118554,33256508508524,2.5,0,,,
Fix,GPS,45.8099097200,8.6266997200,255.17889404296875,6.2,3.7900925,85.5,1710169971000,0.44407207,2.764253,33257517952065,2.5,0,,,
Fix,GPS,45.8099165100,8.6267795100,255.29669189453125,6.21,3.7900925,84.9,1710169972000,0.44407207,2.744198,33258527205138,2.5,0,,,
Fix,GPS,45.8099194500,8.6268599000,255.4749755859375,6.26,3.7900925,89.1,1710169973000,0.3244996,1.8905581,33259520602742,2.5,0,,,
Fix,GPS,45.8099221000,8.6269400000,254.87811279296875,6.21,3.7900925,89.7,1710169974000,0.3244996,1.9043239,33260528917325,2.5,0,,,
Fix,GPS,45.8099202700,8.6270201700,254.88153076171875,6.11,3.7900925,87.7,1710169975000,0.2302173,1.4348642,33261517232429,2.5,0,,,
Fix,GPS,45.8099215100,8.6271025100,254.54144287109375,6.09,3.7900925,86.9,1710169976000,0.14764823,0.78511,33262507844980,2.5,0,,,
Fix,GPS,45.8099153600,8.6271793500,254.56304931640625,5.93,3.7900925,87.5,1710169977000,0.14317821,0.7199357,33263524787740,2.5,0,,,
Fix,GPS,45.8099207800,8.6272521700,254.3616943359375,5.74,3.7900925,86.4,1710169978000,0.13,0.6674518,33264512344302,2.5,0,,,
Fix,GPS,45.8099203800,8.6273241000,254.5625,5.72,3.7900925,92.1,1710169979000,0.12529965,0.7101355,33265525011333,2.5,0,,,
Fix,GPS,45.8099286400,8.6273964100,254.529296875,5.57,3.7900925,79.3,1710169980000,0.13892443,0.8373212,33266520656072,2.5,0,,,
Fix,GPS,45.8099551400,8.6274548900,255.0416259765625,5.51,3.7900925,51.2,1710169981000,0.15652476,0.8961035,33267531039718,2.5,0,,,
Fix,GPS,45.8099955300,8.6274872900,254.93353271484375,5.82,3.7900925,20.7,1710169982000,0.16155495,0.75632733,33268505708311,2.5,0,,,
Fix,GPS,45.8100413300,8.6274981500,254.75933837890625,5.85,3.7900925,357.0,1710169983000,0.15231547,0.7465654,33269522882634,2.5,0,,,
Fix,GPS,45.8100881900,8.6274918700,255.10699462890625,5.44,3.7900925,350.0,1710169984000,0.15231547,0.8139628,33270526557633,2.5,0,,,
Fix,GPS,45.8101332500,8.6274855000,256.9964599609375,5.27,3.7900925,354.3,1710169985000,0.14317821,0.7400721,33271519809664,2.5,0,,,
Fix,GPS,45.8101797300,8.6274839900,256.20294189453125,5.49,3.7900925,357.1,1710169986000,0.13,0.6997023,33272518021435,2.5,0,,,
Fix,GPS,45.8102296300,8.6274808100,255.79962158203125,5.56,3.7900925,357.7,1710169987000,0.13416408,0.6993068,33273524050497,2.5,0,,,
Fix,GPS,45.8102784100,8.6274755200,255.8719482421875,5.39,3.7900925,355.8,1710169988000,0.12083046,0.6619434,33274511134246,2.5,0,,,
Fix,GPS,45.8103297000,8.6274688700,255.8370361328125,5.74,3.7900925,356.8,1710169989000,0.12083046,0.61569864,33275507175965,2.5,0,,,
Fix,GPS,45.8103837300,8.6274747500,256.03753662109375,5.68,3.7900925,5.5,1710169990000,0.14317821,0.68379384,33276516140808,2.5,0,,,
Fix,GPS,45.8104406600,8.6274937900,256.1715087890625,6.44,3.7900925,14.7,1710169991000,0.47507894,3.1098301,33277512655912,2.5,0,,,
Fix,GPS,45.8104775000,8.6275383300,255.87176513671875,5.61,3.7900925,42.2,1710169992000,0.67357254,5.0810475,33278512727891,2.6459298,0,,,
Fix,GPS,45.8105093100,8.6275896000,256.267822265625,5.57,3.7900925,61.8,1710169993000,0.44944412,2.849097,33279523635130,2.807959,0,,,
Fix,GPS,45.8105436200,8.6276452300,255.98443603515625,5.59,3.7900925,51.9,1710169994000,0.27784887,1.661898,33280514449244,2.945916,0,,,
Fix,GPS,45.8105883700,8.6276814600,256.657470703125,5.77,3.7900925,23.3,1710169995000,0.27784887,1.6338272,33281517084921,3.0592346,0,,,
Fix,GPS,45.8106360900,8.6276887900,256.965087890625,5.85,3.7900925,356.0,1710169996000,0.23600848,1.5727241,33282508797420,3.2056174,0,,,
Fix,GPS,45.8106822100,8.6276670800,257.3526611328125,5.74,3.7900925,340.6,1710169997000,1.1713667,11.356631,33283523177316,3.611097,0,,,
Fix,GPS,45.8107113900,8.6276098200,257.643798828125,5.6,3.7900925,310.2,1710169998000,1.1250777,11.2678175,33284513218357,3.7357142,0,,,
Fix,GPS,45.8107197800,8.6275428800,257.349609375,5.73,3.7900925,273.8,1710169999000,0.19235384,1.0708404,33285522195128,3.8639672,0,,,
Fix,GPS,45.8107087600,8.6274716500,258.0865478515625,6.23,3.7900925,243.1,1710170000000,0.2147091,1.1268617,33286519765179,3.8952372,0,,,
Fix,GPS,45.8106741100,8.6274182200,258.077392578125,6.13,3.7900925,214.5,1710170001000,0.25495097,1.1799326,33287508893096,3.81843,0,,,
Fix,GPS,45.8106256400,8.6273908100,258.3304443359375,6.04,3.7900925,190.7,1710170002000,0.24596748,1.1710973,33288508697418,3.7935514,0,,,
Fix,GPS,45.8105748000,8.6273747400,257.1556396484375,5.43,3.7900925,181.9,1710170003000,0.16124515,0.9897374,33289512277626,3.7943428,0,,,
Fix,GPS,45.8105222700,8.6273681900,257.2645263671875,5.8,3.7900925,179.8,1710170004000,0.18867962,1.1092122,33290512613303,3.523267,0,,,
Fix,GPS,45.8104692000,8.6273643100,256.9815673828125,5.61,3.7900925,179.0,1710170005000,0.40804413,2.78849,33291512279865,3.4112074,0,,,
Fix,GPS,45.8104111400,8.6273600300,257.06207275390625,6.1,3.7900925,181.9,1710170006000,0.75742984,5.4043946,33292527411635,3.4742544,0,,,
Fix,GPS,45.8103600300,8.6273817900,256.73114013671875,5.7,3.7900925,165.7,1710170007000,1.1387713,11.132962,33293521527781,3.1284456,0,,,
Fix,GPS,45.8103061500,8.6273937200,256.22967529296875,5.56,3.7900925,171.5,1710170008000,1.1250777,11.385558,33294517143301,2.831903,0,,,
Fix,GPS,45.8102488500,8.6274018200,256.56011962890625,5.95,3.7900925,176.0,1710170009000,0.3720215,2.4161515,33295541493353,2.7058406,0,,,
Fix,GPS,45.8101997400,8.6274091700,256.149169921875,5.54,3.7900925,171.8,1710170010000,0.33015147,2.2954497,33296519125019,2.5,0,,,
Fix,GPS,45.8101483400,8.6274236700,256.6983642578125,5.66,3.7900925,170.4,1710170011000,0.12529965,0.69270635,33297529455436,2.5,0,,,
Fix,GPS,45.8101021700,8.6274313800,256.84423828125,5.45,3.7900925,180.9,1710170012000,0.12083046,0.67548823,33298528505904,2.5,0,,,
Fix,GPS,45.8100586700,8.6274208100,256.6474609375,4.9,3.7900925,203.8,1710170013000,0.2915476,2.0853732,33299516792779,2.5,0,,,
Fix,GPS,45.8100184600,8.6273996500,256.767578125,4.68,3.7900925,210.6,1710170014000,0.9160786,10.257788,33300517295591,2.5,0,,,
Fix,GPS,45.8100256600,8.6273231100,256.70684814453125,5.9,3.7900925,270.7,1710170015000,1.0182829,8.821682,33301516905174,2.5,0,,,
Fix,GPS,45.8100274800,8.6272681300,256.077880859375,4.88,3.7900925,273.0,1710170016000,0.66287255,4.9929085,33302513449652,2.5,0,,,
Fix,GPS,45.8100296100,8.6272008100,256.0042724609375,5.09,3.7900925,268.0,1710170017000,0.3827532,2.70841,33303499484444,2.5,0,,,
Fix,GPS,45.8100266600,8.6271360900,256.20269775390625,5.18,3.7900925,265.6,1710170018000,0.53740114,4.8243937,33304503204391,2.5,0,,,
Fix,GPS,45.8100241200,8.6270673800,256.7620849609375,5.27,3.7900925,266.4,1710170019000,1.1250777,11.977169,33305525153141,2.5,0,,,
Fix,GPS,45.8100185100,8.6269980800,257.10736083984375,5.37,3.7900925,267.0,1710170020000,0.16643317,1.1759228,33306529240120,2.5,0,,,
Fix,GPS,45.8100170900,8.6269240400,257.743896484375,5.36,3.7900925,267.8,1710170021000,0.39204592,2.927354,33307534622411,2.5,0,,,
Fix,GPS,45.8100136200,8.6268592300,257.77978515625,5.22,3.7900925,266.4,1710170022000,1.1250777,12.0776005,33308515748921,2.5,0,,,
Fix,GPS,45.8100133600,8.6268124400,258.274658203125,4.11,3.7900925,267.1,1710170023000,1.1250777,15.295176,33309506519910,2.5,0,,,
Fix,GPS,45.8100153600,8.6267857300,258.163818359375,1.2,3.7900925,263.5,1710170024000,0.13892443,4.2757616,33310515079181,2.5,0,,,
Fix,GPS,45.8100157900,8.6267453900,258.1837158203125,2.53,3.7900925,266.9,1710170025000,0.12529965,1.7664816,33311502354857,2.5,0,,,
Fix,GPS,45.8100139800,8.6267075000,257.98297119140625,3.01,3.7900925,267.5,1710170026000,0.3522783,4.4902673,33312513583711,2.5,0,,,
Fix,GPS,45.8100247500,8.6266724400,257.73455810546875,3.23,3.7900925,302.8,1710170027000,0.45221677,5.256445,33313501869388,2.5,0,,,
Fix,GPS,45.8100397000,8.6266544600,257.682861328125,2.43,3.7900925,336.5,1710170028000,0.7780103,16.605751,33314504065846,2.5,0,,,
Fix,GPS,45.8100721500,8.6266513500,258.50250244140625,4.86,3.7900925,0.7,1710170029000,0.90801984,9.812055,33315502612252,2.5,0,,,
Fix,GPS,45.8101095700,8.6266542700,259.98406982421875,4.67,3.7900925,3.0,1710170030000,0.51224995,4.430594,33316508540793,2.896286,0,,,
Fix,GPS,45.8101394300,8.6266521300,260.5888671875,3.61,3.7900925,359.0,1710170031000,0.7441102,10.173808,33317528761105,3.224168,0,,,
Fix,GPS,45.8101790200,8.6266390700,261.6246337890625,6.08,3.7900925,357.3,1710170032000,0.7856844,6.229464,33318515614073,3.5718484,0,,,
Fix,GPS,45.8102141100,8.6266237300,261.9666748046875,5.54,3.7900925,356.5,1710170033000,0.4973932,2.983305,33319510653865,4.0020556,0,,,
Fix,GPS,45.8102544300,8.6266199100,262.81243896484375,4.77,4.0670214,9.5,1710170034000,0.7566373,7.2770305,33320509469802,4.4345937,0,,,
Fix,GPS,45.8103027700,8.6266000200,265.468994140625,5.55,4.1832438,351.2,1710170035000,1.00005,8.9265995,33321514414333,4.555136,0,,,
Fix,GPS,45.8103635500,8.6265838200,265.64483642578125,5.86,4.684684,355.8,1710170036000,0.9963935,8.670966,33322520334228,4.8435645,0,,,
Fix,GPS,45.8104137500,8.6265666200,264.92041015625,5.58,5.2374587,352.1,1710170037000,1.1207141,10.720067,33323517799905,4.9694533,0,,,
Fix,GPS,45.8104599800,8.6265679500,263.736083984375,4.87,6.143102,7.5,1710170038000,1.2073939,13.646726,33324509349384,5.0374374,0,,,
Fix,GPS,45.8105099600,8.6265623800,263.49676513671875,5.61,5.713664,356.6,1710170039000,1.0764757,10.20957,33325507171258,5.0971837,0,,,
Fix,GPS,45.8105335200,8.6265360300,262.65447998046875,3.3,5.3117228,333.5,1710170040000,0.65795135,8.978652,33326507283550,4.927385,0,,,
Fix,GPS,45.8105578100,8.6265399600,265.40338134765625,3.12,4.254756,40.0,1710170041000,0.61073726,8.100273,33327509732403,4.7061725,0,,,
Fix,GPS,45.8105678000,8.6265499100,265.96807861328125,1.57,4.5770073,71.5,1710170042000,0.9794897,29.802198,33328513122976,4.736216,0,,,
Fix,GPS,45.8105385400,8.6265896300,267.58502197265625,4.18,4.7306685,131.2,1710170043000,1.0780075,13.436278,33329520057923,4.652351,0,,,
Fix,GPS,45.8105111900,8.6266020100,269.6776123046875,2.8,4.338138,167.9,1710170044000,1.0860019,19.96504,33330512097142,4.5968027,0,,,
Fix,GPS,45.8104679700,8.6265993200,269.652099609375,4.94,3.9917524,185.0,1710170045000,0.7150524,7.060481,33331517787714,4.602424,0,,,
Fix,GPS,45.8104313000,8.6266037300,270.8603515625,3.75,4.2391105,179.4,1710170046000,0.68014705,8.813327,33332516756985,4.8676753,0,,,
Fix,GPS,45.8103937600,8.6266102200,270.2960205078125,4.16,4.6233582,177.2,1710170047000,0.9404786,12.077182,33333515920682,5.0076737,0,,,
Fix,GPS,45.8103518700,8.6266148600,270.09967041015625,4.57,4.5376863,178.4,1710170048000,0.7433034,7.8065205,33334508743599,5.042894,0,,,
Fix,GPS,45.8103092000,8.6266207800,269.81683349609375,4.39,4.59907,175.3,1710170049000,0.67357254,6.603327,33335523391723,5.0743423,0,,,
Fix,GPS,45.8102514300,8.6266324800,269.822998046875,5.23,4.6250105,175.8,1710170050000,0.6942622,5.7393603,33336515013702,5.0751114,0,,,
Fix,GPS,45.8102046600,8.6266476200,270.068359375,5.19,4.4392214,173.0,1710170051000,0.7286289,6.7128425,33337516360629,4.7183785,0,,,
Fix,GPS,45.8101500900,8.6266588400,271.591796875,5.79,4.307709,179.3,1710170052000,0.7783316,6.416253,33338508294014,4.432023,0,,,
Fix,GPS,45.8100994000,8.6266569900,271.9217529296875,5.43,4.4939957,182.6,1710170053000,0.7783316,6.362335,33339520588128,4.573139,0,,,
Fix,GPS,45.8100599800,8.6266527600,271.2088623046875,4.06,4.2242904,182.2,1710170054000,0.532635,5.4486327,33340515569482,4.3835716,0,,,
Fix,GPS,45.8100105600,8.6266467200,271.8736572265625,4.64,3.7900925,178.3,1710170055000,0.40496913,3.1168761,33341509630575,4.1560183,0,,,
Fix,GPS,45.8099691600,8.6266445400,272.62274169921875,4.36,3.7900925,176.4,1710170056000,0.33286634,2.7484694,33342520157606,3.7238312,0,,,
Fix,GPS,45.8099329900,8.6266236600,272.8084716796875,4.11,3.7900925,210.0,1710170057000,0.3905125,3.9967723,33343510293647,3.4156609,0,,,
Fix,GPS,45.8099214000,8.6265739900,273.4234619140625,4.72,3.7900925,256.0,1710170058000,0.6389053,5.7343183,33344515482293,3.3063388,0,,,
Fix,GPS,45.8099313000,8.6265085600,270.18499755859375,4.88,3.7900925,277.9,1710170059000,0.6747592,5.700522,33345512748386,3.1039147,0,,,
Fix,GPS,45.8099394000,8.6264473000,268.8658447265625,4.17,3.7900925,271.2,1710170060000,0.40607882,3.9712317,33346519884219,2.923027,0,,,
Fix,GPS,45.8099422200,8.6263848700,267.7939453125,4.58,3.7900925,265.0,1710170061000,0.35,3.0185351,33347510987969,2.7729998,0,,,
Fix,GPS,45.8099424900,8.6263171400,267.85430908203125,4.75,3.7900925,263.5,1710170062000,0.5560576,4.6211653,33348524019218,2.7377307,0,,,
Fix,GPS,45.8099441800,8.6262477800,267.517333984375,4.99,3.7900925,267.0,1710170063000,0.34409302,2.6309621,33349515673228,2.7404084,0,,,
Fix,GPS,45.8099554400,8.6261624000,267.106689453125,5.15,3.7900925,266.6,1710170064000,0.16643317,1.1304026,33350528549947,2.5952127,0,,,
Fix,GPS,45.8099606200,8.6260850000,264.65869140625,5.22,3.7900925,262.9,1710170065000,0.14422205,1.0845187,33351506664009,2.5,0,,,
Fix,GPS,45.8099404000,8.6260185500,264.75341796875,5.5,3.7900925,236.3,1710170066000,0.1360147,0.9419549,33352529299269,2.5,0,,,
Fix,GPS,45.8099081800,8.6259677100,264.93359375,5.59,3.7900925,215.5,1710170067000,0.16124515,1.0226578,33353514337133,2.5,0,,,
Fix,GPS,45.8098850100,8.6259084500,264.33941650390625,5.34,3.7900925,237.1,1710170068000,0.1360147,1.0269948,33354513126872,2.5,0,,,
Fix,GPS,45.8098744600,8.6258419600,264.06744384765625,5.47,3.7900925,264.3,1710170069000,0.8405355,8.169878,33355527940934,2.5,0,,,
Fix,GPS,45.8098713200,8.6257678300,263.97747802734375,5.71,3.7900925,270.4,1710170070000,0.16278821,1.3209298,33356523172705,2.5,0,,,
Fix,GPS,45.8098688200,8.6257013800,264.2308349609375,5.43,3.7900925,270.7,1710170071000,0.2607681,1.6944243,33357528672392,2.5,0,,,
Fix,GPS,45.8098648500,8.6256279000,264.15411376953125,5.44,3.7900925,265.2,1710170072000,0.40816665,2.5254083,33358516767912,2.5,0,,,
Fix,GPS,45.8098627300,8.6255552500,263.8170166015625,5.46,3.7900925,267.5,1710170073000,0.116619036,0.72403866,33359511341037,2.5,0,,,
Fix,GPS,45.8098572500,8.6254830600,264.2906494140625,5.39,3.7900925,266.5,1710170074000,0.1118034,0.6640029,33360517217755,2.5,0,,,
Fix,GPS,45.8098515200,8.6254097900,263.8157958984375,5.52,3.7900925,261.7,1710170075000,0.1118034,0.6428899,33361514189422,2.5,0,,,
Fix,GPS,45.8098322700,8.6253450900,263.64569091796875,5.54,3.7900925,239.9,1710170076000,0.1029563,0.61778796,33362522839890,2.5,0,,,
Fix,GPS,45.8097960200,8.6252987500,263.5286865234375,5.49,3.7900925,210.7,1710170077000,0.36619666,2.569384,33363508530619,2.5,0,,,
Fix,GPS,45.8097519400,8.6252758600,264.293212890625,5.53,3.7900925,190.8,1710170078000,0.59908265,3.9098654,33364512864577,2.5,0,,,
Fix,GPS,45.8097068200,8.6252749000,265.328125,5.05,3.7900925,172.9,1710170079000,0.39824617,2.4696605,33365511686191,2.5,0,,,
Fix,GPS,45.8096729600,8.6252904500,265.2271728515625,4.1,3.7900925,149.4,1710170080000,0.14317821,1.0376725,33366528695566,2.5,0,,,
Fix,GPS,45.8096532000,8.6253331000,265.09442138671875,4.39,3.7900925,107.0,1710170081000,0.076157734,0.5819989,33367509114055,2.5,0,,,
Fix,GPS,45.8096595900,8.6253861600,264.8907470703125,4.75,3.7900925,67.8,1710170082000,0.09848858,0.64983773,33368510280721,2.5,0,,,
Fix,GPS,45.8096793800,8.6254355100,264.623291015625,4.81,3.7900925,49.1,1710170083000,0.17,1.0743691,33369508919783,2.5,0,,,
Fix,GPS,45.8096935000,8.6254937200,263.9202880859375,4.72,3.7900925,71.7,1710170084000,0.45343137,4.230925,33370512474835,2.5,0,,,
Fix,GPS,45.8096991400,8.6255568700,263.13360595703125,5.01,3.7900925,85.7,1710170085000,0.21954498,1.4854903,33371519017439,2.5,0,,,
Fix,GPS,45.8097050500,8.6256175900,263.037353515625,5.07,3.7900925,86.6,1710170086000,0.19235384,1.2562953,33372515494834,2.5,0,,,
Fix,GPS,45.8097065600,8.6256815400,262.5311279296875,5.13,3.7900925,88.1,1710170087000,0.1029563,0.6454252,33373517204990,2.5,0,,,
Fix,GPS,45.8097083100,8.6257490600,262.1451416015625,5.2,3.7900925,86.6,1710170088000,0.12529965,0.8122773,33374511038896,2.5,0,,,
Fix,GPS,45.8097101000,8.6258163900,261.49365234375,5.25,3.7900925,87.6,1710170089000,0.14422205,0.98064023,33375532702177,2.5,0,,,
Fix,GPS,45.8097146500,8.6258847600,261.46044921875,5.4,3.7900925,85.4,1710170090000,0.23600848,1.6704217,33376529175510,2.5,0,,,
Fix,GPS,45.8097182600,8.6259534100,261.351318359375,5.36,3.7900925,85.2,1710170091000,0.33600596,2.4846492,33377531504468,2.5,0,,,
Fix,GPS,45.8097198700,8.6260233100,260.98193359375,5.24,3.7900925,89.4,1710170092000,0.24413112,1.7629668,33378512638946,2.5,0,,,
Fix,GPS,45.8097199100,8.6260903400,260.7734375,5.41,3.7900925,92.4,1710170093000,0.12529965,0.7731239,33379507046758,2.5,0,,,
Fix,GPS,45.8097063900,8.6261543200,260.53125,5.26,3.7900925,111.7,1710170094000,0.08944272,0.5465598,33380541459571,2.5,0,,,
Fix,GPS,45.8096786100,8.6262065200,260.3621826171875,5.15,3.7900925,135.9,1710170095000,0.1029563,0.73082215,33381508126549,2.5,0,,,
Fix,GPS,45.8096441300,8.6262434800,260.1627197265625,4.97,3.7900925,149.1,1710170096000,0.26400757,2.1346064,33382523754362,2.5,0,,,
Fix,GPS,45.8096071200,8.6262688800,260.0791015625,4.96,3.7900925,159.6,1710170097000,0.3522783,2.6750162,33383529809726,2.5,0,,,
Fix,GPS,45.8095633000,8.6262834300,259.812744140625,5.33,3.7900925,171.2,1710170098000,0.2147091,1.2279153,33384508175767,2.5,0,,,
Fix,GPS,45.8095193500,8.6262992200,260.0860595703125,5.35,3.7900925,167.9,1710170099000,1.1200446,11.782727,33385521080194,2.5,0,,,
Fix,GPS,45.8094774300,8.6263279700,259.32635498046875,5.44,3.7900925,150.5,1710170100000,0.21095023,1.4151301,33386504804985,2.5,0,,,
Fix,GPS,45.8094446600,8.6263907800,259.6431884765625,6.59,3.7900925,118.2,1710170101000,0.58,3.9928446,33387532013005,2.5,0,,,
Fix,GPS,45.8094352200,8.6264633300,259.62353515625,6.41,3.7900925,94.3,1710170102000,0.13416408,0.6517619,33388512217797,2.5,0,,,
Fix,GPS,45.8094336000,8.6265396000,259.76092529296875,6.15,3.7900925,83.1,1710170103000,0.09433981,0.6066607,33389512993890,2.5,0,,,
Fix,GPS,45.8094335100,8.6266180600,259.6827392578125,5.89,3.7900925,86.3,1710170104000,0.072111025,0.45877585,33390510946650,2.5,0,,,
Fix,GPS,45.8094413800,8.6266895600,259.77947998046875,5.93,3.7900925,85.1,1710170105000,0.25553864,1.4624016,33391520701337,2.5,0,,,
Fix,GPS,45.8094437000,8.6267645200,260.03948974609375,5.95,3.7900925,85.5,1710170106000,0.28301942,1.6938308,33392512345712,2.5,0,,,
Fix,GPS,45.8094441600,8.6268411700,260.34295654296875,5.91,3.7900925,87.2,1710170107000,0.2607681,1.5890309,33393511439045,2.5,0,,,
Fix,GPS,45.8094467600,8.6269137300,261.4632568359375,6.01,3.7900925,86.3,1710170108000,0.29068884,1.4971057,33394501109669,2.5,0,,,
Fix,GPS,45.8094556800,8.6269917400,261.5467529296875,6.07,3.7900925,85.1,1710170109000,1.0262554,8.362576,33395501575919,2.5,0,,,
Fix,GPS,45.8094583300,8.6270651700,261.8399658203125,5.97,3.7900925,88.4,1710170110000,0.30413812,1.6010786,33396504166387,2.5,0,,,
Fix,GPS,45.8094613800,8.6271406200,261.63720703125,6.01,3.7900925,86.2,1710170111000,0.27784887,1.5135022,33397509292064,2.5,0,,,
Fix,GPS,45.8094623800,8.6272178100,261.34197998046875,6.01,3.7900925,87.9,1710170112000,0.09433981,0.53656596,33398531159251,2.5,0,,,
Fix,GPS,45.8094636300,8.6272928000,261.45416259765625,5.96,3.7900925,87.7,1710170113000,0.1029563,0.6233967,33399512475501,2.5,0,,,
Fix,GPS,45.8094644900,8.6273746400,261.4356689453125,6.09,3.7900925,89.0,1710170114000,0.1029563,0.6065969,33400522415917,2.5,0,,,
Fix,GPS,45.8094672700,8.6274515500,261.1956787109375,6.0,3.7900925,87.0,1710170115000,0.12083046,0.64064807,33401520876386,2.5,0,,,
Fix,GPS,45.8094671000,8.6275312700,261.025634765625,6.01,3.7900925,90.0,1710170116000,0.1029563,0.5869905,33402517091489,2.5,0,,,
Fix,GPS,45.8094695300,8.6276081100,260.81982421875,5.94,3.7900925,88.2,1710170117000,0.1029563,0.5943399,33403515014926,2.5,0,,,
Fix,GPS,45.8094730600,8.6276874700,261.04937744140625,5.99,3.7900925,85.9,1710170118000,0.09433981,0.61262786,33404509707999,2.5,0,,,
Fix,GPS,45.8094760000,8.6277628000,261.24951171875,6.16,3.7900925,86.6,1710170119000,0.13453624,1.0173714,33405518530238,2.5,0,,,
Fix,GPS,45.8094794500,8.6278403400,261.09625244140625,6.12,3.7900925,86.5,1710170120000,0.13453624,0.9586872,33406520527477,2.5,0,,,
Fix,GPS,45.8094811600,8.6279201200,260.70947265625,6.06,3.7900925,89.2,1710170121000,0.0781025,0.5566715,33407510218935,2.5,0,,,
Fix,GPS,45.8094850200,8.6279963400,260.43701171875,5.98,3.7900925,86.5,1710170122000,0.092195444,0.68759245,33408514286956,2.5,0,,,
Fix,GPS,45.8094910100,8.6280752300,260.611328125,6.16,3.7900925,83.2,1710170123000,0.086023256,0.62421805,33409518825549,2.5,0,,,
Fix,GPS,45.8095013400,8.6281513500,260.147216796875,5.84,3.7900925,75.8,1710170124000,0.086023256,0.589151,33410520516486,2.5,0,,,
Fix,GPS,45.8095299900,8.6282224700,259.9217529296875,6.09,3.7900925,52.9,1710170125000,0.086023256,0.5710597,33411520181955,2.5,0,,,
Fix,GPS,45.8095682800,8.6282719500,259.8148193359375,6.02,3.7900925,33.3,1710170126000,0.13416408,0.72742563,33412513600652,2.5,0,,,
Fix,GPS,45.8096168800,8.6282957600,259.561279296875,6.14,3.7900925,11.4,1710170127000,0.16552946,0.76069075,33413510249350,2.5,0,,,
Fix,GPS,45.8096720100,8.6283062200,259.1826171875,6.42,3.7900925,1.5,1710170128000,0.4738143,3.3947532,33414508392631,2.5,0,,,
Fix,GPS,45.8097246100,8.6283084800,259.39764404296875,6.11,3.7900925,3.9,1710170129000,1.1098198,8.302639,33415515374036,2.5,0,,,
Fix,GPS,45.8097792700,8.6283154000,259.23504638671875,6.55,3.7900925,359.9,1710170130000,0.29068884,1.9482756,33416514087421,2.5,0,,,
Fix,GPS,45.8098291600,8.6283101500,259.440185546875,5.58,3.7900925,358.2,1710170131000,0.4860041,3.439038,33417514884504,2.5,0,,,
Fix,GPS,45.8098769600,8.6283055000,258.70257568359375,5.37,3.7900925,354.6,1710170132000,0.48010415,3.4319894,33418531064400,2.5,0,,,
Fix,GPS,45.8099198500,8.6282976000,260.67950439453125,4.99,3.7900925,356.4,1710170133000,0.3,2.3996942,33419512938983,2.5,0,,,
Fix,GPS,45.8099622900,8.6282933200,260.5572509765625,4.54,3.7900925,355.2,1710170134000,0.12529965,0.8932582,33420511576118,2.5,0,,,
Fix,GPS,45.8100039200,8.6282819000,260.4188232421875,4.2,3.7900925,354.8,1710170135000,0.12529965,0.991938,33421508064399,2.5,0,,,
Fix,GPS,45.8100421400,8.6282780600,260.27734375,4.32,3.7900925,357.2,1710170136000,0.1118034,0.8792926,33422511244034,2.5,0,,,
Fix,GPS,45.8100820800,8.6282744300,260.4700927734375,4.27,3.7900925,357.2,1710170137000,0.1118034,0.831441,33423503257002,2.5,0,,,
Fix,GPS,45.8101243800,8.6282686400,260.622802734375,4.44,3.7900925,357.9,1710170138000,0.5093133,5.517353,33424516067314,2.5,0,,,
Fix,GPS,45.8101647600,8.6282648400,260.539306640625,4.47,3.7900925,357.6,1710170139000,0.12529965,0.8921419,33425515536689,2.5,0,,,
Fix,GPS,45.8102064200,8.6282596800,260.4974365234375,4.68,3.7900925,355.7,1710170140000,0.13416408,0.8905939,33426519611428,2.5,0,,,
Fix,GPS,45.8102502800,8.6282502400,260.5277099609375,5.04,3.7900925,357.5,1710170141000,0.16155495,0.8284754,33427521618928,2.5,0,,,
Fix,GPS,45.8102940600,8.6282486400,260.0748291015625,5.14,3.7900925,357.6,1710170142000,0.19697715,1.015512,33428509697000,2.5,0,,,
Fix,GPS,45.8103397200,8.6282424600,260.050048828125,5.34,3.7900925,357.8,1710170143000,0.18384777,0.9592448,33429513456531,2.5,0,,,
Fix,GPS,45.8103877300,8.6282395500,260.111328125,5.42,3.7900925,357.9,1710170144000,0.17204651,1.2637625,33430519531635,2.5,0,,,
Fix,GPS,45.8104343200,8.6282324000,259.9906005859375,5.41,3.7900925,355.1,1710170145000,0.5307542,4.7678995,33431510969864,2.5,0,,,
Fix,GPS,45.8104838400,8.6282289500,259.7103271484375,5.53,3.7900925,357.5,1710170146000,1.1250777,11.416602,33432522763145,2.5,0,,,
Fix,GPS,45.8105325100,8.6282154900,259.5902099609375,5.55,3.7900925,353.5,1710170147000,1.2296747,12.285008,33433509938873,2.5,0,,,
Fix,GPS,45.8105841900,8.6282187500,259.677490234375,5.96,3.7900925,358.8,1710170148000,0.7427651,5.526096,33434513597206,2.5,0,,,
Fix,GPS,45.8106408800,8.6282172100,259.6243896484375,5.97,3.7900925,356.4,1710170149000,1.1250777,10.574034,33435518013352,2.5,0,,,
Fix,GPS,45.8106915500,8.6282142800,259.84637451171875,6.08,3.7900925,357.4,1710170150000,1.1027693,8.340408,33436522647205,2.5,0,,,
Fix,GPS,45.8107493600,8.6282105900,259.802734375,6.26,3.7900925,355.2,1710170151000,0.086023256,0.55853045,33437522074236,2.5,0,,,
Fix,GPS,45.8108046700,8.6282099700,259.844482421875,6.09,3.7900925,358.9,1710170152000,0.22203603,1.4730437,33438530456007,2.5,0,,,
Fix,GPS,45.8108595600,8.6282070500,259.5614013671875,5.85,3.7900925,357.1,1710170153000,0.22203603,1.5188869,33439520812673,2.5,0,,,
Fix,GPS,45.8109133300,8.6282079800,259.804443359375,5.73,3.7900925,357.4,1710170154000,0.072111025,0.5404503,33440511805121,2.5,0,,,
Fix,GPS,45.8109644400,8.6282046900,259.901123046875,5.49,3.7900925,354.7,1710170155000,0.06403124,0.5269243,33441516294183,2.5,0,,,
Fix,GPS,45.8110119100,8.6282016000,260.044921875,5.64,3.7900925,356.6,1710170156000,0.06403124,0.5606428,33442520428922,2.5,0,,,
Fix,GPS,45.8110648200,8.6282004900,260.09100341796875,5.82,3.7900925,358.5,1710170157000,0.086023256,0.6545725,33443515828505,2.5,0,,,
Fix,GPS,45.8111149900,8.6281968500,259.6580810546875,5.7,3.7900925,358.6,1710170158000,0.086023256,0.6568899,33444508131057,2.5,0,,,
Fix,GPS,45.8111688200,8.6281937600,259.1707763671875,5.86,3.7900925,357.7,1710170159000,0.13453624,1.0284487,33445512003712,2.5,0,,,
Fix,GPS,45.8112248900,8.6281891600,259.035400390625,6.67,3.7900925,356.0,1710170160000,0.16278821,1.2526557,33446506336577,2.5,0,,,
Fix,GPS,45.8112833200,8.6281845400,258.90380859375,6.6,3.7900925,356.6,1710170161000,0.114017546,0.90746856,33447522213764,2.5,0,,,
Fix,GPS,45.8113424900,8.6281805300,258.9329833984375,6.54,3.7900925,357.5,1710170162000,0.086023256,0.52395886,33448528855743,2.5,0,,,
Fix,GPS,45.8113968500,8.6281770800,258.49127197265625,6.63,3.7900925,356.1,1710170163000,0.092195444,0.58934116,33449520921471,2.5,0,,,
Fix,GPS,45.8114568300,8.6281759300,259.10198974609375,6.48,3.7900925,358.2,1710170164000,0.0781025,0.53537637,33450513275429,2.5,0,,,
Fix,GPS,45.8115180900,8.6281728800,259.114501953125,6.46,3.7900925,357.1,1710170165000,0.058309518,0.3933784,33451524812773,2.5,0,,,
Fix,GPS,45.8115776500,8.6281666800,259.0989990234375,6.37,3.7900925,356.3,1710170166000,0.058309518,0.3890455,33452517237147,2.5,0,,,
Fix,GPS,45.8116364600,8.6281617900,259.07080078125,6.34,3.7900925,357.0,1710170167000,0.080622576,0.4303354,33453517770897,2.5,0,,,
Fix,GPS,45.8116924800,8.6281584400,258.9454345703125,6.3,3.7900925,357.9,1710170168000,0.080622576,0.45767352,33454511674126,2.5,0,,,
Fix,GPS,45.8117474100,8.6281720400,258.775146484375,6.19,3.7900925,14.9,1710170169000,0.1029563,0.6077292,33455516131313,2.5,0,,,
Fix,GPS,45.8117974700,8.6282082300,258.93896484375,6.17,3.7900925,36.1,1710170170000,0.1118034,0.62235785,33456538799542,2.5,0,,,
Fix,GPS,45.8118469500,8.6282327100,258.6441650390625,5.88,3.7900925,17.9,1710170171000,0.080622576,0.5143407,33457513477197,2.5,0,,,
Fix,GPS,45.8118967000,8.6282212200,258.1866455078125,6.01,3.7900925,343.8,1710170172000,0.072111025,0.4928766,33458520934072,2.5,0,,,
Fix,GPS,45.8119375000,8.6281776500,258.1806640625,6.23,3.7900925,311.7,1710170173000,0.080622576,0.5044272,33459526497040,2.5,0,,,
Fix,GPS,45.8119555200,8.6281116400,258.3988037109375,6.28,3.7900925,277.0,1710170174000,0.26925823,1.4445466,33460519905373,2.5,0,,,
Fix,GPS,45.8119450500,8.6280380900,258.6131591796875,6.72,3.7900925,243.6,1710170175000,0.12206556,0.6848472,33461515282613,2.5,0,,,
Fix,GPS,45.8119210600,8.6279758800,258.624755859375,5.97,3.7900925,230.7,1710170176000,0.10816654,0.7128659,33462517676362,2.5,0,,,
Fix,GPS,45.8119025400,8.6279088400,258.6290283203125,5.98,3.7900925,247.7,1710170177000,0.10816654,0.7046612,33463512149018,2.5,0,,,
Fix,GPS,45.8118949700,8.6278318900,258.6634521484375,6.29,3.7900925,265.0,1710170178000,0.09899495,0.74674743,33464515967247,2.5,0,,,
Fix,GPS,45.8118890000,8.6277457600,258.6658935546875,6.5,3.7900925,269.2,1710170179000,0.11313708,0.8396268,33465505742559,2.5,0,,,
Fix,GPS,45.8118879800,8.6276654200,258.5780029296875,6.69,3.7900925,267.6,1710170180000,0.10630146,0.688543,33466526603965,2.5,0,,,
Fix,GPS,45.8118839800,8.6275759400,258.7042236328125,7.0,3.7900925,266.2,1710170181000,0.12041595,0.7872896,33467509406829,2.5,0,,,
Fix,GPS,45.8118835900,8.6274856400,258.6929931640625,6.98,3.7900925,268.8,1710170182000,0.14142136,0.94659007,33468512411881,2.5,0,,,
Fix,GPS,45.8118810500,8.6273973600,258.6480712890625,7.09,3.7900925,268.8,1710170183000,0.12041595,0.78732735,33469515058495,2.5,0,,,
Fix,GPS,45.8118802900,8.6273138200,258.74725341796875,6.67,3.7900925,266.5,1710170184000,0.10630146,0.75667185,33470518266099,2.5,0,,,
Fix,GPS,45.8118805000,8.6272652900,258.23687744140625,2.96,3.7900925,265.7,1710170185000,0.084852815,1.4014937,33471514363234,2.5,0,,,
Fix,GPS,45.8118819600,8.6272361500,258.20880126953125,1.02,3.7900925,278.1,1710170186000,0.092195444,4.3162756,33472520809015,2.5,0,,,
Fix,GPS,45.8118795000,8.6271956300,258.522705078125,2.36,3.7900925,267.3,1710170187000,0.10630146,1.9473429,33473499173129,2.5,0,,,
Fix,GPS,45.8118733400,8.6271623200,258.4049072265625,2.91,3.7900925,259.7,1710170188000,0.080622576,1.0762721,33474509279326,2.5,0,,,
Fix,GPS,45.8118746800,8.6271247500,258.2283935546875,3.05,3.7900925,269.7,1710170189000,0.5200961,8.832465,33475513215732,2.5,0,,,
Fix,GPS,45.8118748900,8.6270827700,258.2200927734375,3.5,3.7900925,272.6,1710170190000,0.086023256,0.93484044,33476501437451,2.5,0,,,
Fix,GPS,45.8118716700,8.6270357500,258.34649658203125,3.81,3.7900925,266.1,1710170191000,0.092195444,1.1488192,33477519591877,2.5,0,,,
Fix,GPS,45.8118656000,8.6269835100,258.3231201171875,4.09,3.7900925,264.3,1710170192000,0.092195444,1.0348461,33478523233439,2.5,0,,,
Fix,GPS,45.8118608400,8.6269281000,258.3885498046875,4.27,3.7900925,266.5,1710170193000,0.086023256,0.8340336,33479520342189,2.5,0,,,
Fix,GPS,45.8118590600,8.6268718100,258.3663330078125,4.43,3.7900925,267.8,1710170194000,0.086023256,0.78844094,33480515913751,2.5,0,,,
Fix,GPS,45.8118597500,8.6268168800,258.0462646484375,4.48,3.7900925,269.4,1710170195000,0.1,0.9441315,33481519067136,2.5,0,,,
Fix,GPS,45.8118582100,8.6267596400,258.23406982421875,4.74,3.7900925,267.2,1710170196000,0.1,0.8331015,33482522563490,2.5,0,,,
Fix,GPS,45.8118550800,8.6267020900,258.20697021484375,5.02,3.7900925,266.3,1710170197000,0.114017546,0.9892054,33483515749583,2.5,0,,,
Fix,GPS,45.8118553800,8.6266363900,258.2017822265625,5.11,3.7900925,268.6,1710170198000,0.12806249,1.0162877,33484514055573,2.5,0,,,
Fix,GPS,45.8118498700,8.6265678600,258.04833984375,5.62,3.7900925,263.0,1710170199000,0.5420332,3.836768,33485518521666,2.5,0,,,
Fix,GPS,45.8118468600,8.6264956000,258.24114990234375,5.6,3.7900925,267.3,1710170200000,0.22022715,1.6648089,33486517505103,2.5,0,,,
Fix,GPS,45.8118442000,8.6264245200,258.23052978515625,5.7,3.7900925,268.7,1710170201000,0.12806249,1.0113975,33487516992759,2.5,0,,,
Fix,GPS,45.8118433600,8.6263503300,258.2720947265625,5.75,3.7900925,268.9,1710170202000,0.13453624,1.0227032,33488520915154,2.5,0,,,
Fix,GPS,45.8118387100,8.6262703200,258.5908203125,5.83,3.7900925,264.3,1710170203000,0.092195444,0.7315174,33489516275310,2.5,0,,,
Fix,GPS,45.8118349900,8.6261943700,258.639404296875,5.9,3.7900925,266.5,1710170204000,0.114017546,0.8431058,33490529629216,2.5,0,,,
Fix,GPS,45.8118311500,8.6261179300,258.5892333984375,5.86,3.7900925,267.2,1710170205000,0.114017546,0.80167496,33491520233174,2.5,0,,,
Fix,GPS,45.8118304900,8.6260428400,258.6739501953125,6.07,3.7900925,266.1,1710170206000,0.086023256,0.55135417,33492512590622,2.5,0,,,
Fix,GPS,45.8118289700,8.6259642200,258.8885498046875,5.96,3.7900925,266.7,1710170207000,0.072111025,0.51657003,33493518621455,2.5,0,,,
Fix,GPS,45.8118248300,8.6258830500,258.88720703125,6.18,3.7900925,266.2,1710170208000,0.086023256,0.5410023,33494528295621,2.5,0,,,
Fix,GPS,45.8118222000,8.6258038600,259.2066650390625,6.17,3.7900925,267.0,1710170209000,0.1,0.6267837,33495510905308,2.5,0,,,
Fix,GPS,45.8118209400,8.6257276300,259.21502685546875,5.93,3.7900925,267.4,1710170210000,0.09433981,0.5965516,33496515424370,2.5,0,,,
Fix,GPS,45.8118177500,8.6256508300,259.14697265625,6.06,3.7900925,267.3,1710170211000,0.24839485,1.7246233,33497525323380,2.5,0,,,
Fix,GPS,45.8118126500,8.6255773400,259.0560302734375,5.88,3.7900925,266.0,1710170212000,0.25612497,1.8181646,33498505740099,2.5,0,,,
Fix,GPS,45.8118111400,8.6255208300,258.75469970703125,4.06,3.7900925,266.7,1710170213000,0.14764823,1.1206293,33499518386504,2.5,0,,,
Fix,GPS,45.8118114200,8.6254998100,258.4620361328125,0.36,3.7900925,266.8,1710170214000,0.45221677,16.17532,33500520642129,2.5,0,,,
Fix,GPS,45.8118132300,8.6254761700,257.71002197265625,1.43,3.7900925,281.3,1710170215000,1.0744766,11.3082285,33501530057858,2.5,0,,,
Fix,GPS,45.8118046200,8.6254425100,257.95745849609375,2.91,3.7900925,258.1,1710170216000,0.20808652,2.8226206,33502524671868,2.5,0,,,
Fix,GPS,45.8118032100,8.6254059800,257.8819580078125,3.38,3.7900925,269.1,1710170217000,0.17204651,1.9863486,33503514478899,2.5,0,,,
Fix,GPS,45.8117991400,8.6253630400,257.2301025390625,3.6,3.7900925,264.7,1710170218000,0.15264338,1.4668945,33504509088065,2.5,0,,,
Fix,GPS,45.8117957100,8.6253148200,257.930908203125,4.04,3.7900925,266.8,1710170219000,0.22022715,2.2635841,33505519343690,2.5,0,,,
Fix,GPS,45.8117947000,8.6252615600,258.0692138671875,4.41,3.7900925,270.2,1710170220000,0.21213204,2.2890403,33506519195512,2.5,0,,,
Fix,GPS,45.8117911600,8.6252041100,258.0240478515625,4.6,3.7900925,266.2,1710170221000,0.12806249,1.1620091,33507502507699,2.5,0,,,
Fix,GPS,45.8117859100,8.6251425400,257.5242919921875,4.91,3.7900925,265.5,1710170222000,0.13892443,1.0110459,33508502760459,2.5,0,,,
Fix,GPS,45.8117816800,8.6250797300,257.28985595703125,4.84,3.7900925,265.6,1710170223000,0.12206556,0.97242343,33509527903167,2.5,0,,,
Fix,GPS,45.8117777200,8.6250096600,257.2764892578125,5.29,3.7900925,266.6,1710170224000,0.114017546,0.8673158,33510516102750,2.5,0,,,
