$GPRMC,085646.00,A,4548.66683,N,00837.72747,E,0.009,,120324,,,A*7B

$GPRMC,085646.10,A,4548.66683,N,00837.72747,E,0.035,,120324,,,A*75

$GPRMC,085646.20,A,4548.66682,N,00837.72747,E,0.033,,120324,,,A*71

$GPRMC,085646.30,A,4548.66682,N,00837.72747,E,0.072,,120324,,,A*75

$GPRMC,085646.40,A,4548.66683,N,00837.72748,E,0.060,,120324,,,A*7F

$GPRMC,085646.50,A,4548.66683,N,00837.72748,E,0.060,,120324,,,A*7E

$GPRMC,085646.60,A,4548.66684,N,00837.72748,E,0.085,,120324,,,A*71

$GPRMC,085646.70,A,4548.66684,N,00837.72748,E,0.148,,120324,,,A*70

$GPRMC,085646.80,A,4548.66684,N,00837.72748,E,0.041,,120324,,,A*77

$GPRMC,085646.90,A,4548.66684,N,00837.72748,E,0.071,,120324,,,A*75

$GPRMC,085647.00,A,4548.66683,N,00837.72748,E,0.055,,120324,,,A*7C

$GPRMC,085647.10,A,4548.66683,N,00837.72747,E,0.070,,120324,,,A*75

$GPRMC,085647.20,A,4548.66683,N,00837.72747,E,0.056,,120324,,,A*72

$GPRMC,085647.30,A,4548.66684,N,00837.72747,E,0.051,,120324,,,A*73

$GPRMC,085647.40,A,4548.66683,N,00837.72747,E,0.043,,120324,,,A*70

$GPRMC,085647.50,A,4548.66684,N,00837.72747,E,0.019,,120324,,,A*79

$GPRMC,085647.60,A,4548.66684,N,00837.72746,E,0.036,,120324,,,A*76

$GPRMC,085647.70,A,4548.66684,N,00837.72746,E,0.024,,120324,,,A*74

$GPRMC,085647.80,A,4548.66683,N,00837.72746,E,0.020,,120324,,,A*78

$GPRMC,085647.90,A,4548.66683,N,00837.72746,E,0.055,,120324,,,A*7B

$GPRMC,085648.00,A,4548.66684,N,00837.72746,E,0.063,,120324,,,A*7F

$GPRMC,085648.10,A,4548.66684,N,00837.72746,E,0.070,,120324,,,A*7C

$GPRMC,085648.20,A,4548.66683,N,00837.72746,E,0.035,,120324,,,A*79

$GPRMC,085648.30,A,4548.66684,N,00837.72745,E,0.051,,120324,,,A*7E

$GPRMC,085648.40,A,4548.66684,N,00837.72746,E,0.060,,120324,,,A*78

$GPRMC,085648.50,A,4548.66683,N,00837.72746,E,0.044,,120324,,,A*78

$GPRMC,085648.60,A,4548.66683,N,00837.72745,E,0.018,,120324,,,A*71

$GPRMC,085648.70,A,4548.66683,N,00837.72745,E,0.032,,120324,,,A*78

$GPRMC,085648.80,A,4548.66682,N,00837.72745,E,0.069,,120324,,,A*78

$GPRMC,085648.90,A,4548.66682,N,00837.72745,E,0.038,,120324,,,A*7D

$GPRMC,085649.00,A,4548.66682,N,00837.72745,E,0.042,,120324,,,A*78

$GPRMC,085649.10,A,4548.66681,N,00837.72745,E,0.059,,120324,,,A*70

$GPRMC,085649.20,A,4548.66680,N,00837.72745,E,0.084,,120324,,,A*72

$GPRMC,085649.30,A,4548.66680,N,00837.72744,E,0.037,,120324,,,A*7A

$GPRMC,085649.40,A,4548.66680,N,00837.72744,E,0.032,,120324,,,A*78

$GPRMC,085649.50,A,4548.66679,N,00837.72745,E,0.097,,120324,,,A*71

$GPRMC,085649.60,A,4548.66680,N,00837.72744,E,0.036,,120324,,,A*7E

$GPRMC,085649.70,A,4548.66679,N,00837.72744,E,0.008,,120324,,,A*74

$GPRMC,085649.80,A,4548.66678,N,00837.72744,E,0.081,,120324,,,A*7B

$GPRMC,085649.90,A,4548.66678,N,00837.72744,E,0.019,,120324,,,A*7B

$GPRMC,085650.00,A,4548.66679,N,00837.72744,E,0.131,,120324,,,A*70

$GPRMC,085650.10,A,4548.66677,N,00837.72743,E,0.014,,120324,,,A*7E

$GPRMC,085650.20,A,4548.66678,N,00837.72743,E,0.087,,120324,,,A*78

$GPRMC,085650.30,A,4548.66677,N,00837.72743,E,0.062,,120324,,,A*7D

$GPRMC,085650.40,A,4548.66678,N,00837.72743,E,0.096,,120324,,,A*7E

$GPRMC,085650.50,A,4548.66677,N,00837.72743,E,0.053,,120324,,,A*79

$GPRMC,085650.60,A,4548.66678,N,00837.72743,E,0.129,,120324,,,A*79

$GPRMC,085650.70,A,4548.66678,N,00837.72743,E,0.082,,120324,,,A*78

$GPRMC,085650.80,A,4548.66677,N,00837.72743,E,0.041,,120324,,,A*77

$GPRMC,085650.90,A,4548.66677,N,00837.72743,E,0.084,,120324,,,A*7F

$GPRMC,085651.00,A,4548.66678,N,00837.72742,E,0.139,,120324,,,A*7E

$GPRMC,085651.10,A,4548.66676,N,00837.72742,E,0.045,,120324,,,A*7B

$GPRMC,085651.20,A,4548.66676,N,00837.72742,E,0.018,,120324,,,A*70

$GPRMC,085651.30,A,4548.66675,N,00837.72742,E,0.042,,120324,,,A*7D

$GPRMC,085651.40,A,4548.66676,N,00837.72743,E,0.116,,120324,,,A*78

$GPRMC,085651.50,A,4548.66675,N,00837.72743,E,0.030,,120324,,,A*7F

$GPRMC,085651.60,A,4548.66674,N,00837.72743,E,0.026,,120324,,,A*7A

$GPRMC,085651.70,A,4548.66674,N,00837.72743,E,0.066,,120324,,,A*7F

$GPRMC,085651.80,A,4548.66673,N,00837.72742,E,0.041,,120324,,,A*73

$GPRMC,085651.90,A,4548.66673,N,00837.72742,E,0.051,,120324,,,A*73

$GPRMC,085652.00,A,4548.66673,N,00837.72741,E,0.098,,120324,,,A*7F

$GPRMC,085652.10,A,4548.66671,N,00837.72742,E,0.137,,120324,,,A*7B

$GPRMC,085652.20,A,4548.66671,N,00837.72742,E,0.101,,120324,,,A*7D

$GPRMC,085652.30,A,4548.66671,N,00837.72742,E,0.041,,120324,,,A*79

$GPRMC,085652.40,A,4548.66671,N,00837.72741,E,0.098,,120324,,,A*79

$GPRMC,085652.50,A,4548.66670,N,00837.72742,E,0.084,,120324,,,A*77

$GPRMC,085652.60,A,4548.66670,N,00837.72743,E,0.089,,120324,,,A*78

$GPRMC,085652.70,A,4548.66669,N,00837.72743,E,0.081,,120324,,,A*79

$GPRMC,085652.80,A,4548.66666,N,00837.72744,E,0.292,,120324,,,A*7E

$GPRMC,085652.90,A,4548.66665,N,00837.72745,E,0.219,,120324,,,A*7E

$GPRMC,085653.00,A,4548.66664,N,00837.72746,E,0.052,,120324,,,A*79

$GPRMC,085653.10,A,4548.66661,N,00837.72747,E,0.099,,120324,,,A*7B

$GPRMC,085653.20,A,4548.66659,N,00837.72748,E,0.126,,120324,,,A*79

$GPRMC,085653.30,A,4548.66659,N,00837.72750,E,0.082,,120324,,,A*7E

$GPRMC,085653.40,A,4548.66657,N,00837.72752,E,0.072,,120324,,,A*7A

$GPRMC,085653.50,A,4548.66655,N,00837.72752,E,0.062,,120324,,,A*78

$GPRMC,085653.60,A,4548.66654,N,00837.72754,E,0.043,,120324,,,A*7F

$GPRMC,085653.70,A,4548.66652,N,00837.72755,E,0.022,,120324,,,A*7E

$GPRMC,085653.80,A,4548.66650,N,00837.72757,E,0.021,,120324,,,A*72

$GPRMC,085653.90,A,4548.66647,N,00837.72759,E,0.114,,120324,,,A*7C

$GPRMC,085654.00,A,4548.66645,N,00837.72760,E,0.123,,120324,,,A*7E

$GPRMC,085654.10,A,4548.66643,N,00837.72762,E,0.087,,120324,,,A*74

$GPRMC,085654.20,A,4548.66641,N,00837.72764,E,0.037,,120324,,,A*78

$GPRMC,085654.30,A,4548.66638,N,00837.72766,E,0.076,,120324,,,A*70

$GPRMC,085654.40,A,4548.66635,N,00837.72768,E,0.087,,120324,,,A*7A

$GPRMC,085654.50,A,4548.66634,N,00837.72770,E,0.122,,120324,,,A*7D

$GPRMC,085654.60,A,4548.66634,N,00837.72772,E,0.212,,120324,,,A*7C

$GPRMC,085654.70,A,4548.66635,N,00837.72774,E,0.129,,120324,,,A*71

$GPRMC,085654.80,A,4548.66635,N,00837.72776,E,0.122,,120324,,,A*77

$GPRMC,085654.90,A,4548.66634,N,00837.72778,E,0.175,,120324,,,A*7B

$GPRMC,085655.00,A,4548.66631,N,00837.72779,E,0.087,,120324,,,A*7B

$GPRMC,085655.10,A,4548.66630,N,00837.72780,E,0.056,,120324,,,A*71

$GPRMC,085655.20,A,4548.66631,N,00837.72781,E,0.191,,120324,,,A*78

$GPRMC,085655.30,A,4548.66629,N,00837.72782,E,0.162,,120324,,,A*7F

$GPRMC,085655.40,A,4548.66623,N,00837.72782,E,0.091,,120324,,,A*7F

$GPRMC,085655.50,A,4548.66622,N,00837.72782,E,0.084,,120324,,,A*7B

$GPRMC,085655.60,A,4548.66616,N,00837.72782,E,0.095,,120324,,,A*7F

$GPRMC,085655.70,A,4548.66608,N,00837.72783,E,0.059,,120324,,,A*70

$GPRMC,085655.80,A,4548.66602,N,00837.72783,E,0.097,,120324,,,A*77

$GPRMC,085655.90,A,4548.66599,N,00837.72785,E,0.061,,120324,,,A*78

$GPRMC,085656.00,A,4548.66593,N,00837.72786,E,0.241,,120324,,,A*7B

$GPRMC,085656.10,A,4548.66588,N,00837.72787,E,0.168,,120324,,,A*79

$GPRMC,085656.20,A,4548.66586,N,00837.72787,E,0.191,,120324,,,A*72

$GPRMC,085656.30,A,4548.66583,N,00837.72788,E,0.345,,120324,,,A*72

$GPRMC,085656.40,A,4548.66583,N,00837.72789,E,0.115,,120324,,,A*73

$GPRMC,085656.50,A,4548.66584,N,00837.72788,E,0.084,,120324,,,A*7D

$GPRMC,085656.60,A,4548.66581,N,00837.72788,E,0.246,,120324,,,A*77

$GPRMC,085656.70,A,4548.66580,N,00837.72789,E,0.313,,120324,,,A*77

$GPRMC,085656.80,A,4548.66581,N,00837.72790,E,0.153,,120324,,,A*77

$GPRMC,085656.90,A,4548.66577,N,00837.72792,E,0.123,,120324,,,A*7A

$GPRMC,085657.00,A,4548.66574,N,00837.72793,E,0.049,,120324,,,A*7D

$GPRMC,085657.10,A,4548.66571,N,00837.72794,E,0.073,,120324,,,A*77

$GPRMC,085657.20,A,4548.66564,N,00837.72794,E,0.180,,120324,,,A*7D

$GPRMC,085657.30,A,4548.66562,N,00837.72796,E,0.201,,120324,,,A*72

$GPRMC,085657.40,A,4548.66555,N,00837.72796,E,0.162,,120324,,,A*77

$GPRMC,085657.50,A,4548.66550,N,00837.72798,E,0.140,,120324,,,A*7D

$GPRMC,085657.60,A,4548.66545,N,00837.72799,E,0.030,,120324,,,A*7D

$GPRMC,085657.70,A,4548.66543,N,00837.72801,E,0.424,8.76,120324,,,A*62

$GPRMC,085657.80,A,4548.66537,N,00837.72804,E,0.387,,120324,,,A*72

$GPRMC,085657.90,A,4548.66531,N,00837.72807,E,0.298,,120324,,,A*79

$GPRMC,085658.00,A,4548.66524,N,00837.72808,E,0.182,,120324,,,A*7C

$GPRMC,085658.10,A,4548.66518,N,00837.72810,E,0.118,,120324,,,A*78

$GPRMC,085658.20,A,4548.66511,N,00837.72812,E,0.150,,120324,,,A*7C

$GPRMC,085658.30,A,4548.66502,N,00837.72812,E,0.039,,120324,,,A*71

$GPRMC,085658.40,A,4548.66497,N,00837.72813,E,0.047,,120324,,,A*73

$GPRMC,085658.50,A,4548.66491,N,00837.72814,E,0.069,,120324,,,A*7F

$GPRMC,085658.60,A,4548.66484,N,00837.72815,E,0.098,,120324,,,A*77

$GPRMC,085658.70,A,4548.66479,N,00837.72816,E,0.037,,120324,,,A*72

$GPRMC,085658.80,A,4548.66474,N,00837.72817,E,0.037,,120324,,,A*71

$GPRMC,085658.90,A,4548.66469,N,00837.72818,E,0.111,,120324,,,A*76

$GPRMC,085659.00,A,4548.66463,N,00837.72819,E,0.029,,120324,,,A*7F

$GPRMC,085659.10,A,4548.66456,N,00837.72821,E,0.042,,120324,,,A*7E

$GPRMC,085659.20,A,4548.66449,N,00837.72823,E,0.096,,120324,,,A*78

$GPRMC,085659.30,A,4548.66441,N,00837.72825,E,0.037,,120324,,,A*7C

$GPRMC,085659.40,A,4548.66434,N,00837.72827,E,0.018,,120324,,,A*76

$GPRMC,085659.50,A,4548.66426,N,00837.72829,E,0.155,,120324,,,A*72

$GPRMC,085659.60,A,4548.66422,N,00837.72830,E,0.088,,120324,,,A*7C

$GPRMC,085659.70,A,4548.66417,N,00837.72831,E,0.116,,120324,,,A*7C

$GPRMC,085659.80,A,4548.66410,N,00837.72830,E,0.181,,120324,,,A*7B

$GPRMC,085659.90,A,4548.66401,N,00837.72832,E,0.005,,120324,,,A*75

$GPRMC,085700.00,A,4548.66392,N,00837.72833,E,0.018,,120324,,,A*71

$GPRMC,085700.10,A,4548.66383,N,00837.72834,E,0.115,,120324,,,A*7B

$GPRMC,085700.20,A,4548.66375,N,00837.72834,E,0.115,,120324,,,A*71

$GPRMC,085700.30,A,4548.66367,N,00837.72836,E,0.023,,120324,,,A*75

$GPRMC,085700.40,A,4548.66356,N,00837.72834,E,0.181,,120324,,,A*7B

$GPRMC,085700.50,A,4548.66346,N,00837.72834,E,0.027,,120324,,,A*76

$GPRMC,085700.60,A,4548.66339,N,00837.72837,E,0.128,,120324,,,A*70

$GPRMC,085700.70,A,4548.66328,N,00837.72835,E,0.143,,120324,,,A*7E

$GPRMC,085700.80,A,4548.66317,N,00837.72836,E,0.093,,120324,,,A*72

$GPRMC,085700.90,A,4548.66311,N,00837.72836,E,0.022,,120324,,,A*7F

$GPRMC,085701.00,A,4548.66309,N,00837.72838,E,0.061,,120324,,,A*77

$GPRMC,085701.10,A,4548.66307,N,00837.72840,E,0.034,,120324,,,A*77

$GPRMC,085701.20,A,4548.66304,N,00837.72841,E,0.041,,120324,,,A*74

$GPRMC,085701.30,A,4548.66302,N,00837.72842,E,0.047,,120324,,,A*76

$GPRMC,085701.40,A,4548.66298,N,00837.72843,E,0.037,,120324,,,A*75

$GPRMC,085701.50,A,4548.66295,N,00837.72845,E,0.105,,120324,,,A*7F

$GPRMC,085701.60,A,4548.66292,N,00837.72846,E,0.052,,120324,,,A*7B

$GPRMC,085701.70,A,4548.66290,N,00837.72847,E,0.056,,120324,,,A*7D

$GPRMC,085701.80,A,4548.66286,N,00837.72848,E,0.037,,120324,,,A*7D

$GPRMC,085701.90,A,4548.66281,N,00837.72849,E,0.045,,120324,,,A*7F

$GPRMC,085702.00,A,4548.66278,N,00837.72850,E,0.099,,120324,,,A*7A

$GPRMC,085702.10,A,4548.66276,N,00837.72851,E,0.033,,120324,,,A*74

$GPRMC,085702.20,A,4548.66274,N,00837.72852,E,0.028,,120324,,,A*7C

$GPRMC,085702.30,A,4548.66272,N,00837.72853,E,0.052,,120324,,,A*77

$GPRMC,085702.40,A,4548.66270,N,00837.72854,E,0.100,,120324,,,A*73

$GPRMC,085702.50,A,4548.66268,N,00837.72855,E,0.025,,120324,,,A*7C

$GPRMC,085702.60,A,4548.66266,N,00837.72855,E,0.031,,120324,,,A*74

$GPRMC,085702.70,A,4548.66264,N,00837.72855,E,0.041,,120324,,,A*70

$GPRMC,085702.80,A,4548.66262,N,00837.72856,E,0.035,,120324,,,A*79

$GPRMC,085702.90,A,4548.66259,N,00837.72856,E,0.052,,120324,,,A*71

$GPRMC,085703.00,A,4548.66258,N,00837.72856,E,0.048,,120324,,,A*73

$GPRMC,085703.10,A,4548.66258,N,00837.72857,E,0.046,,120324,,,A*7D

$GPRMC,085703.20,A,4548.66256,N,00837.72858,E,0.115,,120324,,,A*78

$GPRMC,085703.30,A,4548.66254,N,00837.72858,E,0.061,,120324,,,A*79

$GPRMC,085703.40,A,4548.66253,N,00837.72858,E,0.014,,120324,,,A*7B

$GPRMC,085703.50,A,4548.66251,N,00837.72858,E,0.058,,120324,,,A*70

$GPRMC,085703.60,A,4548.66249,N,00837.72859,E,0.157,,120324,,,A*75

$GPRMC,085703.70,A,4548.66246,N,00837.72859,E,0.134,,120324,,,A*7E

$GPRMC,085703.80,A,4548.66244,N,00837.72859,E,0.026,,120324,,,A*71

$GPRMC,085703.90,A,4548.66240,N,00837.72860,E,0.071,,120324,,,A*7C

$GPRMC,085704.00,A,4548.66236,N,00837.72860,E,0.045,,120324,,,A*74

$GPRMC,085704.10,A,4548.66232,N,00837.72860,E,0.044,,120324,,,A*70

$GPRMC,085704.20,A,4548.66227,N,00837.72860,E,0.100,,120324,,,A*76

$GPRMC,085704.30,A,4548.66223,N,00837.72860,E,0.016,,120324,,,A*75

$GPRMC,085704.40,A,4548.66219,N,00837.72861,E,0.014,,120324,,,A*78

$GPRMC,085704.50,A,4548.66216,N,00837.72861,E,0.012,,120324,,,A*70

$GPRMC,085704.60,A,4548.66212,N,00837.72861,E,0.027,,120324,,,A*71

$GPRMC,085704.70,A,4548.66208,N,00837.72861,E,0.055,,120324,,,A*7E

$GPRMC,085704.80,A,4548.66204,N,00837.72861,E,0.024,,120324,,,A*7B

$GPRMC,085704.90,A,4548.66200,N,00837.72861,E,0.060,,120324,,,A*7E

$GPRMC,085705.00,A,4548.66196,N,00837.72861,E,0.005,,120324,,,A*79

$GPRMC,085705.10,A,4548.66192,N,00837.72861,E,0.013,,120324,,,A*7B

$GPRMC,085705.20,A,4548.66188,N,00837.72861,E,0.033,,120324,,,A*71

$GPRMC,085705.30,A,4548.66184,N,00837.72860,E,0.053,,120324,,,A*7B

$GPRMC,085705.40,A,4548.66181,N,00837.72860,E,0.009,,120324,,,A*76

$GPRMC,085705.50,A,4548.66177,N,00837.72860,E,0.028,,120324,,,A*7D

$GPRMC,085705.60,A,4548.66173,N,00837.72860,E,0.125,,120324,,,A*76

$GPRMC,085705.70,A,4548.66170,N,00837.72860,E,0.040,,120324,,,A*76

$GPRMC,085705.80,A,4548.66167,N,00837.72860,E,0.041,,120324,,,A*7E

$GPRMC,085705.90,A,4548.66164,N,00837.72860,E,0.010,,120324,,,A*78

$GPRMC,085706.00,A,4548.66161,N,00837.72860,E,0.053,,120324,,,A*70

$GPRMC,085706.10,A,4548.66157,N,00837.72860,E,0.068,,120324,,,A*7C

$GPRMC,085706.20,A,4548.66154,N,00837.72860,E,0.060,,120324,,,A*74

$GPRMC,085706.30,A,4548.66151,N,00837.72860,E,0.031,,120324,,,A*74

$GPRMC,085706.40,A,4548.66148,N,00837.72860,E,0.133,,120324,,,A*78

$GPRMC,085706.50,A,4548.66145,N,00837.72860,E,0.042,,120324,,,A*73

$GPRMC,085706.60,A,4548.66142,N,00837.72860,E,0.014,,120324,,,A*74

$GPRMC,085706.70,A,4548.66139,N,00837.72861,E,0.077,,120324,,,A*7D

$GPRMC,085706.80,A,4548.66136,N,00837.72861,E,0.018,,120324,,,A*74

$GPRMC,085706.90,A,4548.66133,N,00837.72861,E,0.030,,120324,,,A*7A

$GPRMC,085707.00,A,4548.66130,N,00837.72861,E,0.067,,120324,,,A*73

$GPRMC,085707.10,A,4548.66127,N,00837.72862,E,0.052,,120324,,,A*71

$GPRMC,085707.20,A,4548.66124,N,00837.72863,E,0.055,,120324,,,A*77

$GPRMC,085707.30,A,4548.66120,N,00837.72864,E,0.018,,120324,,,A*7C

$GPRMC,085707.40,A,4548.66118,N,00837.72865,E,0.081,,120324,,,A*71

$GPRMC,085707.50,A,4548.66114,N,00837.72865,E,0.065,,120324,,,A*76

$GPRMC,085707.60,A,4548.66111,N,00837.72865,E,0.170,,120324,,,A*75

$GPRMC,085707.70,A,4548.66108,N,00837.72866,E,0.124,,120324,,,A*7E

$GPRMC,085707.80,A,4548.66105,N,00837.72867,E,0.108,,120324,,,A*73

$GPRMC,085707.90,A,4548.66102,N,00837.72867,E,0.074,,120324,,,A*7F

$GPRMC,085708.00,A,4548.66099,N,00837.72868,E,0.072,,120324,,,A*73

$GPRMC,085708.10,A,4548.66095,N,00837.72868,E,0.046,,120324,,,A*79

$GPRMC,085708.20,A,4548.66092,N,00837.72869,E,0.027,,120324,,,A*7B

$GPRMC,085708.30,A,4548.66090,N,00837.72869,E,0.094,,120324,,,A*70

$GPRMC,085708.40,A,4548.66087,N,00837.72870,E,0.043,,120324,,,A*73

$GPRMC,085708.50,A,4548.66083,N,00837.72871,E,0.041,,120324,,,A*75

$GPRMC,085708.60,A,4548.66081,N,00837.72872,E,0.044,,120324,,,A*72

$GPRMC,085708.70,A,4548.66078,N,00837.72872,E,0.079,,120324,,,A*7B

$GPRMC,085708.80,A,4548.66075,N,00837.72873,E,0.076,,120324,,,A*77

$GPRMC,085708.90,A,4548.66072,N,00837.72873,E,0.067,,120324,,,A*71

$GPRMC,085709.00,A,4548.66070,N,00837.72873,E,0.062,,120324,,,A*7E

$GPRMC,085709.10,A,4548.66067,N,00837.72874,E,0.059,,120324,,,A*76

$GPRMC,085709.20,A,4548.66065,N,00837.72874,E,0.012,,120324,,,A*78

$GPRMC,085709.30,A,4548.66063,N,00837.72875,E,0.018,,120324,,,A*74

$GPRMC,085709.40,A,4548.66060,N,00837.72875,E,0.021,,120324,,,A*7A

$GPRMC,085709.50,A,4548.66058,N,00837.72876,E,0.032,,120324,,,A*71

$GPRMC,085709.60,A,4548.66055,N,00837.72876,E,0.082,,120324,,,A*74

$GPRMC,085709.70,A,4548.66053,N,00837.72877,E,0.081,,120324,,,A*71

$GPRMC,085709.80,A,4548.66052,N,00837.72877,E,0.057,,120324,,,A*74

$GPRMC,085709.90,A,4548.66050,N,00837.72877,E,0.016,,120324,,,A*72

$GPRMC,085710.00,A,4548.66047,N,00837.72878,E,0.125,,120324,,,A*7B

$GPRMC,085710.10,A,4548.66045,N,00837.72878,E,0.048,,120324,,,A*72

$GPRMC,085710.20,A,4548.66044,N,00837.72878,E,0.006,,120324,,,A*7A

$GPRMC,085710.30,A,4548.66041,N,00837.72879,E,0.073,,120324,,,A*7D

$GPRMC,085710.40,A,4548.66040,N,00837.72878,E,0.057,,120324,,,A*7C

$GPRMC,085710.50,A,4548.66038,N,00837.72879,E,0.051,,120324,,,A*75

$GPRMC,085710.60,A,4548.66036,N,00837.72880,E,0.066,,120324,,,A*7A

$GPRMC,085710.70,A,4548.66034,N,00837.72880,E,0.098,,120324,,,A*78

$GPRMC,085710.80,A,4548.66033,N,00837.72880,E,0.050,,120324,,,A*74

$GPRMC,085710.90,A,4548.66031,N,00837.72880,E,0.009,,120324,,,A*7B

$GPRMC,085711.00,A,4548.66028,N,00837.72880,E,0.162,,120324,,,A*77

$GPRMC,085711.10,A,4548.66025,N,00837.72881,E,0.215,,120324,,,A*79

$GPRMC,085711.20,A,4548.66024,N,00837.72881,E,0.012,,120324,,,A*7E

$GPRMC,085711.30,A,4548.66022,N,00837.72880,E,0.157,,120324,,,A*78

$GPRMC,085711.40,A,4548.66019,N,00837.72881,E,0.064,,120324,,,A*77

$GPRMC,085711.50,A,4548.66015,N,00837.72881,E,0.142,,120324,,,A*7F

$GPRMC,085711.60,A,4548.66014,N,00837.72881,E,0.087,,120324,,,A*75

$GPRMC,085711.70,A,4548.66014,N,00837.72881,E,0.261,,120324,,,A*7E

$GPRMC,085711.80,A,4548.66008,N,00837.72881,E,0.262,,120324,,,A*7F

$GPRMC,085711.90,A,4548.66006,N,00837.72881,E,0.250,,120324,,,A*71

$GPRMC,085712.00,A,4548.66004,N,00837.72882,E,0.106,,120324,,,A*7A

$GPRMC,085712.10,A,4548.66001,N,00837.72883,E,0.156,,120324,,,A*7A

$GPRMC,085712.20,A,4548.65999,N,00837.72883,E,0.120,,120324,,,A*73

$GPRMC,085712.30,A,4548.65997,N,00837.72884,E,0.048,,120324,,,A*74

$GPRMC,085712.40,A,4548.65995,N,00837.72884,E,0.114,,120324,,,A*79

$GPRMC,085712.50,A,4548.65993,N,00837.72886,E,0.064,,120324,,,A*7A

$GPRMC,085712.60,A,4548.65991,N,00837.72886,E,0.041,,120324,,,A*7C

$GPRMC,085712.70,A,4548.65990,N,00837.72888,E,0.078,,120324,,,A*78

$GPRMC,085712.80,A,4548.65989,N,00837.72888,E,0.115,,120324,,,A*75

$GPRMC,085712.90,A,4548.65987,N,00837.72890,E,0.178,,120324,,,A*78

$GPRMC,085713.00,A,4548.65987,N,00837.72890,E,0.048,,120324,,,A*72

$GPRMC,085713.10,A,4548.65985,N,00837.72889,E,0.226,,120324,,,A*73

$GPRMC,085713.20,A,4548.65981,N,00837.72890,E,0.409,,120324,,,A*77

$GPRMC,085713.30,A,4548.65980,N,00837.72890,E,0.116,,120324,,,A*7C

$GPRMC,085713.40,A,4548.65977,N,00837.72890,E,0.178,,120324,,,A*7B

$GPRMC,085713.50,A,4548.65974,N,00837.72891,E,0.254,,120324,,,A*75

$GPRMC,085713.60,A,4548.65972,N,00837.72891,E,0.133,,120324,,,A*72

$GPRMC,085713.70,A,4548.65969,N,00837.72891,E,0.113,,120324,,,A*7B

$GPRMC,085713.80,A,4548.65967,N,00837.72891,E,0.096,,120324,,,A*76

$GPRMC,085713.90,A,4548.65963,N,00837.72891,E,0.148,,120324,,,A*71

$GPRMC,085714.00,A,4548.65961,N,00837.72891,E,0.107,,120324,,,A*76

$GPRMC,085714.10,A,4548.65958,N,00837.72891,E,0.149,,120324,,,A*77

$GPRMC,085714.20,A,4548.65955,N,00837.72891,E,0.178,,120324,,,A*7B

$GPRMC,085714.30,A,4548.65953,N,00837.72890,E,0.190,,120324,,,A*7B

$GPRMC,085714.40,A,4548.65954,N,00837.72891,E,0.240,,120324,,,A*74

$GPRMC,085714.50,A,4548.65950,N,00837.72889,E,0.235,,120324,,,A*7A

$GPRMC,085714.60,A,4548.65950,N,00837.72889,E,0.144,,120324,,,A*7C

$GPRMC,085714.70,A,4548.65947,N,00837.72887,E,0.179,,120324,,,A*7B

$GPRMC,085714.80,A,4548.65946,N,00837.72886,E,0.058,,120324,,,A*76

$GPRMC,085714.90,A,4548.65944,N,00837.72885,E,0.081,,120324,,,A*72

$GPRMC,085715.00,A,4548.65943,N,00837.72885,E,0.112,,120324,,,A*76

$GPRMC,085715.10,A,4548.65941,N,00837.72883,E,0.138,,120324,,,A*7B

$GPRMC,085715.20,A,4548.65939,N,00837.72882,E,0.192,,120324,,,A*76

$GPRMC,085715.30,A,4548.65938,N,00837.72881,E,0.064,,120324,,,A*7D

$GPRMC,085715.40,A,4548.65936,N,00837.72880,E,0.165,,120324,,,A*75

$GPRMC,085715.50,A,4548.65935,N,00837.72879,E,0.158,,120324,,,A*7F

$GPRMC,085715.60,A,4548.65937,N,00837.72878,E,0.104,,120324,,,A*76

$GPRMC,085715.70,A,4548.65938,N,00837.72877,E,0.018,,120324,,,A*7B

$GPRMC,085715.80,A,4548.65937,N,00837.72876,E,0.145,,120324,,,A*73

$GPRMC,085715.90,A,4548.65935,N,00837.72874,E,0.297,,120324,,,A*7E

$GPRMC,085716.00,A,4548.65941,N,00837.72873,E,0.507,11.64,120324,,,A*52

$GPRMC,085716.10,A,4548.65940,N,00837.72872,E,0.373,,120324,,,A*7A

$GPRMC,085716.20,A,4548.65938,N,00837.72869,E,0.280,,120324,,,A*71

$GPRMC,085716.30,A,4548.65938,N,00837.72866,E,0.293,,120324,,,A*7D

$GPRMC,085716.40,A,4548.65939,N,00837.72865,E,0.183,,120324,,,A*7A

$GPRMC,085716.50,A,4548.65942,N,00837.72861,E,0.063,,120324,,,A*7C

$GPRMC,085716.60,A,4548.65942,N,00837.72859,E,0.103,,120324,,,A*73

$GPRMC,085716.70,A,4548.65946,N,00837.72856,E,0.297,,120324,,,A*77

$GPRMC,085716.80,A,4548.65945,N,00837.72855,E,0.059,,120324,,,A*78

$GPRMC,085716.90,A,4548.65947,N,00837.72851,E,0.060,,120324,,,A*75

$GPRMC,085717.00,A,4548.65949,N,00837.72848,E,0.052,,120324,,,A*7A

$GPRMC,085717.10,A,4548.65951,N,00837.72846,E,0.203,,120324,,,A*7A

$GPRMC,085717.20,A,4548.65954,N,00837.72843,E,0.047,,120324,,,A*7B

$GPRMC,085717.30,A,4548.65957,N,00837.72842,E,0.032,,120324,,,A*7A

$GPRMC,085717.40,A,4548.65960,N,00837.72839,E,0.075,,120324,,,A*76

$GPRMC,085717.50,A,4548.65963,N,00837.72837,E,0.032,,120324,,,A*79

$GPRMC,085717.60,A,4548.65966,N,00837.72835,E,0.060,,120324,,,A*7A

$GPRMC,085717.70,A,4548.65968,N,00837.72832,E,0.028,,120324,,,A*7E

$GPRMC,085717.80,A,4548.65970,N,00837.72830,E,0.040,,120324,,,A*74

$GPRMC,085717.90,A,4548.65972,N,00837.72827,E,0.057,,120324,,,A*77

$GPRMC,085718.00,A,4548.65974,N,00837.72824,E,0.073,,120324,,,A*72

$GPRMC,085718.10,A,4548.65977,N,00837.72821,E,0.034,,120324,,,A*76

$GPRMC,085718.20,A,4548.65979,N,00837.72818,E,0.067,,120324,,,A*77

$GPRMC,085718.30,A,4548.65982,N,00837.72816,E,0.040,,120324,,,A*79

$GPRMC,085718.40,A,4548.65984,N,00837.72813,E,0.037,,120324,,,A*7D

$GPRMC,085718.50,A,4548.65987,N,00837.72810,E,0.073,,120324,,,A*7C

$GPRMC,085718.60,A,4548.65989,N,00837.72807,E,0.056,,120324,,,A*70

$GPRMC,085718.70,A,4548.65993,N,00837.72805,E,0.043,,120324,,,A*7C

$GPRMC,085718.80,A,4548.65995,N,00837.72802,E,0.053,,120324,,,A*73

$GPRMC,085718.90,A,4548.65998,N,00837.72800,E,0.040,,120324,,,A*7F

$GPRMC,085719.00,A,4548.65999,N,00837.72797,E,0.066,,120324,,,A*73

$GPRMC,085719.10,A,4548.66002,N,00837.72795,E,0.050,,120324,,,A*7D

$GPRMC,085719.20,A,4548.66004,N,00837.72793,E,0.024,,120324,,,A*7D

$GPRMC,085719.30,A,4548.66006,N,00837.72790,E,0.060,,120324,,,A*7D

$GPRMC,085719.40,A,4548.66009,N,00837.72788,E,0.035,,120324,,,A*7C

$GPRMC,085719.50,A,4548.66011,N,00837.72786,E,0.043,,120324,,,A*7B

$GPRMC,085719.60,A,4548.66013,N,00837.72784,E,0.020,,120324,,,A*7D

$GPRMC,085719.70,A,4548.66016,N,00837.72782,E,0.048,,120324,,,A*71

$GPRMC,085719.80,A,4548.66018,N,00837.72780,E,0.034,,120324,,,A*79

$GPRMC,085719.90,A,4548.66022,N,00837.72777,E,0.054,,120324,,,A*7F

$GPRMC,085720.00,A,4548.66025,N,00837.72775,E,0.035,,120324,,,A*7E

$GPRMC,085720.10,A,4548.66029,N,00837.72773,E,0.103,,120324,,,A*71

$GPRMC,085720.20,A,4548.66031,N,00837.72771,E,0.141,,120324,,,A*7F

$GPRMC,085720.30,A,4548.66034,N,00837.72769,E,0.043,,120324,,,A*71

$GPRMC,085720.40,A,4548.66036,N,00837.72767,E,0.061,,120324,,,A*7A

$GPRMC,085720.50,A,4548.66038,N,00837.72764,E,0.058,,120324,,,A*7C

$GPRMC,085720.60,A,4548.66040,N,00837.72763,E,0.036,,120324,,,A*7F

$GPRMC,085720.70,A,4548.66044,N,00837.72761,E,0.103,,120324,,,A*7F

$GPRMC,085720.80,A,4548.66046,N,00837.72759,E,0.093,,120324,,,A*71

$GPRMC,085720.90,A,4548.66048,N,00837.72757,E,0.014,,120324,,,A*7F

$GPRMC,085721.00,A,4548.66051,N,00837.72756,E,0.054,,120324,,,A*7A

$GPRMC,085721.10,A,4548.66054,N,00837.72754,E,0.048,,120324,,,A*71

$GPRMC,085721.20,A,4548.66056,N,00837.72752,E,0.057,,120324,,,A*78

$GPRMC,085721.30,A,4548.66059,N,00837.72750,E,0.037,,120324,,,A*72

$GPRMC,085721.40,A,4548.66062,N,00837.72748,E,0.068,,120324,,,A*7E

$GPRMC,085721.50,A,4548.66065,N,00837.72747,E,0.028,,120324,,,A*73

$GPRMC,085721.60,A,4548.66068,N,00837.72745,E,0.046,,120324,,,A*77

$GPRMC,085721.70,A,4548.66070,N,00837.72744,E,0.042,,120324,,,A*7A

$GPRMC,085721.80,A,4548.66073,N,00837.72743,E,0.044,,120324,,,A*77

$GPRMC,085721.90,A,4548.66076,N,00837.72742,E,0.048,,120324,,,A*7E

$GPRMC,085722.00,A,4548.66080,N,00837.72741,E,0.050,,120324,,,A*77

$GPRMC,085722.10,A,4548.66083,N,00837.72740,E,0.062,,120324,,,A*75

$GPRMC,085722.20,A,4548.66087,N,00837.72739,E,0.012,,120324,,,A*7B

$GPRMC,085722.30,A,4548.66088,N,00837.72736,E,0.046,,120324,,,A*7B

$GPRMC,085722.40,A,4548.66090,N,00837.72734,E,0.060,,120324,,,A*73

$GPRMC,085722.50,A,4548.66092,N,00837.72732,E,0.014,,120324,,,A*75

$GPRMC,085722.60,A,4548.66093,N,00837.72731,E,0.046,,120324,,,A*73

$GPRMC,085722.70,A,4548.66095,N,00837.72729,E,0.032,,120324,,,A*7E

$GPRMC,085722.80,A,4548.66096,N,00837.72727,E,0.038,,120324,,,A*76

$GPRMC,085722.90,A,4548.66098,N,00837.72725,E,0.035,,120324,,,A*76

$GPRMC,085723.00,A,4548.66100,N,00837.72723,E,0.034,,120324,,,A*79

$GPRMC,085723.10,A,4548.66102,N,00837.72722,E,0.021,,120324,,,A*7F

$GPRMC,085723.20,A,4548.66103,N,00837.72720,E,0.049,,120324,,,A*71

$GPRMC,085723.30,A,4548.66106,N,00837.72718,E,0.042,,120324,,,A*75

$GPRMC,085723.40,A,4548.66107,N,00837.72717,E,0.040,,120324,,,A*7E

$GPRMC,085723.50,A,4548.66109,N,00837.72716,E,0.044,,120324,,,A*74

$GPRMC,085723.60,A,4548.66110,N,00837.72715,E,0.024,,120324,,,A*7A

$GPRMC,085723.70,A,4548.66112,N,00837.72714,E,0.034,,120324,,,A*79

$GPRMC,085723.80,A,4548.66114,N,00837.72712,E,0.038,,120324,,,A*7A

$GPRMC,085723.90,A,4548.66115,N,00837.72711,E,0.047,,120324,,,A*71

$GPRMC,085724.00,A,4548.66116,N,00837.72710,E,0.077,,120324,,,A*7E

$GPRMC,085724.10,A,4548.66118,N,00837.72709,E,0.033,,120324,,,A*79

$GPRMC,085724.20,A,4548.66120,N,00837.72708,E,0.023,,120324,,,A*71

$GPRMC,085724.30,A,4548.66122,N,00837.72707,E,0.035,,120324,,,A*7A

$GPRMC,085724.40,A,4548.66124,N,00837.72706,E,0.029,,120324,,,A*77

$GPRMC,085724.50,A,4548.66125,N,00837.72705,E,0.095,,120324,,,A*73

$GPRMC,085724.60,A,4548.66127,N,00837.72705,E,0.094,,120324,,,A*73

$GPRMC,085724.70,A,4548.66129,N,00837.72704,E,0.037,,120324,,,A*74

$GPRMC,085724.80,A,4548.66131,N,00837.72703,E,0.048,,120324,,,A*7D

$GPRMC,085724.90,A,4548.66133,N,00837.72703,E,0.037,,120324,,,A*76

$GPRMC,085725.00,A,4548.66134,N,00837.72702,E,0.085,,120324,,,A*71

$GPRMC,085725.10,A,4548.66136,N,00837.72702,E,0.042,,120324,,,A*79

$GPRMC,085725.20,A,4548.66138,N,00837.72701,E,0.029,,120324,,,A*7A

$GPRMC,085725.30,A,4548.66140,N,00837.72701,E,0.031,,120324,,,A*7D

$GPRMC,085725.40,A,4548.66142,N,00837.72701,E,0.003,,120324,,,A*79

$GPRMC,085725.50,A,4548.66145,N,00837.72700,E,0.036,,120324,,,A*78

$GPRMC,085725.60,A,4548.66147,N,00837.72700,E,0.013,,120324,,,A*7E

$GPRMC,085725.70,A,4548.66150,N,00837.72700,E,0.051,,120324,,,A*7F

$GPRMC,085725.80,A,4548.66152,N,00837.72700,E,0.025,,120324,,,A*71

$GPRMC,085725.90,A,4548.66154,N,00837.72700,E,0.030,,120324,,,A*72

$GPRMC,085726.00,A,4548.66157,N,00837.72700,E,0.023,,120324,,,A*79

$GPRMC,085726.10,A,4548.66159,N,00837.72700,E,0.073,,120324,,,A*73

$GPRMC,085726.20,A,4548.66162,N,00837.72700,E,0.054,,120324,,,A*7D

$GPRMC,085726.30,A,4548.66165,N,00837.72700,E,0.070,,120324,,,A*7D

$GPRMC,085726.40,A,4548.66166,N,00837.72699,E,0.038,,120324,,,A*74

$GPRMC,085726.50,A,4548.66167,N,00837.72698,E,0.017,,120324,,,A*78

$GPRMC,085726.60,A,4548.66168,N,00837.72697,E,0.042,,120324,,,A*7B

$GPRMC,085726.70,A,4548.66169,N,00837.72697,E,0.057,,120324,,,A*7F

$GPRMC,085726.80,A,4548.66170,N,00837.72696,E,0.007,,120324,,,A*7C

$GPRMC,085726.90,A,4548.66172,N,00837.72695,E,0.046,,120324,,,A*79

$GPRMC,085727.00,A,4548.66173,N,00837.72694,E,0.019,,120324,,,A*7B

$GPRMC,085727.10,A,4548.66174,N,00837.72693,E,0.037,,120324,,,A*76

$GPRMC,085727.20,A,4548.66175,N,00837.72693,E,0.026,,120324,,,A*74

$GPRMC,085727.30,A,4548.66177,N,00837.72692,E,0.058,,120324,,,A*7F

$GPRMC,085727.40,A,4548.66179,N,00837.72691,E,0.059,,120324,,,A*74

$GPRMC,085727.50,A,4548.66180,N,00837.72691,E,0.018,,120324,,,A*76

$GPRMC,085727.60,A,4548.66182,N,00837.72690,E,0.036,,120324,,,A*7A

$GPRMC,085727.70,A,4548.66184,N,00837.72689,E,0.034,,120324,,,A*77

$GPRMC,085727.80,A,4548.66186,N,00837.72689,E,0.019,,120324,,,A*75

$GPRMC,085727.90,A,4548.66187,N,00837.72688,E,0.051,,120324,,,A*78

$GPRMC,085728.00,A,4548.66189,N,00837.72687,E,0.009,,120324,,,A*72

$GPRMC,085728.10,A,4548.66191,N,00837.72687,E,0.031,,120324,,,A*71

$GPRMC,085728.20,A,4548.66193,N,00837.72686,E,0.019,,120324,,,A*7B

$GPRMC,085728.30,A,4548.66195,N,00837.72685,E,0.035,,120324,,,A*71

$GPRMC,085728.40,A,4548.66197,N,00837.72684,E,0.028,,120324,,,A*79

$GPRMC,085728.50,A,4548.66199,N,00837.72683,E,0.059,,120324,,,A*77

$GPRMC,085728.60,A,4548.66201,N,00837.72682,E,0.040,,120324,,,A*7F

$GPRMC,085728.70,A,4548.66203,N,00837.72682,E,0.009,,120324,,,A*71

$GPRMC,085728.80,A,4548.66205,N,00837.72681,E,0.002,,120324,,,A*70

$GPRMC,085728.90,A,4548.66207,N,00837.72680,E,0.030,,120324,,,A*73

$GPRMC,085729.00,A,4548.66209,N,00837.72680,E,0.086,,120324,,,A*78

$GPRMC,085729.10,A,4548.66210,N,00837.72679,E,0.108,,120324,,,A*70

$GPRMC,085729.20,A,4548.66213,N,00837.72679,E,0.036,,120324,,,A*7C

$GPRMC,085729.30,A,4548.66214,N,00837.72678,E,0.015,,120324,,,A*7A

$GPRMC,085729.40,A,4548.66216,N,00837.72678,E,0.041,,120324,,,A*7E

$GPRMC,085729.50,A,4548.66218,N,00837.72677,E,0.034,,120324,,,A*7C

$GPRMC,085729.60,A,4548.66221,N,00837.72677,E,0.068,,120324,,,A*7C

$GPRMC,085729.70,A,4548.66223,N,00837.72677,E,0.049,,120324,,,A*7C

$GPRMC,085729.80,A,4548.66225,N,00837.72676,E,0.040,,120324,,,A*7D

$GPRMC,085729.90,A,4548.66227,N,00837.72676,E,0.053,,120324,,,A*7C

$GPRMC,085730.00,A,4548.66229,N,00837.72676,E,0.034,,120324,,,A*72

$GPRMC,085730.10,A,4548.66231,N,00837.72676,E,0.056,,120324,,,A*7E

$GPRMC,085730.20,A,4548.66234,N,00837.72676,E,0.008,,120324,,,A*73

$GPRMC,085730.30,A,4548.66236,N,00837.72676,E,0.044,,120324,,,A*78

$GPRMC,085730.40,A,4548.66238,N,00837.72676,E,0.070,,120324,,,A*76

$GPRMC,085730.50,A,4548.66240,N,00837.72676,E,0.040,,120324,,,A*7B

$GPRMC,085730.60,A,4548.66241,N,00837.72675,E,0.041,,120324,,,A*7B

$GPRMC,085730.70,A,4548.66242,N,00837.72675,E,0.055,,120324,,,A*7C

$GPRMC,085730.80,A,4548.66244,N,00837.72674,E,0.082,,120324,,,A*7E

$GPRMC,085730.90,A,4548.66244,N,00837.72673,E,0.054,,120324,,,A*73

$GPRMC,085731.00,A,4548.66246,N,00837.72673,E,0.027,,120324,,,A*7D

$GPRMC,085731.10,A,4548.66247,N,00837.72672,E,0.014,,120324,,,A*7C

$GPRMC,085731.20,A,4548.66248,N,00837.72671,E,0.076,,120324,,,A*77

$GPRMC,085731.30,A,4548.66249,N,00837.72671,E,0.039,,120324,,,A*7C

$GPRMC,085731.40,A,4548.66250,N,00837.72670,E,0.046,,120324,,,A*7A

$GPRMC,085731.50,A,4548.66251,N,00837.72669,E,0.045,,120324,,,A*71

$GPRMC,085731.60,A,4548.66253,N,00837.72669,E,0.038,,120324,,,A*7A

$GPRMC,085731.70,A,4548.66254,N,00837.72668,E,0.041,,120324,,,A*73

$GPRMC,085731.80,A,4548.66255,N,00837.72668,E,0.059,,120324,,,A*74

$GPRMC,085731.90,A,4548.66255,N,00837.72667,E,0.029,,120324,,,A*7D

$GPRMC,085732.00,A,4548.66257,N,00837.72667,E,0.026,,120324,,,A*7A

$GPRMC,085732.10,A,4548.66258,N,00837.72667,E,0.058,,120324,,,A*7D

$GPRMC,085732.20,A,4548.66259,N,00837.72667,E,0.058,,120324,,,A*7F

$GPRMC,085732.30,A,4548.66260,N,00837.72667,E,0.011,,120324,,,A*79

$GPRMC,085732.40,A,4548.66261,N,00837.72667,E,0.053,,120324,,,A*79

$GPRMC,085732.50,A,4548.66262,N,00837.72667,E,0.032,,120324,,,A*7C

$GPRMC,085732.60,A,4548.66264,N,00837.72667,E,0.017,,120324,,,A*7E

$GPRMC,085732.70,A,4548.66265,N,00837.72667,E,0.014,,120324,,,A*7D

$GPRMC,085732.80,A,4548.66266,N,00837.72667,E,0.012,,120324,,,A*77

$GPRMC,085732.90,A,4548.66267,N,00837.72668,E,0.037,,120324,,,A*7F

$GPRMC,085733.00,A,4548.66268,N,00837.72668,E,0.012,,120324,,,A*7F

$GPRMC,085733.10,A,4548.66270,N,00837.72668,E,0.013,,120324,,,A*76

$GPRMC,085733.20,A,4548.66271,N,00837.72668,E,0.059,,120324,,,A*7A

$GPRMC,085733.30,A,4548.66273,N,00837.72669,E,0.069,,120324,,,A*7B

$GPRMC,085733.40,A,4548.66274,N,00837.72669,E,0.107,,120324,,,A*72

$GPRMC,085733.50,A,4548.66275,N,00837.72669,E,0.059,,120324,,,A*78

$GPRMC,085733.60,A,4548.66277,N,00837.72670,E,0.034,,120324,,,A*7A

$GPRMC,085733.70,A,4548.66278,N,00837.72670,E,0.011,,120324,,,A*73

$GPRMC,085733.80,A,4548.66280,N,00837.72671,E,0.046,,120324,,,A*78

$GPRMC,085733.90,A,4548.66281,N,00837.72671,E,0.051,,120324,,,A*7E

$GPRMC,085734.00,A,4548.66282,N,00837.72672,E,0.055,,120324,,,A*74

$GPRMC,085734.10,A,4548.66285,N,00837.72673,E,0.118,,120324,,,A*7B

$GPRMC,085734.20,A,4548.66286,N,00837.72673,E,0.048,,120324,,,A*7F

$GPRMC,085734.30,A,4548.66288,N,00837.72674,E,0.062,,120324,,,A*7F

$GPRMC,085734.40,A,4548.66290,N,00837.72675,E,0.060,,120324,,,A*72

$GPRMC,085734.50,A,4548.66291,N,00837.72674,E,0.021,,120324,,,A*76

$GPRMC,085734.60,A,4548.66292,N,00837.72674,E,0.041,,120324,,,A*70

$GPRMC,085734.70,A,4548.66292,N,00837.72675,E,0.068,,120324,,,A*7B

$GPRMC,085734.80,A,4548.66293,N,00837.72674,E,0.037,,120324,,,A*7E

$GPRMC,085734.90,A,4548.66294,N,00837.72674,E,0.022,,120324,,,A*7C

$GPRMC,085735.00,A,4548.66294,N,00837.72674,E,0.016,,120324,,,A*73

$GPRMC,085735.10,A,4548.66295,N,00837.72674,E,0.079,,120324,,,A*7A

$GPRMC,085735.20,A,4548.66296,N,00837.72674,E,0.086,,120324,,,A*7A

$GPRMC,085735.30,A,4548.66297,N,00837.72674,E,0.013,,120324,,,A*76

$GPRMC,085735.40,A,4548.66298,N,00837.72674,E,0.016,,120324,,,A*7B

$GPRMC,085735.50,A,4548.66298,N,00837.72674,E,0.025,,120324,,,A*7A

$GPRMC,085735.60,A,4548.66299,N,00837.72674,E,0.054,,120324,,,A*7E

$GPRMC,085735.70,A,4548.66300,N,00837.72674,E,0.030,,120324,,,A*7C

$GPRMC,085735.80,A,4548.66301,N,00837.72674,E,0.012,,120324,,,A*72

$GPRMC,085735.90,A,4548.66301,N,00837.72674,E,0.014,,120324,,,A*75

$GPRMC,085736.00,A,4548.66302,N,00837.72674,E,0.055,,120324,,,A*79

$GPRMC,085736.10,A,4548.66303,N,00837.72673,E,0.046,,120324,,,A*7C

$GPRMC,085736.20,A,4548.66303,N,00837.72673,E,0.069,,120324,,,A*72

$GPRMC,085736.30,A,4548.66304,N,00837.72673,E,0.023,,120324,,,A*7A

$GPRMC,085736.40,A,4548.66304,N,00837.72673,E,0.051,,120324,,,A*78

$GPRMC,085736.50,A,4548.66305,N,00837.72673,E,0.032,,120324,,,A*7D

$GPRMC,085736.60,A,4548.66305,N,00837.72674,E,0.071,,120324,,,A*7E

$GPRMC,085736.70,A,4548.66306,N,00837.72674,E,0.057,,120324,,,A*78

$GPRMC,085736.80,A,4548.66307,N,00837.72674,E,0.020,,120324,,,A*76

$GPRMC,085736.90,A,4548.66308,N,00837.72674,E,0.025,,120324,,,A*7D

$GPRMC,085737.00,A,4548.66308,N,00837.72674,E,0.023,,120324,,,A*73

$GPRMC,085737.10,A,4548.66309,N,00837.72674,E,0.049,,120324,,,A*7F

$GPRMC,085737.20,A,4548.66309,N,00837.72675,E,0.018,,120324,,,A*79

$GPRMC,085737.30,A,4548.66310,N,00837.72675,E,0.043,,120324,,,A*7E

$GPRMC,085737.40,A,4548.66311,N,00837.72675,E,0.026,,120324,,,A*7B

$GPRMC,085737.50,A,4548.66311,N,00837.72676,E,0.048,,120324,,,A*71

$GPRMC,085737.60,A,4548.66312,N,00837.72676,E,0.014,,120324,,,A*78

$GPRMC,085737.70,A,4548.66313,N,00837.72676,E,0.018,,120324,,,A*74

$GPRMC,085737.80,A,4548.66314,N,00837.72677,E,0.118,,120324,,,A*7C

$GPRMC,085737.90,A,4548.66315,N,00837.72677,E,0.078,,120324,,,A*7B

$GPRMC,085738.00,A,4548.66316,N,00837.72677,E,0.024,,120324,,,A*77

$GPRMC,085738.10,A,4548.66317,N,00837.72678,E,0.062,,120324,,,A*7A

$GPRMC,085738.20,A,4548.66318,N,00837.72678,E,0.026,,120324,,,A*76

$GPRMC,085738.30,A,4548.66319,N,00837.72680,E,0.058,,120324,,,A*78

$GPRMC,085738.40,A,4548.66320,N,00837.72680,E,0.028,,120324,,,A*72

$GPRMC,085738.50,A,4548.66322,N,00837.72681,E,0.014,,120324,,,A*7F

$GPRMC,085738.60,A,4548.66323,N,00837.72682,E,0.042,,120324,,,A*7D

$GPRMC,085738.70,A,4548.66324,N,00837.72683,E,0.017,,120324,,,A*7A

$GPRMC,085738.80,A,4548.66325,N,00837.72684,E,0.054,,120324,,,A*74

$GPRMC,085738.90,A,4548.66327,N,00837.72685,E,0.022,,120324,,,A*77

$GPRMC,085739.00,A,4548.66329,N,00837.72686,E,0.059,,120324,,,A*7E

$GPRMC,085739.10,A,4548.66330,N,00837.72687,E,0.026,,120324,,,A*7E

$GPRMC,085739.20,A,4548.66332,N,00837.72688,E,0.023,,120324,,,A*75

$GPRMC,085739.30,A,4548.66333,N,00837.72689,E,0.029,,120324,,,A*7E

$GPRMC,085739.40,A,4548.66335,N,00837.72690,E,0.022,,120324,,,A*7C

$GPRMC,085739.50,A,4548.66336,N,00837.72691,E,0.028,,120324,,,A*75

$GPRMC,085739.60,A,4548.66338,N,00837.72692,E,0.061,,120324,,,A*76

$GPRMC,085739.70,A,4548.66339,N,00837.72693,E,0.029,,120324,,,A*7B

$GPRMC,085739.80,A,4548.66340,N,00837.72694,E,0.013,,120324,,,A*74

$GPRMC,085739.90,A,4548.66342,N,00837.72695,E,0.025,,120324,,,A*73

$GPRMC,085740.00,A,4548.66343,N,00837.72696,E,0.036,,120324,,,A*74

$GPRMC,085740.10,A,4548.66344,N,00837.72697,E,0.024,,120324,,,A*70

$GPRMC,085740.20,A,4548.66345,N,00837.72698,E,0.021,,120324,,,A*78

$GPRMC,085740.30,A,4548.66346,N,00837.72698,E,0.046,,120324,,,A*7B

$GPRMC,085740.40,A,4548.66348,N,00837.72699,E,0.049,,120324,,,A*7C

$GPRMC,085740.50,A,4548.66348,N,00837.72700,E,0.056,,120324,,,A*72

$GPRMC,085740.60,A,4548.66349,N,00837.72701,E,0.039,,120324,,,A*78

$GPRMC,085740.70,A,4548.66350,N,00837.72701,E,0.041,,120324,,,A*7E

$GPRMC,085740.80,A,4548.66351,N,00837.72702,E,0.042,,120324,,,A*70

$GPRMC,085740.90,A,4548.66352,N,00837.72702,E,0.026,,120324,,,A*70

$GPRMC,085741.00,A,4548.66353,N,00837.72703,E,0.004,,120324,,,A*78

$GPRMC,085741.10,A,4548.66354,N,00837.72703,E,0.031,,120324,,,A*78

$GPRMC,085741.20,A,4548.66355,N,00837.72704,E,0.020,,120324,,,A*7D

$GPRMC,085741.30,A,4548.66355,N,00837.72705,E,0.102,,120324,,,A*7C

$GPRMC,085741.40,A,4548.66357,N,00837.72706,E,0.083,,120324,,,A*72

$GPRMC,085741.50,A,4548.66358,N,00837.72706,E,0.024,,120324,,,A*71

$GPRMC,085741.60,A,4548.66359,N,00837.72707,E,0.091,,120324,,,A*7C

$GPRMC,085741.70,A,4548.66360,N,00837.72708,E,0.046,,120324,,,A*72

$GPRMC,085741.80,A,4548.66361,N,00837.72709,E,0.081,,120324,,,A*76

$GPRMC,085741.90,A,4548.66363,N,00837.72709,E,0.025,,120324,,,A*7B

$GPRMC,085742.00,A,4548.66364,N,00837.72710,E,0.110,,120324,,,A*79

$GPRMC,085742.10,A,4548.66365,N,00837.72711,E,0.097,,120324,,,A*76

$GPRMC,085742.20,A,4548.66367,N,00837.72712,E,0.103,,120324,,,A*78

$GPRMC,085742.30,A,4548.66368,N,00837.72712,E,0.065,,120324,,,A*77

$GPRMC,085742.40,A,4548.66369,N,00837.72713,E,0.083,,120324,,,A*78

$GPRMC,085742.50,A,4548.66370,N,00837.72713,E,0.090,,120324,,,A*73

$GPRMC,085742.60,A,4548.66371,N,00837.72714,E,0.103,,120324,,,A*7D

$GPRMC,085742.70,A,4548.66372,N,00837.72715,E,0.123,,120324,,,A*7C

$GPRMC,085742.80,A,4548.66372,N,00837.72715,E,0.080,,120324,,,A*7B

$GPRMC,085742.90,A,4548.66371,N,00837.72715,E,0.126,,120324,,,A*74

$GPRMC,085743.00,A,4548.66372,N,00837.72714,E,0.093,,120324,,,A*71

$GPRMC,085743.10,A,4548.66373,N,00837.72715,E,0.022,,120324,,,A*7A

$GPRMC,085743.20,A,4548.66373,N,00837.72715,E,0.053,,120324,,,A*7F

$GPRMC,085743.30,A,4548.66373,N,00837.72715,E,0.052,,120324,,,A*7F

$GPRMC,085743.40,A,4548.66373,N,00837.72715,E,0.052,,120324,,,A*78

$GPRMC,085743.50,A,4548.66373,N,00837.72716,E,0.058,,120324,,,A*70

$GPRMC,085743.60,A,4548.66372,N,00837.72716,E,0.142,,120324,,,A*78

$GPRMC,085743.70,A,4548.66373,N,00837.72716,E,0.025,,120324,,,A*78

$GPRMC,085743.80,A,4548.66371,N,00837.72716,E,0.145,,120324,,,A*72

$GPRMC,085743.90,A,4548.66373,N,00837.72716,E,0.184,,120324,,,A*7C

$GPRMC,085744.00,A,4548.66372,N,00837.72717,E,0.079,,120324,,,A*71

$GPRMC,085744.10,A,4548.66372,N,00837.72717,E,0.022,,120324,,,A*7E

$GPRMC,085744.20,A,4548.66372,N,00837.72717,E,0.024,,120324,,,A*7B

$GPRMC,085744.30,A,4548.66372,N,00837.72717,E,0.042,,120324,,,A*7A

$GPRMC,085744.40,A,4548.66371,N,00837.72717,E,0.060,,120324,,,A*7E

$GPRMC,085744.50,A,4548.66372,N,00837.72717,E,0.104,,120324,,,A*7F

$GPRMC,085744.60,A,4548.66372,N,00837.72718,E,0.069,,120324,,,A*79

$GPRMC,085744.70,A,4548.66372,N,00837.72718,E,0.106,,120324,,,A*70

$GPRMC,085744.80,A,4548.66371,N,00837.72718,E,0.132,,120324,,,A*7B

$GPRMC,085744.90,A,4548.66372,N,00837.72718,E,0.066,,120324,,,A*79

$GPRMC,085745.00,A,4548.66372,N,00837.72719,E,0.082,,120324,,,A*7A

$GPRMC,085745.10,A,4548.66371,N,00837.72719,E,0.228,,120324,,,A*7A

$GPRMC,085745.20,A,4548.66372,N,00837.72719,E,0.066,,120324,,,A*72

$GPRMC,085745.30,A,4548.66372,N,00837.72720,E,0.156,,120324,,,A*7B

$GPRMC,085745.40,A,4548.66373,N,00837.72720,E,0.163,,120324,,,A*7B

$GPRMC,085745.50,A,4548.66375,N,00837.72722,E,0.113,,120324,,,A*79

$GPRMC,085745.60,A,4548.66377,N,00837.72722,E,0.017,,120324,,,A*7D

$GPRMC,085745.70,A,4548.66378,N,00837.72723,E,0.057,,120324,,,A*76

$GPRMC,085745.80,A,4548.66379,N,00837.72724,E,0.041,,120324,,,A*78

$GPRMC,085745.90,A,4548.66381,N,00837.72725,E,0.084,,120324,,,A*76

$GPRMC,085746.00,A,4548.66382,N,00837.72727,E,0.091,,120324,,,A*79

$GPRMC,085746.10,A,4548.66383,N,00837.72728,E,0.075,,120324,,,A*7C

$GPRMC,085746.20,A,4548.66384,N,00837.72728,E,0.074,,120324,,,A*79

$GPRMC,085746.30,A,4548.66385,N,00837.72729,E,0.040,,120324,,,A*7F

$GPRMC,085746.40,A,4548.66386,N,00837.72730,E,0.062,,120324,,,A*73

$GPRMC,085746.50,A,4548.66388,N,00837.72732,E,0.078,,120324,,,A*75

$GPRMC,085746.60,A,4548.66388,N,00837.72733,E,0.031,,120324,,,A*7A

$GPRMC,085746.70,A,4548.66388,N,00837.72733,E,0.138,,120324,,,A*73

$GPRMC,085746.80,A,4548.66389,N,00837.72734,E,0.077,,120324,,,A*70

$GPRMC,085746.90,A,4548.66389,N,00837.72735,E,0.170,,120324,,,A*76

$GPRMC,085747.00,A,4548.66389,N,00837.72737,E,0.163,,120324,,,A*7E

$GPRMC,085747.10,A,4548.66390,N,00837.72737,E,0.131,,120324,,,A*70

$GPRMC,085747.20,A,4548.66391,N,00837.72739,E,0.065,,120324,,,A*7C

$GPRMC,085747.30,A,4548.66393,N,00837.72740,E,0.026,,120324,,,A*76

$GPRMC,085747.40,A,4548.66394,N,00837.72741,E,0.029,,120324,,,A*78

$GPRMC,085747.50,A,4548.66395,N,00837.72742,E,0.023,,120324,,,A*71

$GPRMC,085747.60,A,4548.66395,N,00837.72743,E,0.119,,120324,,,A*7B

$GPRMC,085747.70,A,4548.66396,N,00837.72744,E,0.070,,120324,,,A*70

$GPRMC,085747.80,A,4548.66397,N,00837.72745,E,0.042,,120324,,,A*7E

$GPRMC,085747.90,A,4548.66399,N,00837.72746,E,0.085,,120324,,,A*79

$GPRMC,085748.00,A,4548.66401,N,00837.72747,E,0.023,,120324,,,A*74

$GPRMC,085748.10,A,4548.66403,N,00837.72748,E,0.192,,120324,,,A*73

$GPRMC,085748.20,A,4548.66405,N,00837.72750,E,0.146,,120324,,,A*76

$GPRMC,085748.30,A,4548.66407,N,00837.72751,E,0.176,,120324,,,A*77

$GPRMC,085748.40,A,4548.66408,N,00837.72751,E,0.074,,120324,,,A*7C

$GPRMC,085748.50,A,4548.66409,N,00837.72752,E,0.027,,120324,,,A*79

$GPRMC,085748.60,A,4548.66410,N,00837.72752,E,0.065,,120324,,,A*74

$GPRMC,085748.70,A,4548.66412,N,00837.72754,E,0.073,,120324,,,A*76

$GPRMC,085748.80,A,4548.66412,N,00837.72755,E,0.022,,120324,,,A*7C

$GPRMC,085748.90,A,4548.66413,N,00837.72754,E,0.082,,120324,,,A*77

$GPRMC,085749.00,A,4548.66414,N,00837.72755,E,0.025,,120324,,,A*74

$GPRMC,085749.10,A,4548.66415,N,00837.72755,E,0.085,,120324,,,A*7E

$GPRMC,085749.20,A,4548.66415,N,00837.72756,E,0.011,,120324,,,A*73

$GPRMC,085749.30,A,4548.66416,N,00837.72756,E,0.059,,120324,,,A*7D

$GPRMC,085749.40,A,4548.66417,N,00837.72756,E,0.045,,120324,,,A*76

$GPRMC,085749.50,A,4548.66418,N,00837.72756,E,0.015,,120324,,,A*7D

$GPRMC,085749.60,A,4548.66418,N,00837.72757,E,0.071,,120324,,,A*7D

$GPRMC,085749.70,A,4548.66418,N,00837.72757,E,0.052,,120324,,,A*7D

$GPRMC,085749.80,A,4548.66418,N,00837.72757,E,0.028,,120324,,,A*7F

$GPRMC,085749.90,A,4548.66418,N,00837.72757,E,0.026,,120324,,,A*70

$GPRMC,085750.00,A,4548.66418,N,00837.72757,E,0.019,,120324,,,A*7D

$GPRMC,085750.10,A,4548.66417,N,00837.72756,E,0.098,,120324,,,A*7B

$GPRMC,085750.20,A,4548.66418,N,00837.72756,E,0.056,,120324,,,A*75

$GPRMC,085750.30,A,4548.66417,N,00837.72756,E,0.049,,120324,,,A*75

$GPRMC,085750.40,A,4548.66418,N,00837.72756,E,0.026,,120324,,,A*74

$GPRMC,085750.50,A,4548.66418,N,00837.72756,E,0.075,,120324,,,A*73

$GPRMC,085750.60,A,4548.66418,N,00837.72756,E,0.028,,120324,,,A*78

$GPRMC,085750.70,A,4548.66418,N,00837.72756,E,0.090,,120324,,,A*7A

$GPRMC,085750.80,A,4548.66418,N,00837.72755,E,0.088,,120324,,,A*7F

$GPRMC,085750.90,A,4548.66418,N,00837.72756,E,0.153,,120324,,,A*7A

$GPRMC,085751.00,A,4548.66417,N,00837.72756,E,0.104,,120324,,,A*7F

$GPRMC,085751.10,A,4548.66417,N,00837.72756,E,0.049,,120324,,,A*76

$GPRMC,085751.20,A,4548.66417,N,00837.72756,E,0.051,,120324,,,A*7C

$GPRMC,085751.30,A,4548.66417,N,00837.72756,E,0.073,,120324,,,A*7D

$GPRMC,085751.40,A,4548.66416,N,00837.72756,E,0.032,,120324,,,A*7E

$GPRMC,085751.50,A,4548.66416,N,00837.72757,E,0.046,,120324,,,A*7D

$GPRMC,085751.60,A,4548.66416,N,00837.72756,E,0.042,,120324,,,A*7B

$GPRMC,085751.70,A,4548.66416,N,00837.72756,E,0.033,,120324,,,A*7C

$GPRMC,085751.80,A,4548.66415,N,00837.72756,E,0.007,,120324,,,A*77

$GPRMC,085751.90,A,4548.66415,N,00837.72757,E,0.074,,120324,,,A*73

$GPRMC,085752.00,A,4548.66414,N,00837.72756,E,0.050,,120324,,,A*7F

$GPRMC,085752.10,A,4548.66414,N,00837.72756,E,0.033,,120324,,,A*7B

$GPRMC,085752.20,A,4548.66413,N,00837.72756,E,0.053,,120324,,,A*79

$GPRMC,085752.30,A,4548.66413,N,00837.72756,E,0.018,,120324,,,A*77

$GPRMC,085752.40,A,4548.66413,N,00837.72757,E,0.032,,120324,,,A*79

$GPRMC,085752.50,A,4548.66413,N,00837.72757,E,0.018,,120324,,,A*70

$GPRMC,085752.60,A,4548.66412,N,00837.72757,E,0.013,,120324,,,A*79

$GPRMC,085752.70,A,4548.66411,N,00837.72756,E,0.077,,120324,,,A*78

$GPRMC,085752.80,A,4548.66409,N,00837.72756,E,0.070,,120324,,,A*79

$GPRMC,085752.90,A,4548.66409,N,00837.72755,E,0.105,,120324,,,A*78

$GPRMC,085753.00,A,4548.66408,N,00837.72755,E,0.040,,120324,,,A*71

$GPRMC,085753.10,A,4548.66407,N,00837.72755,E,0.060,,120324,,,A*7D

$GPRMC,085753.20,A,4548.66405,N,00837.72754,E,0.022,,120324,,,A*7B

$GPRMC,085753.30,A,4548.66404,N,00837.72754,E,0.022,,120324,,,A*7B

$GPRMC,085753.40,A,4548.66403,N,00837.72754,E,0.077,,120324,,,A*7B

$GPRMC,085753.50,A,4548.66401,N,00837.72754,E,0.030,,120324,,,A*7B

$GPRMC,085753.60,A,4548.66400,N,00837.72754,E,0.055,,120324,,,A*7A

$GPRMC,085753.70,A,4548.66399,N,00837.72753,E,0.078,,120324,,,A*74

$GPRMC,085753.80,A,4548.66398,N,00837.72754,E,0.043,,120324,,,A*75

$GPRMC,085753.90,A,4548.66396,N,00837.72754,E,0.060,,120324,,,A*7B

$GPRMC,085754.00,A,4548.66395,N,00837.72754,E,0.043,,120324,,,A*77

$GPRMC,085754.10,A,4548.66394,N,00837.72755,E,0.044,,120324,,,A*71

$GPRMC,085754.20,A,4548.66393,N,00837.72755,E,0.032,,120324,,,A*74

$GPRMC,085754.30,A,4548.66392,N,00837.72756,E,0.019,,120324,,,A*7E

$GPRMC,085754.40,A,4548.66391,N,00837.72756,E,0.049,,120324,,,A*7F

$GPRMC,085754.50,A,4548.66390,N,00837.72757,E,0.077,,120324,,,A*73

$GPRMC,085754.60,A,4548.66390,N,00837.72757,E,0.011,,120324,,,A*70

$GPRMC,085754.70,A,4548.66389,N,00837.72758,E,0.033,,120324,,,A*76

$GPRMC,085754.80,A,4548.66389,N,00837.72758,E,0.036,,120324,,,A*7C

$GPRMC,085754.90,A,4548.66388,N,00837.72759,E,0.080,,120324,,,A*70

$GPRMC,085755.00,A,4548.66388,N,00837.72759,E,0.081,,120324,,,A*79

$GPRMC,085755.10,A,4548.66387,N,00837.72759,E,0.143,,120324,,,A*78

$GPRMC,085755.20,A,4548.66387,N,00837.72760,E,0.096,,120324,,,A*78

$GPRMC,085755.30,A,4548.66387,N,00837.72760,E,0.025,,120324,,,A*71

$GPRMC,085755.40,A,4548.66386,N,00837.72760,E,0.033,,120324,,,A*70

$GPRMC,085755.50,A,4548.66386,N,00837.72761,E,0.010,,120324,,,A*71

$GPRMC,085755.60,A,4548.66385,N,00837.72761,E,0.040,,120324,,,A*74

$GPRMC,085755.70,A,4548.66384,N,00837.72762,E,0.028,,120324,,,A*79

$GPRMC,085755.80,A,4548.66384,N,00837.72762,E,0.064,,120324,,,A*7E

$GPRMC,085755.90,A,4548.66383,N,00837.72762,E,0.040,,120324,,,A*7E

$GPRMC,085756.00,A,4548.66383,N,00837.72762,E,0.017,,120324,,,A*76

$GPRMC,085756.10,A,4548.66383,N,00837.72763,E,0.065,,120324,,,A*73

$GPRMC,085756.20,A,4548.66382,N,00837.72763,E,0.025,,120324,,,A*75

$GPRMC,085756.30,A,4548.66382,N,00837.72763,E,0.038,,120324,,,A*78

$GPRMC,085756.40,A,4548.66382,N,00837.72763,E,0.023,,120324,,,A*75

$GPRMC,085756.50,A,4548.66381,N,00837.72764,E,0.040,,120324,,,A*75

$GPRMC,085756.60,A,4548.66381,N,00837.72764,E,0.018,,120324,,,A*7B

$GPRMC,085756.70,A,4548.66380,N,00837.72764,E,0.044,,120324,,,A*72

$GPRMC,085756.80,A,4548.66380,N,00837.72764,E,0.070,,120324,,,A*7A

$GPRMC,085756.90,A,4548.66380,N,00837.72765,E,0.058,,120324,,,A*70

$GPRMC,085757.00,A,4548.66379,N,00837.72765,E,0.035,,120324,,,A*75

$GPRMC,085757.10,A,4548.66379,N,00837.72765,E,0.012,,120324,,,A*71

$GPRMC,085757.20,A,4548.66378,N,00837.72766,E,0.020,,120324,,,A*71

$GPRMC,085757.30,A,4548.66377,N,00837.72766,E,0.037,,120324,,,A*79

$GPRMC,085757.40,A,4548.66377,N,00837.72767,E,0.015,,120324,,,A*7F

$GPRMC,085757.50,A,4548.66376,N,00837.72767,E,0.058,,120324,,,A*76

$GPRMC,085757.60,A,4548.66376,N,00837.72767,E,0.046,,120324,,,A*7A

$GPRMC,085757.70,A,4548.66375,N,00837.72768,E,0.012,,120324,,,A*76

$GPRMC,085757.80,A,4548.66375,N,00837.72768,E,0.038,,120324,,,A*71

$GPRMC,085757.90,A,4548.66374,N,00837.72769,E,0.038,,120324,,,A*70

$GPRMC,085758.00,A,4548.66374,N,00837.72769,E,0.009,,120324,,,A*74

$GPRMC,085758.10,A,4548.66373,N,00837.72770,E,0.029,,120324,,,A*78

$GPRMC,085758.20,A,4548.66373,N,00837.72770,E,0.055,,120324,,,A*70

$GPRMC,085758.30,A,4548.66372,N,00837.72771,E,0.094,,120324,,,A*7C

$GPRMC,085758.40,A,4548.66373,N,00837.72771,E,0.105,,120324,,,A*73

$GPRMC,085758.50,A,4548.66372,N,00837.72772,E,0.014,,120324,,,A*71

$GPRMC,085758.60,A,4548.66372,N,00837.72772,E,0.088,,120324,,,A*77

$GPRMC,085758.70,A,4548.66371,N,00837.72773,E,0.030,,120324,,,A*77

$GPRMC,085758.80,A,4548.66371,N,00837.72774,E,0.029,,120324,,,A*77

$GPRMC,085758.90,A,4548.66370,N,00837.72774,E,0.061,,120324,,,A*7B

$GPRMC,085759.00,A,4548.66370,N,00837.72775,E,0.061,,120324,,,A*72

$GPRMC,085759.10,A,4548.66370,N,00837.72775,E,0.060,,120324,,,A*72

$GPRMC,085759.20,A,4548.66370,N,00837.72775,E,0.175,,120324,,,A*74

$GPRMC,085759.30,A,4548.66370,N,00837.72776,E,0.153,,120324,,,A*72

$GPRMC,085759.40,A,4548.66369,N,00837.72777,E,0.157,,120324,,,A*78

$GPRMC,085759.50,A,4548.66369,N,00837.72777,E,0.084,,120324,,,A*76

$GPRMC,085759.60,A,4548.66369,N,00837.72778,E,0.070,,120324,,,A*71

$GPRMC,085759.70,A,4548.66369,N,00837.72778,E,0.021,,120324,,,A*74

$GPRMC,085759.80,A,4548.66369,N,00837.72779,E,0.046,,120324,,,A*7B

$GPRMC,085759.90,A,4548.66368,N,00837.72779,E,0.035,,120324,,,A*7F

$GPRMC,085800.00,A,4548.66369,N,00837.72780,E,0.101,,120324,,,A*74

$GPRMC,085800.10,A,4548.66368,N,00837.72780,E,0.097,,120324,,,A*7A

$GPRMC,085800.20,A,4548.66368,N,00837.72781,E,0.056,,120324,,,A*75

$GPRMC,085800.30,A,4548.66367,N,00837.72781,E,0.035,,120324,,,A*7E

$GPRMC,085800.40,A,4548.66367,N,00837.72781,E,0.049,,120324,,,A*72

$GPRMC,085800.50,A,4548.66366,N,00837.72782,E,0.141,,120324,,,A*78

$GPRMC,085800.60,A,4548.66366,N,00837.72782,E,0.078,,120324,,,A*70

$GPRMC,085800.70,A,4548.66366,N,00837.72783,E,0.035,,120324,,,A*79

$GPRMC,085800.80,A,4548.66365,N,00837.72784,E,0.069,,120324,,,A*7B

$GPRMC,085800.90,A,4548.66365,N,00837.72784,E,0.014,,120324,,,A*70

$GPRMC,085801.00,A,4548.66365,N,00837.72785,E,0.033,,120324,,,A*7C

$GPRMC,085801.10,A,4548.66364,N,00837.72785,E,0.061,,120324,,,A*7B

$GPRMC,085801.20,A,4548.66364,N,00837.72786,E,0.003,,120324,,,A*7F

$GPRMC,085801.30,A,4548.66364,N,00837.72787,E,0.024,,120324,,,A*7A

$GPRMC,085801.40,A,4548.66364,N,00837.72787,E,0.050,,120324,,,A*7E

$GPRMC,085801.50,A,4548.66364,N,00837.72788,E,0.052,,120324,,,A*72

$GPRMC,085801.60,A,4548.66364,N,00837.72789,E,0.076,,120324,,,A*76

$GPRMC,085801.70,A,4548.66364,N,00837.72789,E,0.011,,120324,,,A*76

$GPRMC,085801.80,A,4548.66364,N,00837.72790,E,0.046,,120324,,,A*73

$GPRMC,085801.90,A,4548.66364,N,00837.72791,E,0.059,,120324,,,A*7D

$GPRMC,085802.00,A,4548.66364,N,00837.72792,E,0.014,,120324,,,A*7D

$GPRMC,085802.10,A,4548.66365,N,00837.72792,E,0.013,,120324,,,A*7A

$GPRMC,085802.20,A,4548.66364,N,00837.72793,E,0.031,,120324,,,A*79

$GPRMC,085802.30,A,4548.66364,N,00837.72794,E,0.034,,120324,,,A*7A

$GPRMC,085802.40,A,4548.66364,N,00837.72794,E,0.103,,120324,,,A*78

$GPRMC,085802.50,A,4548.66363,N,00837.72796,E,0.103,,120324,,,A*7C

$GPRMC,085802.60,A,4548.66363,N,00837.72796,E,0.144,,120324,,,A*7C

$GPRMC,085802.70,A,4548.66362,N,00837.72796,E,0.161,,120324,,,A*7B

$GPRMC,085802.80,A,4548.66362,N,00837.72797,E,0.136,,120324,,,A*77

$GPRMC,085802.90,A,4548.66362,N,00837.72797,E,0.040,,120324,,,A*76

$GPRMC,085803.00,A,4548.66361,N,00837.72797,E,0.254,,120324,,,A*7A

$GPRMC,085803.10,A,4548.66363,N,00837.72797,E,0.069,,120324,,,A*75

$GPRMC,085803.20,A,4548.66362,N,00837.72798,E,0.104,,120324,,,A*72

$GPRMC,085803.30,A,4548.66363,N,00837.72799,E,0.070,,120324,,,A*71

$GPRMC,085803.40,A,4548.66363,N,00837.72800,E,0.055,,120324,,,A*7E

$GPRMC,085803.50,A,4548.66364,N,00837.72800,E,0.060,,120324,,,A*7E

$GPRMC,085803.60,A,4548.66364,N,00837.72800,E,0.054,,120324,,,A*7A

$GPRMC,085803.70,A,4548.66365,N,00837.72801,E,0.116,,120324,,,A*7C

$GPRMC,085803.80,A,4548.66364,N,00837.72801,E,0.216,,120324,,,A*71

$GPRMC,085803.90,A,4548.66366,N,00837.72802,E,0.072,,120324,,,A*71

$GPRMC,085804.00,A,4548.66367,N,00837.72803,E,0.116,,120324,,,A*7C

$GPRMC,085804.10,A,4548.66367,N,00837.72803,E,0.097,,120324,,,A*75

$GPRMC,085804.20,A,4548.66369,N,00837.72805,E,0.074,,120324,,,A*73

$GPRMC,085804.30,A,4548.66370,N,00837.72805,E,0.009,,120324,,,A*70

$GPRMC,085804.40,A,4548.66370,N,00837.72806,E,0.088,,120324,,,A*7D

$GPRMC,085804.50,A,4548.66372,N,00837.72806,E,0.049,,120324,,,A*73

$GPRMC,085804.60,A,4548.66373,N,00837.72807,E,0.017,,120324,,,A*7B

$GPRMC,085804.70,A,4548.66374,N,00837.72808,E,0.029,,120324,,,A*7F

$GPRMC,085804.80,A,4548.66375,N,00837.72809,E,0.104,,120324,,,A*7E

$GPRMC,085804.90,A,4548.66376,N,00837.72809,E,0.086,,120324,,,A*77

$GPRMC,085805.00,A,4548.66377,N,00837.72810,E,0.068,,120324,,,A*76

$GPRMC,085805.10,A,4548.66379,N,00837.72810,E,0.026,,120324,,,A*73

$GPRMC,085805.20,A,4548.66379,N,00837.72810,E,0.058,,120324,,,A*79

$GPRMC,085805.30,A,4548.66380,N,00837.72811,E,0.052,,120324,,,A*75

$GPRMC,085805.40,A,4548.66381,N,00837.72811,E,0.022,,120324,,,A*74

$GPRMC,085805.50,A,4548.66382,N,00837.72811,E,0.064,,120324,,,A*74

$GPRMC,085805.60,A,4548.66382,N,00837.72811,E,0.030,,120324,,,A*76

$GPRMC,085805.70,A,4548.66383,N,00837.72811,E,0.036,,120324,,,A*70

$GPRMC,085805.80,A,4548.66383,N,00837.72812,E,0.032,,120324,,,A*78

$GPRMC,085805.90,A,4548.66384,N,00837.72811,E,0.045,,120324,,,A*7D

$GPRMC,085806.00,A,4548.66384,N,00837.72811,E,0.032,,120324,,,A*77

$GPRMC,085806.10,A,4548.66384,N,00837.72811,E,0.005,,120324,,,A*72

$GPRMC,085806.20,A,4548.66384,N,00837.72810,E,0.059,,120324,,,A*79

$GPRMC,085806.30,A,4548.66385,N,00837.72810,E,0.072,,120324,,,A*70

$GPRMC,085806.40,A,4548.66384,N,00837.72809,E,0.090,,120324,,,A*72

$GPRMC,085806.50,A,4548.66385,N,00837.72809,E,0.026,,120324,,,A*7F

$GPRMC,085806.60,A,4548.66385,N,00837.72808,E,0.037,,120324,,,A*7D

$GPRMC,085806.70,A,4548.66385,N,00837.72808,E,0.049,,120324,,,A*75

$GPRMC,085806.80,A,4548.66385,N,00837.72807,E,0.018,,120324,,,A*71

$GPRMC,085806.90,A,4548.66385,N,00837.72807,E,0.067,,120324,,,A*78

$GPRMC,085807.00,A,4548.66386,N,00837.72807,E,0.011,,120324,,,A*72

$GPRMC,085807.10,A,4548.66387,N,00837.72806,E,0.116,,120324,,,A*75

$GPRMC,085807.20,A,4548.66387,N,00837.72807,E,0.067,,120324,,,A*70

$GPRMC,085807.30,A,4548.66387,N,00837.72806,E,0.052,,120324,,,A*76

$GPRMC,085807.40,A,4548.66388,N,00837.72806,E,0.064,,120324,,,A*7B

$GPRMC,085807.50,A,4548.66387,N,00837.72806,E,0.082,,120324,,,A*7D

$GPRMC,085807.60,A,4548.66388,N,00837.72806,E,0.054,,120324,,,A*7A

$GPRMC,085807.70,A,4548.66388,N,00837.72806,E,0.082,,120324,,,A*70

$GPRMC,085807.80,A,4548.66388,N,00837.72806,E,0.110,,120324,,,A*75

$GPRMC,085807.90,A,4548.66388,N,00837.72806,E,0.202,,120324,,,A*74

$GPRMC,085808.00,A,4548.66389,N,00837.72805,E,0.104,,120324,,,A*75

$GPRMC,085808.10,A,4548.66389,N,00837.72805,E,0.109,,120324,,,A*79

$GPRMC,085808.20,A,4548.66389,N,00837.72805,E,0.066,,120324,,,A*72

$GPRMC,085808.30,A,4548.66389,N,00837.72805,E,0.046,,120324,,,A*71

$GPRMC,085808.40,A,4548.66389,N,00837.72805,E,0.008,,120324,,,A*7C

$GPRMC,085808.50,A,4548.66388,N,00837.72805,E,0.042,,120324,,,A*72

$GPRMC,085808.60,A,4548.66389,N,00837.72804,E,0.070,,120324,,,A*70

$GPRMC,085808.70,A,4548.66388,N,00837.72804,E,0.047,,120324,,,A*74

$GPRMC,085808.80,A,4548.66387,N,00837.72804,E,0.078,,120324,,,A*78

$GPRMC,085808.90,A,4548.66387,N,00837.72804,E,0.052,,120324,,,A*71

$GPRMC,085809.00,A,4548.66386,N,00837.72804,E,0.120,,120324,,,A*7C

$GPRMC,085809.10,A,4548.66386,N,00837.72804,E,0.064,,120324,,,A*7C

$GPRMC,085809.20,A,4548.66385,N,00837.72804,E,0.032,,120324,,,A*7F

$GPRMC,085809.30,A,4548.66385,N,00837.72804,E,0.021,,120324,,,A*7C

$GPRMC,085809.40,A,4548.66384,N,00837.72804,E,0.040,,120324,,,A*7D

$GPRMC,085809.50,A,4548.66384,N,00837.72804,E,0.029,,120324,,,A*73

$GPRMC,085809.60,A,4548.66383,N,00837.72804,E,0.058,,120324,,,A*71

$GPRMC,085809.70,A,4548.66383,N,00837.72805,E,0.027,,120324,,,A*79

$GPRMC,085809.80,A,4548.66383,N,00837.72805,E,0.005,,120324,,,A*76

$GPRMC,085809.90,A,4548.66382,N,00837.72805,E,0.046,,120324,,,A*71

$GPRMC,085810.00,A,4548.66382,N,00837.72805,E,0.009,,120324,,,A*7B

$GPRMC,085810.10,A,4548.66382,N,00837.72805,E,0.033,,120324,,,A*73

$GPRMC,085810.20,A,4548.66381,N,00837.72805,E,0.048,,120324,,,A*7F

$GPRMC,085810.30,A,4548.66380,N,00837.72805,E,0.042,,120324,,,A*75

$GPRMC,085810.40,A,4548.66380,N,00837.72805,E,0.061,,120324,,,A*73

$GPRMC,085810.50,A,4548.66380,N,00837.72805,E,0.049,,120324,,,A*78

$GPRMC,085810.60,A,4548.66379,N,00837.72805,E,0.044,,120324,,,A*70

$GPRMC,085810.70,A,4548.66379,N,00837.72805,E,0.067,,120324,,,A*70

$GPRMC,085810.80,A,4548.66378,N,00837.72806,E,0.139,,120324,,,A*77

$GPRMC,085810.90,A,4548.66378,N,00837.72806,E,0.034,,120324,,,A*7A

$GPRMC,085811.00,A,4548.66378,N,00837.72806,E,0.034,,120324,,,A*72

$GPRMC,085811.10,A,4548.66377,N,00837.72806,E,0.089,,120324,,,A*7A

$GPRMC,085811.20,A,4548.66377,N,00837.72806,E,0.035,,120324,,,A*7E

$GPRMC,085811.30,A,4548.66377,N,00837.72807,E,0.012,,120324,,,A*7B

$GPRMC,085811.40,A,4548.66376,N,00837.72807,E,0.074,,120324,,,A*7D

$GPRMC,085811.50,A,4548.66376,N,00837.72807,E,0.021,,120324,,,A*7C

$GPRMC,085811.60,A,4548.66376,N,00837.72807,E,0.073,,120324,,,A*78

$GPRMC,085811.70,A,4548.66375,N,00837.72807,E,0.031,,120324,,,A*7C

$GPRMC,085811.80,A,4548.66375,N,00837.72807,E,0.050,,120324,,,A*74

$GPRMC,085811.90,A,4548.66374,N,00837.72807,E,0.058,,120324,,,A*7C

$GPRMC,085812.00,A,4548.66374,N,00837.72808,E,0.037,,120324,,,A*70

$GPRMC,085812.10,A,4548.66374,N,00837.72808,E,0.022,,120324,,,A*75

$GPRMC,085812.20,A,4548.66372,N,00837.72808,E,0.186,,120324,,,A*7F

$GPRMC,085812.30,A,4548.66372,N,00837.72808,E,0.109,,120324,,,A*79

$GPRMC,085812.40,A,4548.66371,N,00837.72809,E,0.101,,120324,,,A*74

$GPRMC,085812.50,A,4548.66371,N,00837.72809,E,0.106,,120324,,,A*72

$GPRMC,085812.60,A,4548.66371,N,00837.72809,E,0.050,,120324,,,A*73

$GPRMC,085812.70,A,4548.66370,N,00837.72810,E,0.049,,120324,,,A*73

$GPRMC,085812.80,A,4548.66370,N,00837.72810,E,0.045,,120324,,,A*70

$GPRMC,085812.90,A,4548.66369,N,00837.72810,E,0.016,,120324,,,A*7F

$GPRMC,085813.00,A,4548.66369,N,00837.72811,E,0.045,,120324,,,A*70

$GPRMC,085813.10,A,4548.66369,N,00837.72811,E,0.041,,120324,,,A*75

$GPRMC,085813.20,A,4548.66369,N,00837.72812,E,0.042,,120324,,,A*76

$GPRMC,085813.30,A,4548.66369,N,00837.72812,E,0.043,,120324,,,A*76

$GPRMC,085813.40,A,4548.66369,N,00837.72813,E,0.064,,120324,,,A*75

$GPRMC,085813.50,A,4548.66368,N,00837.72813,E,0.109,,120324,,,A*7F

$GPRMC,085813.60,A,4548.66368,N,00837.72814,E,0.057,,120324,,,A*71

$GPRMC,085813.70,A,4548.66368,N,00837.72814,E,0.024,,120324,,,A*74

$GPRMC,085813.80,A,4548.66368,N,00837.72815,E,0.058,,120324,,,A*71

$GPRMC,085813.90,A,4548.66367,N,00837.72816,E,0.060,,120324,,,A*77

$GPRMC,085814.00,A,4548.66367,N,00837.72816,E,0.026,,120324,,,A*7B

$GPRMC,085814.10,A,4548.66366,N,00837.72817,E,0.020,,120324,,,A*7C

