$GPRMC,101011.00,A,4548.66289,N,00837.72532,E,0.057,,120324,,,A*77

$GPRMC,101011.10,A,4548.66290,N,00837.72532,E,0.039,,120324,,,A*76

$GPRMC,101011.20,A,4548.66291,N,00837.72531,E,0.048,,120324,,,A*71

$GPRMC,101011.30,A,4548.66292,N,00837.72531,E,0.048,,120324,,,A*73

$GPRMC,101011.40,A,4548.66293,N,00837.72530,E,0.027,,120324,,,A*7D

$GPRMC,101011.50,A,4548.66293,N,00837.72530,E,0.007,,120324,,,A*7E

$GPRMC,101011.60,A,4548.66294,N,00837.72530,E,0.040,,120324,,,A*79

$GPRMC,101011.70,A,4548.66294,N,00837.72529,E,0.038,,120324,,,A*7F

$GPRMC,101011.80,A,4548.66295,N,00837.72529,E,0.033,,120324,,,A*7A

$GPRMC,101011.90,A,4548.66296,N,00837.72529,E,0.047,,120324,,,A*7B

$GPRMC,101012.00,A,4548.66296,N,00837.72528,E,0.049,,120324,,,A*7E

$GPRMC,101012.10,A,4548.66297,N,00837.72528,E,0.045,,120324,,,A*72

$GPRMC,101012.20,A,4548.66298,N,00837.72528,E,0.092,,120324,,,A*74

$GPRMC,101012.30,A,4548.66299,N,00837.72527,E,0.053,,120324,,,A*76

$GPRMC,101012.40,A,4548.66299,N,00837.72527,E,0.046,,120324,,,A*75

$GPRMC,101012.50,A,4548.66299,N,00837.72527,E,0.079,,120324,,,A*78

$GPRMC,101012.60,A,4548.66300,N,00837.72527,E,0.020,,120324,,,A*76

$GPRMC,101012.70,A,4548.66300,N,00837.72526,E,0.013,,120324,,,A*76

$GPRMC,101012.80,A,4548.66301,N,00837.72526,E,0.033,,120324,,,A*7A

$GPRMC,101012.90,A,4548.66301,N,00837.72526,E,0.060,,120324,,,A*7D

$GPRMC,101013.00,A,4548.66302,N,00837.72525,E,0.020,,120324,,,A*71

$GPRMC,101013.10,A,4548.66302,N,00837.72525,E,0.117,,120324,,,A*75

$GPRMC,101013.20,A,4548.66302,N,00837.72525,E,0.047,,120324,,,A*72

$GPRMC,101013.30,A,4548.66303,N,00837.72524,E,0.019,,120324,,,A*78

$GPRMC,101013.40,A,4548.66303,N,00837.72524,E,0.047,,120324,,,A*74

$GPRMC,101013.50,A,4548.66304,N,00837.72524,E,0.059,,120324,,,A*7D

$GPRMC,101013.60,A,4548.66304,N,00837.72524,E,0.116,,120324,,,A*74

$GPRMC,101013.70,A,4548.66305,N,00837.72523,E,0.051,,120324,,,A*71

$GPRMC,101013.80,A,4548.66306,N,00837.72523,E,0.009,,120324,,,A*70

$GPRMC,101013.90,A,4548.66307,N,00837.72523,E,0.062,,120324,,,A*7D

$GPRMC,101014.00,A,4548.66307,N,00837.72523,E,0.039,,120324,,,A*7D

$GPRMC,101014.10,A,4548.66308,N,00837.72522,E,0.053,,120324,,,A*7E

$GPRMC,101014.20,A,4548.66308,N,00837.72522,E,0.089,,120324,,,A*7A

$GPRMC,101014.30,A,4548.66308,N,00837.72522,E,0.101,,120324,,,A*7A

$GPRMC,101014.40,A,4548.66309,N,00837.72522,E,0.067,,120324,,,A*7D

$GPRMC,101014.50,A,4548.66310,N,00837.72521,E,0.042,,120324,,,A*70

$GPRMC,101014.60,A,4548.66309,N,00837.72521,E,0.046,,120324,,,A*7F

$GPRMC,101014.70,A,4548.66310,N,00837.72521,E,0.015,,120324,,,A*70

$GPRMC,101014.80,A,4548.66311,N,00837.72521,E,0.003,,120324,,,A*79

$GPRMC,101014.90,A,4548.66311,N,00837.72521,E,0.093,,120324,,,A*71

$GPRMC,101015.00,A,4548.66312,N,00837.72520,E,0.048,,120324,,,A*7D

$GPRMC,101015.10,A,4548.66312,N,00837.72520,E,0.022,,120324,,,A*70

$GPRMC,101015.20,A,4548.66313,N,00837.72520,E,0.064,,120324,,,A*70

$GPRMC,101015.30,A,4548.66313,N,00837.72520,E,0.065,,120324,,,A*70

$GPRMC,101015.40,A,4548.66313,N,00837.72519,E,0.034,,120324,,,A*79

$GPRMC,101015.50,A,4548.66314,N,00837.72519,E,0.009,,120324,,,A*71

$GPRMC,101015.60,A,4548.66314,N,00837.72519,E,0.011,,120324,,,A*7B

$GPRMC,101015.70,A,4548.66315,N,00837.72519,E,0.037,,120324,,,A*7F

$GPRMC,101015.80,A,4548.66316,N,00837.72519,E,0.044,,120324,,,A*77

$GPRMC,101015.90,A,4548.66316,N,00837.72519,E,0.035,,120324,,,A*70

$GPRMC,101016.00,A,4548.66317,N,00837.72518,E,0.049,,120324,,,A*71

$GPRMC,101016.10,A,4548.66317,N,00837.72518,E,0.041,,120324,,,A*78

$GPRMC,101016.20,A,4548.66318,N,00837.72518,E,0.075,,120324,,,A*73

$GPRMC,101016.30,A,4548.66318,N,00837.72518,E,0.061,,120324,,,A*77

$GPRMC,101016.40,A,4548.66319,N,00837.72517,E,0.013,,120324,,,A*7B

$GPRMC,101016.50,A,4548.66320,N,00837.72517,E,0.078,,120324,,,A*7D

$GPRMC,101016.60,A,4548.66321,N,00837.72517,E,0.074,,120324,,,A*73

$GPRMC,101016.70,A,4548.66321,N,00837.72517,E,0.067,,120324,,,A*70

$GPRMC,101016.80,A,4548.66322,N,00837.72517,E,0.058,,120324,,,A*70

$GPRMC,101016.90,A,4548.66322,N,00837.72516,E,0.024,,120324,,,A*7B

$GPRMC,101017.00,A,4548.66322,N,00837.72516,E,0.096,,120324,,,A*7A

$GPRMC,101017.10,A,4548.66323,N,00837.72516,E,0.104,,120324,,,A*70

$GPRMC,101017.20,A,4548.66323,N,00837.72515,E,0.058,,120324,,,A*78

$GPRMC,101017.30,A,4548.66323,N,00837.72515,E,0.080,,120324,,,A*7C

$GPRMC,101017.40,A,4548.66324,N,00837.72515,E,0.006,,120324,,,A*72

$GPRMC,101017.50,A,4548.66324,N,00837.72515,E,0.017,,120324,,,A*73

$GPRMC,101017.60,A,4548.66325,N,00837.72514,E,0.028,,120324,,,A*7C

$GPRMC,101017.70,A,4548.66326,N,00837.72514,E,0.029,,120324,,,A*7F

$GPRMC,101017.80,A,4548.66326,N,00837.72514,E,0.051,,120324,,,A*7F

$GPRMC,101017.90,A,4548.66326,N,00837.72514,E,0.024,,120324,,,A*7C

$GPRMC,101018.00,A,4548.66327,N,00837.72513,E,0.071,,120324,,,A*7C

$GPRMC,101018.10,A,4548.66328,N,00837.72513,E,0.058,,120324,,,A*79

$GPRMC,101018.20,A,4548.66328,N,00837.72513,E,0.032,,120324,,,A*76

$GPRMC,101018.30,A,4548.66329,N,00837.72512,E,0.142,,120324,,,A*71

$GPRMC,101018.40,A,4548.66330,N,00837.72512,E,0.071,,120324,,,A*7F

$GPRMC,101018.50,A,4548.66330,N,00837.72512,E,0.005,,120324,,,A*7D

$GPRMC,101018.60,A,4548.66331,N,00837.72511,E,0.042,,120324,,,A*7F

$GPRMC,101018.70,A,4548.66331,N,00837.72511,E,0.069,,120324,,,A*77

$GPRMC,101018.80,A,4548.66332,N,00837.72511,E,0.009,,120324,,,A*7D

$GPRMC,101018.90,A,4548.66333,N,00837.72510,E,0.055,,120324,,,A*75

$GPRMC,101019.00,A,4548.66333,N,00837.72510,E,0.034,,120324,,,A*7A

$GPRMC,101019.10,A,4548.66334,N,00837.72510,E,0.104,,120324,,,A*7E

$GPRMC,101019.20,A,4548.66335,N,00837.72509,E,0.059,,120324,,,A*7D

$GPRMC,101019.30,A,4548.66336,N,00837.72509,E,0.046,,120324,,,A*71

$GPRMC,101019.40,A,4548.66336,N,00837.72509,E,0.050,,120324,,,A*71

$GPRMC,101019.50,A,4548.66337,N,00837.72509,E,0.018,,120324,,,A*7D

$GPRMC,101019.60,A,4548.66337,N,00837.72508,E,0.054,,120324,,,A*77

$GPRMC,101019.70,A,4548.66337,N,00837.72508,E,0.048,,120324,,,A*7B

$GPRMC,101019.80,A,4548.66338,N,00837.72508,E,0.084,,120324,,,A*7B

$GPRMC,101019.90,A,4548.66338,N,00837.72508,E,0.046,,120324,,,A*74

$GPRMC,101020.00,A,4548.66339,N,00837.72508,E,0.079,,120324,,,A*7A

$GPRMC,101020.10,A,4548.66339,N,00837.72507,E,0.061,,120324,,,A*7D

$GPRMC,101020.20,A,4548.66340,N,00837.72507,E,0.025,,120324,,,A*70

$GPRMC,101020.30,A,4548.66341,N,00837.72506,E,0.058,,120324,,,A*7B

$GPRMC,101020.40,A,4548.66341,N,00837.72506,E,0.051,,120324,,,A*75

$GPRMC,101020.50,A,4548.66342,N,00837.72506,E,0.017,,120324,,,A*75

$GPRMC,101020.60,A,4548.66342,N,00837.72506,E,0.025,,120324,,,A*77

$GPRMC,101020.70,A,4548.66343,N,00837.72505,E,0.039,,120324,,,A*79

$GPRMC,101020.80,A,4548.66343,N,00837.72505,E,0.097,,120324,,,A*72

$GPRMC,101020.90,A,4548.66343,N,00837.72505,E,0.033,,120324,,,A*7D

$GPRMC,101021.00,A,4548.66344,N,00837.72504,E,0.055,,120324,,,A*73

$GPRMC,101021.10,A,4548.66344,N,00837.72504,E,0.025,,120324,,,A*75

$GPRMC,101021.20,A,4548.66345,N,00837.72504,E,0.028,,120324,,,A*7A

$GPRMC,101021.30,A,4548.66346,N,00837.72503,E,0.032,,120324,,,A*74

$GPRMC,101021.40,A,4548.66346,N,00837.72503,E,0.095,,120324,,,A*7E

$GPRMC,101021.50,A,4548.66347,N,00837.72503,E,0.015,,120324,,,A*76

$GPRMC,101021.60,A,4548.66347,N,00837.72502,E,0.070,,120324,,,A*77

$GPRMC,101021.70,A,4548.66347,N,00837.72502,E,0.032,,120324,,,A*70

$GPRMC,101021.80,A,4548.66348,N,00837.72501,E,0.017,,120324,,,A*74

$GPRMC,101021.90,A,4548.66348,N,00837.72501,E,0.044,,120324,,,A*73

$GPRMC,101022.00,A,4548.66349,N,00837.72501,E,0.049,,120324,,,A*75

$GPRMC,101022.10,A,4548.66349,N,00837.72501,E,0.019,,120324,,,A*71

$GPRMC,101022.20,A,4548.66350,N,00837.72501,E,0.026,,120324,,,A*76

$GPRMC,101022.30,A,4548.66351,N,00837.72500,E,0.013,,120324,,,A*71

$GPRMC,101022.40,A,4548.66351,N,00837.72500,E,0.053,,120324,,,A*72

$GPRMC,101022.50,A,4548.66352,N,00837.72500,E,0.036,,120324,,,A*73

$GPRMC,101022.60,A,4548.66352,N,00837.72499,E,0.083,,120324,,,A*7F

$GPRMC,101022.70,A,4548.66353,N,00837.72499,E,0.073,,120324,,,A*70

$GPRMC,101022.80,A,4548.66354,N,00837.72499,E,0.025,,120324,,,A*7B

$GPRMC,101022.90,A,4548.66354,N,00837.72498,E,0.028,,120324,,,A*76

$GPRMC,101023.00,A,4548.66354,N,00837.72498,E,0.038,,120324,,,A*7F

$GPRMC,101023.10,A,4548.66354,N,00837.72498,E,0.009,,120324,,,A*7C

$GPRMC,101023.20,A,4548.66354,N,00837.72497,E,0.022,,120324,,,A*79

$GPRMC,101023.30,A,4548.66354,N,00837.72497,E,0.034,,120324,,,A*7F

$GPRMC,101023.40,A,4548.66355,N,00837.72497,E,0.054,,120324,,,A*7F

$GPRMC,101023.50,A,4548.66354,N,00837.72497,E,0.036,,120324,,,A*7B

$GPRMC,101023.60,A,4548.66354,N,00837.72497,E,0.032,,120324,,,A*7C

$GPRMC,101023.70,A,4548.66354,N,00837.72497,E,0.054,,120324,,,A*7D

$GPRMC,101023.80,A,4548.66354,N,00837.72496,E,0.066,,120324,,,A*72

$GPRMC,101023.90,A,4548.66354,N,00837.72496,E,0.047,,120324,,,A*70

$GPRMC,101024.00,A,4548.66354,N,00837.72496,E,0.013,,120324,,,A*7F

$GPRMC,101024.10,A,4548.66354,N,00837.72496,E,0.075,,120324,,,A*7E

$GPRMC,101024.20,A,4548.66354,N,00837.72496,E,0.062,,120324,,,A*7B

$GPRMC,101024.30,A,4548.66355,N,00837.72495,E,0.042,,120324,,,A*7A

$GPRMC,101024.40,A,4548.66355,N,00837.72495,E,0.069,,120324,,,A*74

$GPRMC,101024.50,A,4548.66355,N,00837.72495,E,0.033,,120324,,,A*7A

$GPRMC,101024.60,A,4548.66354,N,00837.72495,E,0.029,,120324,,,A*73

$GPRMC,101024.70,A,4548.66355,N,00837.72495,E,0.044,,120324,,,A*78

$GPRMC,101024.80,A,4548.66355,N,00837.72495,E,0.047,,120324,,,A*74

$GPRMC,101024.90,A,4548.66354,N,00837.72495,E,0.062,,120324,,,A*73

$GPRMC,101025.00,A,4548.66354,N,00837.72494,E,0.056,,120324,,,A*7D

$GPRMC,101025.10,A,4548.66355,N,00837.72494,E,0.080,,120324,,,A*76

$GPRMC,101025.20,A,4548.66355,N,00837.72494,E,0.045,,120324,,,A*7C

$GPRMC,101025.30,A,4548.66355,N,00837.72494,E,0.027,,120324,,,A*79

$GPRMC,101025.40,A,4548.66356,N,00837.72494,E,0.020,,120324,,,A*7A

$GPRMC,101025.50,A,4548.66356,N,00837.72494,E,0.062,,120324,,,A*7D

$GPRMC,101025.60,A,4548.66357,N,00837.72494,E,0.028,,120324,,,A*71

$GPRMC,101025.70,A,4548.66357,N,00837.72493,E,0.068,,120324,,,A*73

$GPRMC,101025.80,A,4548.66358,N,00837.72493,E,0.030,,120324,,,A*7E

$GPRMC,101025.90,A,4548.66359,N,00837.72493,E,0.014,,120324,,,A*78

$GPRMC,101026.00,A,4548.66359,N,00837.72493,E,0.038,,120324,,,A*7C

$GPRMC,101026.10,A,4548.66359,N,00837.72493,E,0.051,,120324,,,A*72

$GPRMC,101026.20,A,4548.66360,N,00837.72493,E,0.089,,120324,,,A*7E

$GPRMC,101026.30,A,4548.66358,N,00837.72492,E,0.094,,120324,,,A*79

$GPRMC,101026.40,A,4548.66359,N,00837.72492,E,0.040,,120324,,,A*76

$GPRMC,101026.50,A,4548.66359,N,00837.72492,E,0.090,,120324,,,A*7A

$GPRMC,101026.60,A,4548.66358,N,00837.72492,E,0.085,,120324,,,A*7C

$GPRMC,101026.70,A,4548.66358,N,00837.72491,E,0.048,,120324,,,A*7F

$GPRMC,101026.80,A,4548.66358,N,00837.72491,E,0.059,,120324,,,A*70

$GPRMC,101026.90,A,4548.66358,N,00837.72491,E,0.047,,120324,,,A*7E

$GPRMC,101027.00,A,4548.66358,N,00837.72490,E,0.041,,120324,,,A*71

$GPRMC,101027.10,A,4548.66358,N,00837.72490,E,0.056,,120324,,,A*76

$GPRMC,101027.20,A,4548.66358,N,00837.72490,E,0.023,,120324,,,A*77

$GPRMC,101027.30,A,4548.66358,N,00837.72490,E,0.036,,120324,,,A*72

$GPRMC,101027.40,A,4548.66358,N,00837.72489,E,0.035,,120324,,,A*7E

$GPRMC,101027.50,A,4548.66358,N,00837.72489,E,0.037,,120324,,,A*7D

$GPRMC,101027.60,A,4548.66358,N,00837.72489,E,0.071,,120324,,,A*7C

$GPRMC,101027.70,A,4548.66358,N,00837.72489,E,0.090,,120324,,,A*72

$GPRMC,101027.80,A,4548.66358,N,00837.72488,E,0.029,,120324,,,A*7E

$GPRMC,101027.90,A,4548.66357,N,00837.72488,E,0.024,,120324,,,A*7D

$GPRMC,101028.00,A,4548.66357,N,00837.72488,E,0.057,,120324,,,A*7F

$GPRMC,101028.10,A,4548.66356,N,00837.72488,E,0.147,,120324,,,A*7F

$GPRMC,101028.20,A,4548.66356,N,00837.72487,E,0.053,,120324,,,A*77

$GPRMC,101028.30,A,4548.66356,N,00837.72487,E,0.031,,120324,,,A*72

$GPRMC,101028.40,A,4548.66357,N,00837.72487,E,0.021,,120324,,,A*75

$GPRMC,101028.50,A,4548.66356,N,00837.72487,E,0.041,,120324,,,A*73

$GPRMC,101028.60,A,4548.66355,N,00837.72487,E,0.139,,120324,,,A*7D

$GPRMC,101028.70,A,4548.66355,N,00837.72487,E,0.045,,120324,,,A*76

$GPRMC,101028.80,A,4548.66355,N,00837.72487,E,0.022,,120324,,,A*78

$GPRMC,101028.90,A,4548.66355,N,00837.72487,E,0.049,,120324,,,A*74

$GPRMC,101029.00,A,4548.66354,N,00837.72487,E,0.027,,120324,,,A*75

$GPRMC,101029.10,A,4548.66354,N,00837.72486,E,0.103,,120324,,,A*72

$GPRMC,101029.20,A,4548.66354,N,00837.72486,E,0.061,,120324,,,A*74

$GPRMC,101029.30,A,4548.66354,N,00837.72486,E,0.013,,120324,,,A*70

$GPRMC,101029.40,A,4548.66354,N,00837.72486,E,0.137,,120324,,,A*70

$GPRMC,101029.50,A,4548.66354,N,00837.72486,E,0.101,,120324,,,A*74

$GPRMC,101029.60,A,4548.66354,N,00837.72486,E,0.057,,120324,,,A*75

$GPRMC,101029.70,A,4548.66354,N,00837.72486,E,0.051,,120324,,,A*72

$GPRMC,101029.80,A,4548.66355,N,00837.72486,E,0.179,,120324,,,A*77

$GPRMC,101029.90,A,4548.66355,N,00837.72486,E,0.103,,120324,,,A*7B

$GPRMC,101030.00,A,4548.66355,N,00837.72486,E,0.047,,120324,,,A*7B

$GPRMC,101030.10,A,4548.66356,N,00837.72486,E,0.131,,120324,,,A*79

$GPRMC,101030.20,A,4548.66357,N,00837.72486,E,0.048,,120324,,,A*74

$GPRMC,101030.30,A,4548.66359,N,00837.72486,E,0.069,,120324,,,A*78

$GPRMC,101030.40,A,4548.66360,N,00837.72486,E,0.063,,120324,,,A*7F

$GPRMC,101030.50,A,4548.66361,N,00837.72487,E,0.023,,120324,,,A*7A

$GPRMC,101030.60,A,4548.66364,N,00837.72487,E,0.068,,120324,,,A*73

$GPRMC,101030.70,A,4548.66365,N,00837.72487,E,0.064,,120324,,,A*7F

$GPRMC,101030.80,A,4548.66366,N,00837.72487,E,0.021,,120324,,,A*72

$GPRMC,101030.90,A,4548.66367,N,00837.72487,E,0.038,,120324,,,A*7A

$GPRMC,101031.00,A,4548.66368,N,00837.72487,E,0.038,,120324,,,A*7D

$GPRMC,101031.10,A,4548.66370,N,00837.72487,E,0.053,,120324,,,A*78

$GPRMC,101031.20,A,4548.66370,N,00837.72487,E,0.047,,120324,,,A*7E

$GPRMC,101031.30,A,4548.66372,N,00837.72487,E,0.034,,120324,,,A*79

$GPRMC,101031.40,A,4548.66373,N,00837.72487,E,0.053,,120324,,,A*7E

$GPRMC,101031.50,A,4548.66374,N,00837.72486,E,0.074,,120324,,,A*7C

$GPRMC,101031.60,A,4548.66376,N,00837.72487,E,0.039,,120324,,,A*75

$GPRMC,101031.70,A,4548.66378,N,00837.72487,E,0.063,,120324,,,A*75

$GPRMC,101031.80,A,4548.66380,N,00837.72487,E,0.093,,120324,,,A*72

$GPRMC,101031.90,A,4548.66382,N,00837.72487,E,0.112,,120324,,,A*79

$GPRMC,101032.00,A,4548.66383,N,00837.72487,E,0.006,,120324,,,A*76

$GPRMC,101032.10,A,4548.66386,N,00837.72487,E,0.058,,120324,,,A*79

$GPRMC,101032.20,A,4548.66387,N,00837.72487,E,0.014,,120324,,,A*73

$GPRMC,101032.30,A,4548.66389,N,00837.72487,E,0.039,,120324,,,A*73

$GPRMC,101032.40,A,4548.66391,N,00837.72487,E,0.034,,120324,,,A*70

$GPRMC,101032.50,A,4548.66393,N,00837.72487,E,0.031,,120324,,,A*76

$GPRMC,101032.60,A,4548.66395,N,00837.72487,E,0.016,,120324,,,A*76

$GPRMC,101032.70,A,4548.66397,N,00837.72487,E,0.021,,120324,,,A*71

$GPRMC,101032.80,A,4548.66399,N,00837.72487,E,0.046,,120324,,,A*71

$GPRMC,101032.90,A,4548.66400,N,00837.72486,E,0.037,,120324,,,A*70

$GPRMC,101033.00,A,4548.66401,N,00837.72486,E,0.046,,120324,,,A*7F

$GPRMC,101033.10,A,4548.66402,N,00837.72486,E,0.089,,120324,,,A*7E

$GPRMC,101033.20,A,4548.66404,N,00837.72486,E,0.089,,120324,,,A*7B

$GPRMC,101033.30,A,4548.66405,N,00837.72486,E,0.003,,120324,,,A*79

$GPRMC,101033.40,A,4548.66406,N,00837.72486,E,0.018,,120324,,,A*77

$GPRMC,101033.50,A,4548.66407,N,00837.72486,E,0.068,,120324,,,A*70

$GPRMC,101033.60,A,4548.66408,N,00837.72486,E,0.058,,120324,,,A*7F

$GPRMC,101033.70,A,4548.66410,N,00837.72486,E,0.103,,120324,,,A*78

$GPRMC,101033.80,A,4548.66412,N,00837.72486,E,0.059,,120324,,,A*7B

$GPRMC,101033.90,A,4548.66414,N,00837.72486,E,0.065,,120324,,,A*73

$GPRMC,101034.00,A,4548.66415,N,00837.72486,E,0.031,,120324,,,A*7D

$GPRMC,101034.10,A,4548.66417,N,00837.72486,E,0.030,,120324,,,A*7F

$GPRMC,101034.20,A,4548.66418,N,00837.72486,E,0.050,,120324,,,A*75

$GPRMC,101034.30,A,4548.66419,N,00837.72487,E,0.073,,120324,,,A*75

$GPRMC,101034.40,A,4548.66420,N,00837.72486,E,0.076,,120324,,,A*7C

$GPRMC,101034.50,A,4548.66421,N,00837.72486,E,0.051,,120324,,,A*79

$GPRMC,101034.60,A,4548.66423,N,00837.72487,E,0.058,,120324,,,A*70

$GPRMC,101034.70,A,4548.66424,N,00837.72487,E,0.030,,120324,,,A*78

$GPRMC,101034.80,A,4548.66425,N,00837.72487,E,0.032,,120324,,,A*74

$GPRMC,101034.90,A,4548.66426,N,00837.72487,E,0.024,,120324,,,A*71

$GPRMC,101035.00,A,4548.66427,N,00837.72487,E,0.113,,120324,,,A*7D

$GPRMC,101035.10,A,4548.66429,N,00837.72487,E,0.095,,120324,,,A*7D

$GPRMC,101035.20,A,4548.66431,N,00837.72488,E,0.024,,120324,,,A*72

$GPRMC,101035.30,A,4548.66433,N,00837.72488,E,0.100,,120324,,,A*76

$GPRMC,101035.40,A,4548.66434,N,00837.72488,E,0.120,,120324,,,A*74

$GPRMC,101035.50,A,4548.66436,N,00837.72488,E,0.038,,120324,,,A*7F

$GPRMC,101035.60,A,4548.66437,N,00837.72488,E,0.038,,120324,,,A*7D

$GPRMC,101035.70,A,4548.66439,N,00837.72488,E,0.028,,120324,,,A*73

$GPRMC,101035.80,A,4548.66441,N,00837.72488,E,0.064,,120324,,,A*7B

$GPRMC,101035.90,A,4548.66442,N,00837.72489,E,0.048,,120324,,,A*76

$GPRMC,101036.00,A,4548.66443,N,00837.72489,E,0.030,,120324,,,A*72

$GPRMC,101036.10,A,4548.66445,N,00837.72489,E,0.025,,120324,,,A*71

$GPRMC,101036.20,A,4548.66446,N,00837.72490,E,0.025,,120324,,,A*79

$GPRMC,101036.30,A,4548.66447,N,00837.72490,E,0.078,,120324,,,A*71

$GPRMC,101036.40,A,4548.66449,N,00837.72490,E,0.059,,120324,,,A*7B

$GPRMC,101036.50,A,4548.66450,N,00837.72490,E,0.045,,120324,,,A*7F

$GPRMC,101036.60,A,4548.66452,N,00837.72491,E,0.018,,120324,,,A*77

$GPRMC,101036.70,A,4548.66454,N,00837.72491,E,0.055,,120324,,,A*79

$GPRMC,101036.80,A,4548.66456,N,00837.72492,E,0.017,,120324,,,A*71

$GPRMC,101036.90,A,4548.66458,N,00837.72492,E,0.071,,120324,,,A*7E

$GPRMC,101037.00,A,4548.66460,N,00837.72492,E,0.032,,120324,,,A*7A

$GPRMC,101037.10,A,4548.66461,N,00837.72492,E,0.053,,120324,,,A*7D

$GPRMC,101037.20,A,4548.66463,N,00837.72492,E,0.040,,120324,,,A*7E

$GPRMC,101037.30,A,4548.66464,N,00837.72493,E,0.078,,120324,,,A*72

$GPRMC,101037.40,A,4548.66466,N,00837.72493,E,0.075,,120324,,,A*7A

$GPRMC,101037.50,A,4548.66468,N,00837.72494,E,0.052,,120324,,,A*77

$GPRMC,101037.60,A,4548.66469,N,00837.72494,E,0.002,,120324,,,A*70

$GPRMC,101037.70,A,4548.66471,N,00837.72494,E,0.105,,120324,,,A*7E

$GPRMC,101037.80,A,4548.66472,N,00837.72495,E,0.075,,120324,,,A*75

$GPRMC,101037.90,A,4548.66472,N,00837.72495,E,0.063,,120324,,,A*73

$GPRMC,101038.00,A,4548.66473,N,00837.72495,E,0.083,,120324,,,A*7A

$GPRMC,101038.10,A,4548.66474,N,00837.72496,E,0.027,,120324,,,A*71

$GPRMC,101038.20,A,4548.66475,N,00837.72496,E,0.069,,120324,,,A*79

$GPRMC,101038.30,A,4548.66476,N,00837.72496,E,0.025,,120324,,,A*73

$GPRMC,101038.40,A,4548.66477,N,00837.72497,E,0.078,,120324,,,A*7C

$GPRMC,101038.50,A,4548.66478,N,00837.72497,E,0.067,,120324,,,A*7C

$GPRMC,101038.60,A,4548.66479,N,00837.72498,E,0.078,,120324,,,A*7F

$GPRMC,101038.70,A,4548.66482,N,00837.72498,E,0.126,,120324,,,A*70

$GPRMC,101038.80,A,4548.66483,N,00837.72498,E,0.048,,120324,,,A*77

$GPRMC,101038.90,A,4548.66484,N,00837.72498,E,0.041,,120324,,,A*78

$GPRMC,101039.00,A,4548.66487,N,00837.72499,E,0.031,,120324,,,A*75

$GPRMC,101039.10,A,4548.66489,N,00837.72499,E,0.029,,120324,,,A*73

$GPRMC,101039.20,A,4548.66491,N,00837.72500,E,0.027,,120324,,,A*76

$GPRMC,101039.30,A,4548.66492,N,00837.72500,E,0.040,,120324,,,A*75

$GPRMC,101039.40,A,4548.66495,N,00837.72500,E,0.100,,120324,,,A*70

$GPRMC,101039.50,A,4548.66496,N,00837.72501,E,0.047,,120324,,,A*71

$GPRMC,101039.60,A,4548.66498,N,00837.72501,E,0.075,,120324,,,A*7D

$GPRMC,101039.70,A,4548.66498,N,00837.72502,E,0.139,,120324,,,A*76

$GPRMC,101039.80,A,4548.66501,N,00837.72502,E,0.045,,120324,,,A*72

$GPRMC,101039.90,A,4548.66503,N,00837.72503,E,0.021,,120324,,,A*72

$GPRMC,101040.00,A,4548.66505,N,00837.72503,E,0.079,,120324,,,A*7E

$GPRMC,101040.10,A,4548.66506,N,00837.72503,E,0.049,,120324,,,A*7F

$GPRMC,101040.20,A,4548.66508,N,00837.72503,E,0.082,,120324,,,A*75

$GPRMC,101040.30,A,4548.66510,N,00837.72504,E,0.054,,120324,,,A*71

$GPRMC,101040.40,A,4548.66512,N,00837.72504,E,0.112,,120324,,,A*77

$GPRMC,101040.50,A,4548.66514,N,00837.72504,E,0.096,,120324,,,A*7D

$GPRMC,101040.60,A,4548.66515,N,00837.72505,E,0.050,,120324,,,A*74

$GPRMC,101040.70,A,4548.66517,N,00837.72505,E,0.083,,120324,,,A*79

$GPRMC,101040.80,A,4548.66517,N,00837.72505,E,0.088,,120324,,,A*7D

$GPRMC,101040.90,A,4548.66519,N,00837.72505,E,0.065,,120324,,,A*71

$GPRMC,101041.00,A,4548.66520,N,00837.72505,E,0.069,,120324,,,A*7F

$GPRMC,101041.10,A,4548.66521,N,00837.72505,E,0.055,,120324,,,A*70

$GPRMC,101041.20,A,4548.66522,N,00837.72505,E,0.065,,120324,,,A*73

$GPRMC,101041.30,A,4548.66523,N,00837.72506,E,0.017,,120324,,,A*75

$GPRMC,101041.40,A,4548.66524,N,00837.72506,E,0.076,,120324,,,A*72

$GPRMC,101041.50,A,4548.66525,N,00837.72506,E,0.025,,120324,,,A*74

$GPRMC,101041.60,A,4548.66525,N,00837.72507,E,0.036,,120324,,,A*74

$GPRMC,101041.70,A,4548.66525,N,00837.72506,E,0.093,,120324,,,A*7B

$GPRMC,101041.80,A,4548.66525,N,00837.72507,E,0.034,,120324,,,A*78

$GPRMC,101041.90,A,4548.66525,N,00837.72507,E,0.120,,120324,,,A*7D

$GPRMC,101042.00,A,4548.66524,N,00837.72508,E,0.158,,120324,,,A*76

$GPRMC,101042.10,A,4548.66524,N,00837.72508,E,0.116,,120324,,,A*7D

$GPRMC,101042.20,A,4548.66525,N,00837.72509,E,0.099,,120324,,,A*78

$GPRMC,101042.30,A,4548.66524,N,00837.72509,E,0.129,,120324,,,A*72

$GPRMC,101042.40,A,4548.66525,N,00837.72510,E,0.070,,120324,,,A*71

$GPRMC,101042.50,A,4548.66525,N,00837.72510,E,0.013,,120324,,,A*75

$GPRMC,101042.60,A,4548.66525,N,00837.72511,E,0.144,,120324,,,A*74

$GPRMC,101042.70,A,4548.66525,N,00837.72511,E,0.079,,120324,,,A*7A

$GPRMC,101042.80,A,4548.66526,N,00837.72511,E,0.160,,120324,,,A*7F

$GPRMC,101042.90,A,4548.66524,N,00837.72511,E,0.096,,120324,,,A*74

$GPRMC,101043.00,A,4548.66522,N,00837.72511,E,0.321,,120324,,,A*75

$GPRMC,101043.10,A,4548.66523,N,00837.72509,E,0.306,,120324,,,A*79

$GPRMC,101043.20,A,4548.66522,N,00837.72510,E,0.193,,120324,,,A*7D

$GPRMC,101043.30,A,4548.66520,N,00837.72510,E,0.321,,120324,,,A*75

$GPRMC,101043.40,A,4548.66521,N,00837.72512,E,0.023,,120324,,,A*70

$GPRMC,101043.50,A,4548.66523,N,00837.72512,E,0.253,,120324,,,A*76

$GPRMC,101043.60,A,4548.66523,N,00837.72513,E,0.149,,120324,,,A*7C

$GPRMC,101043.70,A,4548.66523,N,00837.72513,E,0.277,,120324,,,A*73

$GPRMC,101043.80,A,4548.66524,N,00837.72513,E,0.377,,120324,,,A*7A

$GPRMC,101043.90,A,4548.66523,N,00837.72514,E,0.179,,120324,,,A*77

$GPRMC,101044.00,A,4548.66522,N,00837.72515,E,0.271,,120324,,,A*72

$GPRMC,101044.10,A,4548.66522,N,00837.72514,E,0.225,,120324,,,A*73

$GPRMC,101044.20,A,4548.66521,N,00837.72515,E,0.092,,120324,,,A*7C

$GPRMC,101044.30,A,4548.66520,N,00837.72516,E,0.068,,120324,,,A*7A

$GPRMC,101044.40,A,4548.66520,N,00837.72516,E,0.176,,120324,,,A*73

$GPRMC,101044.50,A,4548.66518,N,00837.72516,E,0.035,,120324,,,A*7F

$GPRMC,101044.60,A,4548.66518,N,00837.72518,E,0.125,,120324,,,A*72

$GPRMC,101044.70,A,4548.66517,N,00837.72518,E,0.162,,120324,,,A*7F

$GPRMC,101044.80,A,4548.66515,N,00837.72518,E,0.060,,120324,,,A*71

$GPRMC,101044.90,A,4548.66514,N,00837.72520,E,0.256,,120324,,,A*7D

$GPRMC,101045.00,A,4548.66513,N,00837.72520,E,0.179,,120324,,,A*7C

$GPRMC,101045.10,A,4548.66512,N,00837.72520,E,0.132,,120324,,,A*73

$GPRMC,101045.20,A,4548.66512,N,00837.72521,E,0.065,,120324,,,A*72

$GPRMC,101045.30,A,4548.66509,N,00837.72522,E,0.013,,120324,,,A*7B

$GPRMC,101045.40,A,4548.66510,N,00837.72522,E,0.111,,120324,,,A*77

$GPRMC,101045.50,A,4548.66507,N,00837.72524,E,0.130,,120324,,,A*75

$GPRMC,101045.60,A,4548.66507,N,00837.72524,E,0.129,,120324,,,A*7E

$GPRMC,101045.70,A,4548.66505,N,00837.72524,E,0.250,,120324,,,A*70

$GPRMC,101045.80,A,4548.66504,N,00837.72525,E,0.038,,120324,,,A*73

$GPRMC,101045.90,A,4548.66503,N,00837.72526,E,0.089,,120324,,,A*7C

$GPRMC,101046.00,A,4548.66500,N,00837.72527,E,0.190,,120324,,,A*7D

$GPRMC,101046.10,A,4548.66500,N,00837.72528,E,0.114,,120324,,,A*7F

$GPRMC,101046.20,A,4548.66499,N,00837.72527,E,0.295,,120324,,,A*78

$GPRMC,101046.30,A,4548.66497,N,00837.72528,E,0.133,,120324,,,A*77

$GPRMC,101046.40,A,4548.66494,N,00837.72528,E,0.110,,120324,,,A*72

$GPRMC,101046.50,A,4548.66493,N,00837.72529,E,0.136,,120324,,,A*71

$GPRMC,101046.60,A,4548.66491,N,00837.72529,E,0.082,,120324,,,A*7E

$GPRMC,101046.70,A,4548.66490,N,00837.72530,E,0.012,,120324,,,A*7F

$GPRMC,101046.80,A,4548.66488,N,00837.72530,E,0.082,,120324,,,A*70

$GPRMC,101046.90,A,4548.66488,N,00837.72530,E,0.055,,120324,,,A*7B

$GPRMC,101047.00,A,4548.66486,N,00837.72530,E,0.103,,120324,,,A*7F

$GPRMC,101047.10,A,4548.66487,N,00837.72531,E,0.095,,120324,,,A*70

$GPRMC,101047.20,A,4548.66486,N,00837.72532,E,0.058,,120324,,,A*70

$GPRMC,101047.30,A,4548.66484,N,00837.72532,E,0.053,,120324,,,A*78

$GPRMC,101047.40,A,4548.66482,N,00837.72532,E,0.086,,120324,,,A*71

$GPRMC,101047.50,A,4548.66479,N,00837.72533,E,0.066,,120324,,,A*7B

$GPRMC,101047.60,A,4548.66479,N,00837.72534,E,0.003,,120324,,,A*7C

$GPRMC,101047.70,A,4548.66477,N,00837.72534,E,0.036,,120324,,,A*75

$GPRMC,101047.80,A,4548.66475,N,00837.72534,E,0.019,,120324,,,A*75

$GPRMC,101047.90,A,4548.66473,N,00837.72534,E,0.073,,120324,,,A*7E

$GPRMC,101048.00,A,4548.66472,N,00837.72534,E,0.033,,120324,,,A*7D

$GPRMC,101048.10,A,4548.66471,N,00837.72534,E,0.030,,120324,,,A*7C

$GPRMC,101048.20,A,4548.66469,N,00837.72535,E,0.022,,120324,,,A*74

$GPRMC,101048.30,A,4548.66468,N,00837.72534,E,0.074,,120324,,,A*76

$GPRMC,101048.40,A,4548.66467,N,00837.72535,E,0.049,,120324,,,A*71

$GPRMC,101048.50,A,4548.66465,N,00837.72534,E,0.032,,120324,,,A*7F

$GPRMC,101048.60,A,4548.66462,N,00837.72534,E,0.050,,120324,,,A*7F

$GPRMC,101048.70,A,4548.66461,N,00837.72534,E,0.061,,120324,,,A*7F

$GPRMC,101048.80,A,4548.66459,N,00837.72534,E,0.071,,120324,,,A*7A

$GPRMC,101048.90,A,4548.66458,N,00837.72535,E,0.019,,120324,,,A*75

$GPRMC,101049.00,A,4548.66456,N,00837.72535,E,0.059,,120324,,,A*77

$GPRMC,101049.10,A,4548.66454,N,00837.72535,E,0.042,,120324,,,A*7E

$GPRMC,101049.20,A,4548.66453,N,00837.72536,E,0.023,,120324,,,A*7E

$GPRMC,101049.30,A,4548.66451,N,00837.72536,E,0.052,,120324,,,A*7B

$GPRMC,101049.40,A,4548.66449,N,00837.72536,E,0.058,,120324,,,A*7F

$GPRMC,101049.50,A,4548.66447,N,00837.72537,E,0.047,,120324,,,A*7F

$GPRMC,101049.60,A,4548.66445,N,00837.72537,E,0.028,,120324,,,A*77

$GPRMC,101049.70,A,4548.66443,N,00837.72537,E,0.027,,120324,,,A*7F

$GPRMC,101049.80,A,4548.66442,N,00837.72538,E,0.014,,120324,,,A*7E

$GPRMC,101049.90,A,4548.66440,N,00837.72538,E,0.011,,120324,,,A*78

$GPRMC,101050.00,A,4548.66439,N,00837.72539,E,0.047,,120324,,,A*75

$GPRMC,101050.10,A,4548.66437,N,00837.72539,E,0.063,,120324,,,A*7C

$GPRMC,101050.20,A,4548.66436,N,00837.72540,E,0.074,,120324,,,A*76

$GPRMC,101050.30,A,4548.66435,N,00837.72540,E,0.072,,120324,,,A*72

$GPRMC,101050.40,A,4548.66434,N,00837.72541,E,0.036,,120324,,,A*75

$GPRMC,101050.50,A,4548.66433,N,00837.72542,E,0.018,,120324,,,A*7C

$GPRMC,101050.60,A,4548.66431,N,00837.72542,E,0.040,,120324,,,A*70

$GPRMC,101050.70,A,4548.66430,N,00837.72543,E,0.013,,120324,,,A*77

$GPRMC,101050.80,A,4548.66428,N,00837.72543,E,0.029,,120324,,,A*78

$GPRMC,101050.90,A,4548.66427,N,00837.72544,E,0.064,,120324,,,A*78

$GPRMC,101051.00,A,4548.66425,N,00837.72544,E,0.038,,120324,,,A*7B

$GPRMC,101051.10,A,4548.66424,N,00837.72545,E,0.029,,120324,,,A*7A

$GPRMC,101051.20,A,4548.66422,N,00837.72546,E,0.036,,120324,,,A*72

$GPRMC,101051.30,A,4548.66420,N,00837.72546,E,0.005,,120324,,,A*71

$GPRMC,101051.40,A,4548.66418,N,00837.72547,E,0.005,,120324,,,A*7C

$GPRMC,101051.50,A,4548.66417,N,00837.72547,E,0.050,,120324,,,A*72

$GPRMC,101051.60,A,4548.66414,N,00837.72547,E,0.019,,120324,,,A*7F

$GPRMC,101051.70,A,4548.66412,N,00837.72548,E,0.065,,120324,,,A*7C

$GPRMC,101051.80,A,4548.66409,N,00837.72548,E,0.060,,120324,,,A*7C

$GPRMC,101051.90,A,4548.66407,N,00837.72548,E,0.021,,120324,,,A*76

$GPRMC,101052.00,A,4548.66404,N,00837.72549,E,0.058,,120324,,,A*70

$GPRMC,101052.10,A,4548.66401,N,00837.72549,E,0.031,,120324,,,A*7B

$GPRMC,101052.20,A,4548.66399,N,00837.72550,E,0.030,,120324,,,A*77

$GPRMC,101052.30,A,4548.66396,N,00837.72550,E,0.014,,120324,,,A*7F

$GPRMC,101052.40,A,4548.66394,N,00837.72551,E,0.023,,120324,,,A*7F

$GPRMC,101052.50,A,4548.66391,N,00837.72552,E,0.074,,120324,,,A*7A

$GPRMC,101052.60,A,4548.66389,N,00837.72552,E,0.033,,120324,,,A*73

$GPRMC,101052.70,A,4548.66386,N,00837.72552,E,0.098,,120324,,,A*7C

$GPRMC,101052.80,A,4548.66384,N,00837.72553,E,0.045,,120324,,,A*70

$GPRMC,101052.90,A,4548.66382,N,00837.72554,E,0.056,,120324,,,A*72

$GPRMC,101053.00,A,4548.66380,N,00837.72554,E,0.050,,120324,,,A*7E

$GPRMC,101053.10,A,4548.66378,N,00837.72555,E,0.051,,120324,,,A*78

$GPRMC,101053.20,A,4548.66376,N,00837.72555,E,0.037,,120324,,,A*75

$GPRMC,101053.30,A,4548.66375,N,00837.72555,E,0.025,,120324,,,A*74

$GPRMC,101053.40,A,4548.66373,N,00837.72556,E,0.084,,120324,,,A*7D

$GPRMC,101053.50,A,4548.66371,N,00837.72556,E,0.071,,120324,,,A*74

$GPRMC,101053.60,A,4548.66370,N,00837.72557,E,0.028,,120324,,,A*7B

$GPRMC,101053.70,A,4548.66369,N,00837.72557,E,0.059,,120324,,,A*74

$GPRMC,101053.80,A,4548.66369,N,00837.72557,E,0.104,,120324,,,A*72

$GPRMC,101053.90,A,4548.66367,N,00837.72558,E,0.036,,120324,,,A*72

$GPRMC,101054.00,A,4548.66366,N,00837.72559,E,0.076,,120324,,,A*78

$GPRMC,101054.10,A,4548.66364,N,00837.72560,E,0.100,,120324,,,A*71

$GPRMC,101054.20,A,4548.66364,N,00837.72561,E,0.031,,120324,,,A*70

$GPRMC,101054.30,A,4548.66362,N,00837.72562,E,0.057,,120324,,,A*74

$GPRMC,101054.40,A,4548.66361,N,00837.72562,E,0.049,,120324,,,A*7F

$GPRMC,101054.50,A,4548.66360,N,00837.72563,E,0.027,,120324,,,A*76

$GPRMC,101054.60,A,4548.66359,N,00837.72564,E,0.044,,120324,,,A*7D

$GPRMC,101054.70,A,4548.66357,N,00837.72564,E,0.034,,120324,,,A*75

$GPRMC,101054.80,A,4548.66356,N,00837.72565,E,0.025,,120324,,,A*7A

$GPRMC,101054.90,A,4548.66354,N,00837.72565,E,0.066,,120324,,,A*7E

$GPRMC,101055.00,A,4548.66352,N,00837.72566,E,0.051,,120324,,,A*77

$GPRMC,101055.10,A,4548.66351,N,00837.72566,E,0.027,,120324,,,A*74

$GPRMC,101055.20,A,4548.66349,N,00837.72566,E,0.066,,120324,,,A*7B

$GPRMC,101055.30,A,4548.66348,N,00837.72566,E,0.035,,120324,,,A*7D

$GPRMC,101055.40,A,4548.66347,N,00837.72566,E,0.020,,120324,,,A*71

$GPRMC,101055.50,A,4548.66346,N,00837.72566,E,0.078,,120324,,,A*7C

$GPRMC,101055.60,A,4548.66345,N,00837.72566,E,0.075,,120324,,,A*71

$GPRMC,101055.70,A,4548.66343,N,00837.72566,E,0.019,,120324,,,A*7C

$GPRMC,101055.80,A,4548.66342,N,00837.72566,E,0.042,,120324,,,A*7C

$GPRMC,101055.90,A,4548.66341,N,00837.72567,E,0.018,,120324,,,A*70

$GPRMC,101056.00,A,4548.66340,N,00837.72567,E,0.070,,120324,,,A*75

$GPRMC,101056.10,A,4548.66339,N,00837.72567,E,0.055,,120324,,,A*7D

$GPRMC,101056.20,A,4548.66337,N,00837.72567,E,0.029,,120324,,,A*7B

$GPRMC,101056.30,A,4548.66336,N,00837.72567,E,0.055,,120324,,,A*70

$GPRMC,101056.40,A,4548.66335,N,00837.72567,E,0.031,,120324,,,A*76

$GPRMC,101056.50,A,4548.66334,N,00837.72567,E,0.034,,120324,,,A*73

$GPRMC,101056.60,A,4548.66334,N,00837.72567,E,0.052,,120324,,,A*70

$GPRMC,101056.70,A,4548.66333,N,00837.72567,E,0.040,,120324,,,A*75

$GPRMC,101056.80,A,4548.66332,N,00837.72567,E,0.047,,120324,,,A*7C

$GPRMC,101056.90,A,4548.66332,N,00837.72567,E,0.058,,120324,,,A*73

$GPRMC,101057.00,A,4548.66331,N,00837.72567,E,0.048,,120324,,,A*79

$GPRMC,101057.10,A,4548.66330,N,00837.72568,E,0.004,,120324,,,A*7E

$GPRMC,101057.20,A,4548.66330,N,00837.72568,E,0.019,,120324,,,A*71

$GPRMC,101057.30,A,4548.66329,N,00837.72568,E,0.039,,120324,,,A*7A

$GPRMC,101057.40,A,4548.66328,N,00837.72569,E,0.047,,120324,,,A*74

$GPRMC,101057.50,A,4548.66327,N,00837.72569,E,0.013,,120324,,,A*7B

$GPRMC,101057.60,A,4548.66326,N,00837.72570,E,0.033,,120324,,,A*73

$GPRMC,101057.70,A,4548.66325,N,00837.72570,E,0.027,,120324,,,A*74

$GPRMC,101057.80,A,4548.66324,N,00837.72571,E,0.079,,120324,,,A*70

$GPRMC,101057.90,A,4548.66323,N,00837.72571,E,0.032,,120324,,,A*79

$GPRMC,101058.00,A,4548.66322,N,00837.72572,E,0.057,,120324,,,A*7E

$GPRMC,101058.10,A,4548.66322,N,00837.72572,E,0.027,,120324,,,A*78

$GPRMC,101058.20,A,4548.66321,N,00837.72572,E,0.027,,120324,,,A*78

$GPRMC,101058.30,A,4548.66321,N,00837.72573,E,0.019,,120324,,,A*75

$GPRMC,101058.40,A,4548.66320,N,00837.72574,E,0.042,,120324,,,A*7A

$GPRMC,101058.50,A,4548.66320,N,00837.72574,E,0.075,,120324,,,A*7F

$GPRMC,101058.60,A,4548.66319,N,00837.72575,E,0.049,,120324,,,A*78

$GPRMC,101058.70,A,4548.66318,N,00837.72575,E,0.165,,120324,,,A*77

$GPRMC,101058.80,A,4548.66318,N,00837.72575,E,0.044,,120324,,,A*7A

$GPRMC,101058.90,A,4548.66318,N,00837.72576,E,0.043,,120324,,,A*7F

$GPRMC,101059.00,A,4548.66317,N,00837.72576,E,0.056,,120324,,,A*7C

$GPRMC,101059.10,A,4548.66317,N,00837.72577,E,0.045,,120324,,,A*7E

$GPRMC,101059.20,A,4548.66316,N,00837.72577,E,0.022,,120324,,,A*7D

$GPRMC,101059.30,A,4548.66317,N,00837.72578,E,0.039,,120324,,,A*78

$GPRMC,101059.40,A,4548.66316,N,00837.72578,E,0.017,,120324,,,A*72

$GPRMC,101059.50,A,4548.66315,N,00837.72579,E,0.083,,120324,,,A*7C

$GPRMC,101059.60,A,4548.66315,N,00837.72579,E,0.027,,120324,,,A*71

$GPRMC,101059.70,A,4548.66315,N,00837.72579,E,0.114,,120324,,,A*71

$GPRMC,101059.80,A,4548.66314,N,00837.72579,E,0.087,,120324,,,A*74

$GPRMC,101059.90,A,4548.66314,N,00837.72580,E,0.073,,120324,,,A*78

$GPRMC,101100.00,A,4548.66314,N,00837.72580,E,0.073,,120324,,,A*7C

$GPRMC,101100.10,A,4548.66313,N,00837.72580,E,0.027,,120324,,,A*7B

$GPRMC,101100.20,A,4548.66312,N,00837.72580,E,0.041,,120324,,,A*79

$GPRMC,101100.30,A,4548.66311,N,00837.72581,E,0.046,,120324,,,A*7D

$GPRMC,101100.40,A,4548.66311,N,00837.72581,E,0.049,,120324,,,A*75

$GPRMC,101100.50,A,4548.66310,N,00837.72581,E,0.058,,120324,,,A*75

$GPRMC,101100.60,A,4548.66310,N,00837.72582,E,0.034,,120324,,,A*7F

$GPRMC,101100.70,A,4548.66309,N,00837.72582,E,0.034,,120324,,,A*76

$GPRMC,101100.80,A,4548.66308,N,00837.72582,E,0.013,,120324,,,A*7D

$GPRMC,101100.90,A,4548.66308,N,00837.72583,E,0.052,,120324,,,A*78

$GPRMC,101101.00,A,4548.66307,N,00837.72583,E,0.031,,120324,,,A*7A

$GPRMC,101101.10,A,4548.66306,N,00837.72583,E,0.013,,120324,,,A*7A

$GPRMC,101101.20,A,4548.66306,N,00837.72584,E,0.065,,120324,,,A*7F

$GPRMC,101101.30,A,4548.66305,N,00837.72584,E,0.008,,120324,,,A*76

$GPRMC,101101.40,A,4548.66304,N,00837.72584,E,0.011,,120324,,,A*78

$GPRMC,101101.50,A,4548.66303,N,00837.72584,E,0.062,,120324,,,A*7A

$GPRMC,101101.60,A,4548.66303,N,00837.72585,E,0.030,,120324,,,A*7F

$GPRMC,101101.70,A,4548.66302,N,00837.72585,E,0.021,,120324,,,A*7F

$GPRMC,101101.80,A,4548.66302,N,00837.72585,E,0.051,,120324,,,A*77

$GPRMC,101101.90,A,4548.66301,N,00837.72585,E,0.021,,120324,,,A*72

$GPRMC,101102.00,A,4548.66300,N,00837.72585,E,0.017,,120324,,,A*7C

$GPRMC,101102.10,A,4548.66300,N,00837.72585,E,0.013,,120324,,,A*79

$GPRMC,101102.20,A,4548.66299,N,00837.72585,E,0.053,,120324,,,A*7F

$GPRMC,101102.30,A,4548.66298,N,00837.72586,E,0.062,,120324,,,A*7E

$GPRMC,101102.40,A,4548.66297,N,00837.72586,E,0.055,,120324,,,A*72

$GPRMC,101102.50,A,4548.66297,N,00837.72586,E,0.022,,120324,,,A*73

$GPRMC,101102.60,A,4548.66296,N,00837.72586,E,0.104,,120324,,,A*74

$GPRMC,101102.70,A,4548.66295,N,00837.72586,E,0.087,,120324,,,A*7C

$GPRMC,101102.80,A,4548.66295,N,00837.72586,E,0.033,,120324,,,A*7C

$GPRMC,101102.90,A,4548.66294,N,00837.72586,E,0.075,,120324,,,A*7E

$GPRMC,101103.00,A,4548.66293,N,00837.72586,E,0.050,,120324,,,A*76

$GPRMC,101103.10,A,4548.66292,N,00837.72587,E,0.060,,120324,,,A*74

$GPRMC,101103.20,A,4548.66292,N,00837.72587,E,0.058,,120324,,,A*7C

$GPRMC,101103.30,A,4548.66291,N,00837.72587,E,0.031,,120324,,,A*71

$GPRMC,101103.40,A,4548.66291,N,00837.72587,E,0.015,,120324,,,A*70

$GPRMC,101103.50,A,4548.66290,N,00837.72587,E,0.027,,120324,,,A*71

$GPRMC,101103.60,A,4548.66289,N,00837.72587,E,0.048,,120324,,,A*73

$GPRMC,101103.70,A,4548.66289,N,00837.72587,E,0.040,,120324,,,A*7A

$GPRMC,101103.80,A,4548.66288,N,00837.72588,E,0.054,,120324,,,A*7E

$GPRMC,101103.90,A,4548.66287,N,00837.72588,E,0.043,,120324,,,A*76

$GPRMC,101104.00,A,4548.66287,N,00837.72588,E,0.044,,120324,,,A*7F

$GPRMC,101104.10,A,4548.66286,N,00837.72588,E,0.092,,120324,,,A*74

$GPRMC,101104.20,A,4548.66285,N,00837.72588,E,0.032,,120324,,,A*7E

$GPRMC,101104.30,A,4548.66284,N,00837.72588,E,0.030,,120324,,,A*7C

$GPRMC,101104.40,A,4548.66283,N,00837.72588,E,0.083,,120324,,,A*74

$GPRMC,101104.50,A,4548.66282,N,00837.72589,E,0.098,,120324,,,A*7F

$GPRMC,101104.60,A,4548.66282,N,00837.72589,E,0.201,,120324,,,A*7E

$GPRMC,101104.70,A,4548.66280,N,00837.72589,E,0.059,,120324,,,A*72

$GPRMC,101104.80,A,4548.66279,N,00837.72589,E,0.020,,120324,,,A*75

$GPRMC,101104.90,A,4548.66279,N,00837.72589,E,0.104,,120324,,,A*73

$GPRMC,101105.00,A,4548.66278,N,00837.72590,E,0.101,,120324,,,A*77

$GPRMC,101105.10,A,4548.66277,N,00837.72590,E,0.033,,120324,,,A*79

$GPRMC,101105.20,A,4548.66277,N,00837.72590,E,0.054,,120324,,,A*7B

$GPRMC,101105.30,A,4548.66277,N,00837.72590,E,0.123,,120324,,,A*7B

$GPRMC,101105.40,A,4548.66276,N,00837.72590,E,0.046,,120324,,,A*7F

$GPRMC,101105.50,A,4548.66275,N,00837.72591,E,0.105,,120324,,,A*7A

$GPRMC,101105.60,A,4548.66274,N,00837.72590,E,0.088,,120324,,,A*7D

$GPRMC,101105.70,A,4548.66274,N,00837.72591,E,0.012,,120324,,,A*7E

$GPRMC,101105.80,A,4548.66273,N,00837.72591,E,0.045,,120324,,,A*74

$GPRMC,101105.90,A,4548.66273,N,00837.72591,E,0.019,,120324,,,A*7C

$GPRMC,101106.00,A,4548.66272,N,00837.72591,E,0.023,,120324,,,A*7E

$GPRMC,101106.10,A,4548.66272,N,00837.72591,E,0.024,,120324,,,A*78

$GPRMC,101106.20,A,4548.66271,N,00837.72591,E,0.018,,120324,,,A*77

$GPRMC,101106.30,A,4548.66271,N,00837.72591,E,0.025,,120324,,,A*78

$GPRMC,101106.40,A,4548.66270,N,00837.72591,E,0.093,,120324,,,A*73

$GPRMC,101106.50,A,4548.66270,N,00837.72591,E,0.009,,120324,,,A*71

$GPRMC,101106.60,A,4548.66269,N,00837.72591,E,0.069,,120324,,,A*7C

$GPRMC,101106.70,A,4548.66268,N,00837.72591,E,0.211,,120324,,,A*71

$GPRMC,101106.80,A,4548.66268,N,00837.72591,E,0.076,,120324,,,A*7D

$GPRMC,101106.90,A,4548.66268,N,00837.72591,E,0.075,,120324,,,A*7F

$GPRMC,101107.00,A,4548.66267,N,00837.72591,E,0.037,,120324,,,A*7E

$GPRMC,101107.10,A,4548.66267,N,00837.72591,E,0.096,,120324,,,A*74

$GPRMC,101107.20,A,4548.66266,N,00837.72591,E,0.097,,120324,,,A*77

$GPRMC,101107.30,A,4548.66266,N,00837.72592,E,0.077,,120324,,,A*7B

$GPRMC,101107.40,A,4548.66265,N,00837.72592,E,0.016,,120324,,,A*78

$GPRMC,101107.50,A,4548.66264,N,00837.72593,E,0.043,,120324,,,A*79

$GPRMC,101107.60,A,4548.66264,N,00837.72593,E,0.099,,120324,,,A*7D

$GPRMC,101107.70,A,4548.66263,N,00837.72594,E,0.061,,120324,,,A*7B

$GPRMC,101107.80,A,4548.66262,N,00837.72594,E,0.023,,120324,,,A*73

$GPRMC,101107.90,A,4548.66261,N,00837.72594,E,0.032,,120324,,,A*71

$GPRMC,101108.00,A,4548.66259,N,00837.72594,E,0.135,,120324,,,A*7A

$GPRMC,101108.10,A,4548.66259,N,00837.72595,E,0.057,,120324,,,A*7F

$GPRMC,101108.20,A,4548.66258,N,00837.72595,E,0.045,,120324,,,A*7E

$GPRMC,101108.30,A,4548.66258,N,00837.72595,E,0.031,,120324,,,A*7C

$GPRMC,101108.40,A,4548.66257,N,00837.72596,E,0.116,,120324,,,A*73

$GPRMC,101108.50,A,4548.66257,N,00837.72595,E,0.018,,120324,,,A*7E

$GPRMC,101108.60,A,4548.66256,N,00837.72596,E,0.071,,120324,,,A*70

$GPRMC,101108.70,A,4548.66256,N,00837.72595,E,0.052,,120324,,,A*73

$GPRMC,101108.80,A,4548.66256,N,00837.72595,E,0.084,,120324,,,A*77

$GPRMC,101108.90,A,4548.66255,N,00837.72596,E,0.043,,120324,,,A*7D

$GPRMC,101109.00,A,4548.66254,N,00837.72596,E,0.096,,120324,,,A*7C

$GPRMC,101109.10,A,4548.66254,N,00837.72596,E,0.037,,120324,,,A*76

$GPRMC,101109.20,A,4548.66253,N,00837.72596,E,0.136,,120324,,,A*72

$GPRMC,101109.30,A,4548.66252,N,00837.72597,E,0.378,141.53,120324,,,A*67

$GPRMC,101109.40,A,4548.66252,N,00837.72597,E,0.061,,120324,,,A*77

$GPRMC,101109.50,A,4548.66252,N,00837.72597,E,0.033,,120324,,,A*71

$GPRMC,101109.60,A,4548.66251,N,00837.72597,E,0.115,,120324,,,A*74

$GPRMC,101109.70,A,4548.66250,N,00837.72597,E,0.045,,120324,,,A*70

$GPRMC,101109.80,A,4548.66250,N,00837.72597,E,0.023,,120324,,,A*7F

$GPRMC,101109.90,A,4548.66249,N,00837.72597,E,0.076,,120324,,,A*76

$GPRMC,101110.00,A,4548.66249,N,00837.72597,E,0.052,,120324,,,A*71

$GPRMC,101110.10,A,4548.66248,N,00837.72597,E,0.041,,120324,,,A*73

$GPRMC,101110.20,A,4548.66247,N,00837.72598,E,0.102,,120324,,,A*76

$GPRMC,101110.30,A,4548.66246,N,00837.72598,E,0.053,,120324,,,A*73

$GPRMC,101110.40,A,4548.66246,N,00837.72598,E,0.062,,120324,,,A*76

$GPRMC,101110.50,A,4548.66245,N,00837.72597,E,0.056,,120324,,,A*7C

$GPRMC,101110.60,A,4548.66244,N,00837.72598,E,0.012,,120324,,,A*71

$GPRMC,101110.70,A,4548.66243,N,00837.72597,E,0.100,,120324,,,A*7A

$GPRMC,101110.80,A,4548.66243,N,00837.72597,E,0.045,,120324,,,A*75

$GPRMC,101110.90,A,4548.66242,N,00837.72597,E,0.054,,120324,,,A*75

$GPRMC,101111.00,A,4548.66241,N,00837.72597,E,0.078,,120324,,,A*70

$GPRMC,101111.10,A,4548.66240,N,00837.72597,E,0.064,,120324,,,A*7D

$GPRMC,101111.20,A,4548.66240,N,00837.72597,E,0.052,,120324,,,A*7B

$GPRMC,101111.30,A,4548.66240,N,00837.72597,E,0.110,,120324,,,A*7D

$GPRMC,101111.40,A,4548.66239,N,00837.72598,E,0.256,,120324,,,A*7A

$GPRMC,101111.50,A,4548.66239,N,00837.72597,E,0.069,,120324,,,A*7A

$GPRMC,101111.60,A,4548.66240,N,00837.72597,E,0.201,,120324,,,A*7B

$GPRMC,101111.70,A,4548.66240,N,00837.72597,E,0.060,,120324,,,A*7F

$GPRMC,101111.80,A,4548.66240,N,00837.72597,E,0.107,,120324,,,A*70

$GPRMC,101111.90,A,4548.66240,N,00837.72597,E,0.123,,120324,,,A*77

$GPRMC,101112.00,A,4548.66239,N,00837.72597,E,0.243,,120324,,,A*76

$GPRMC,101112.10,A,4548.66239,N,00837.72597,E,0.068,,120324,,,A*7C

$GPRMC,101112.20,A,4548.66238,N,00837.72597,E,0.122,,120324,,,A*71

$GPRMC,101112.30,A,4548.66238,N,00837.72597,E,0.067,,120324,,,A*70

$GPRMC,101112.40,A,4548.66238,N,00837.72597,E,0.072,,120324,,,A*73

$GPRMC,101112.50,A,4548.66237,N,00837.72597,E,0.071,,120324,,,A*7E

$GPRMC,101112.60,A,4548.66237,N,00837.72597,E,0.108,,120324,,,A*72

$GPRMC,101112.70,A,4548.66236,N,00837.72597,E,0.040,,120324,,,A*7F

$GPRMC,101112.80,A,4548.66235,N,00837.72598,E,0.136,,120324,,,A*7C

$GPRMC,101112.90,A,4548.66236,N,00837.72597,E,0.068,,120324,,,A*7B

$GPRMC,101113.00,A,4548.66236,N,00837.72597,E,0.046,,120324,,,A*7F

$GPRMC,101113.10,A,4548.66235,N,00837.72597,E,0.087,,120324,,,A*70

$GPRMC,101113.20,A,4548.66235,N,00837.72597,E,0.049,,120324,,,A*71

$GPRMC,101113.30,A,4548.66234,N,00837.72597,E,0.060,,120324,,,A*7A

$GPRMC,101113.40,A,4548.66235,N,00837.72597,E,0.088,,120324,,,A*7A

$GPRMC,101113.50,A,4548.66234,N,00837.72597,E,0.033,,120324,,,A*7A

$GPRMC,101113.60,A,4548.66234,N,00837.72597,E,0.065,,120324,,,A*7A

$GPRMC,101113.70,A,4548.66234,N,00837.72597,E,0.081,,120324,,,A*71

$GPRMC,101113.80,A,4548.66233,N,00837.72597,E,0.069,,120324,,,A*7F

$GPRMC,101113.90,A,4548.66233,N,00837.72597,E,0.048,,120324,,,A*7D

$GPRMC,101114.00,A,4548.66233,N,00837.72597,E,0.091,,120324,,,A*77

$GPRMC,101114.10,A,4548.66233,N,00837.72597,E,0.158,,120324,,,A*72

$GPRMC,101114.20,A,4548.66232,N,00837.72596,E,0.058,,120324,,,A*70

$GPRMC,101114.30,A,4548.66232,N,00837.72597,E,0.092,,120324,,,A*76

$GPRMC,101114.40,A,4548.66232,N,00837.72597,E,0.026,,120324,,,A*7E

$GPRMC,101114.50,A,4548.66232,N,00837.72597,E,0.072,,120324,,,A*7E

$GPRMC,101114.60,A,4548.66232,N,00837.72597,E,0.054,,120324,,,A*79

$GPRMC,101114.70,A,4548.66231,N,00837.72597,E,0.015,,120324,,,A*7E

$GPRMC,101114.80,A,4548.66231,N,00837.72597,E,0.020,,120324,,,A*77

$GPRMC,101114.90,A,4548.66232,N,00837.72596,E,0.077,,120324,,,A*76

$GPRMC,101115.00,A,4548.66232,N,00837.72596,E,0.068,,120324,,,A*70

$GPRMC,101115.10,A,4548.66232,N,00837.72596,E,0.044,,120324,,,A*7F

$GPRMC,101115.20,A,4548.66231,N,00837.72597,E,0.103,,120324,,,A*7C

$GPRMC,101115.30,A,4548.66232,N,00837.72596,E,0.181,,120324,,,A*75

$GPRMC,101115.40,A,4548.66232,N,00837.72596,E,0.013,,120324,,,A*78

$GPRMC,101115.50,A,4548.66232,N,00837.72596,E,0.084,,120324,,,A*77

$GPRMC,101115.60,A,4548.66232,N,00837.72596,E,0.051,,120324,,,A*7C

$GPRMC,101115.70,A,4548.66232,N,00837.72596,E,0.064,,120324,,,A*7B

$GPRMC,101115.80,A,4548.66231,N,00837.72596,E,0.008,,120324,,,A*7D

$GPRMC,101115.90,A,4548.66231,N,00837.72596,E,0.071,,120324,,,A*72

$GPRMC,101116.00,A,4548.66231,N,00837.72596,E,0.045,,120324,,,A*7F

$GPRMC,101116.10,A,4548.66230,N,00837.72596,E,0.084,,120324,,,A*72

$GPRMC,101116.20,A,4548.66231,N,00837.72597,E,0.068,,120324,,,A*73

$GPRMC,101116.30,A,4548.66230,N,00837.72596,E,0.044,,120324,,,A*7C

$GPRMC,101116.40,A,4548.66230,N,00837.72596,E,0.070,,120324,,,A*7C

$GPRMC,101116.50,A,4548.66230,N,00837.72596,E,0.022,,120324,,,A*7A

$GPRMC,101116.60,A,4548.66230,N,00837.72596,E,0.041,,120324,,,A*7C

$GPRMC,101116.70,A,4548.66230,N,00837.72596,E,0.030,,120324,,,A*7B

$GPRMC,101116.80,A,4548.66231,N,00837.72595,E,0.042,,120324,,,A*73

$GPRMC,101116.90,A,4548.66231,N,00837.72595,E,0.066,,120324,,,A*74

$GPRMC,101117.00,A,4548.66231,N,00837.72595,E,0.064,,120324,,,A*7E

$GPRMC,101117.10,A,4548.66231,N,00837.72595,E,0.045,,120324,,,A*7C

$GPRMC,101117.20,A,4548.66232,N,00837.72595,E,0.014,,120324,,,A*78

$GPRMC,101117.30,A,4548.66232,N,00837.72595,E,0.032,,120324,,,A*7D

$GPRMC,101117.40,A,4548.66232,N,00837.72595,E,0.013,,120324,,,A*79

$GPRMC,101117.50,A,4548.66233,N,00837.72595,E,0.046,,120324,,,A*79

$GPRMC,101117.60,A,4548.66233,N,00837.72595,E,0.057,,120324,,,A*7A

$GPRMC,101117.70,A,4548.66233,N,00837.72596,E,0.083,,120324,,,A*71

$GPRMC,101117.80,A,4548.66233,N,00837.72596,E,0.027,,120324,,,A*70

$GPRMC,101117.90,A,4548.66234,N,00837.72595,E,0.016,,120324,,,A*77

$GPRMC,101118.00,A,4548.66234,N,00837.72595,E,0.069,,120324,,,A*79

$GPRMC,101118.10,A,4548.66235,N,00837.72596,E,0.072,,120324,,,A*70

$GPRMC,101118.20,A,4548.66235,N,00837.72595,E,0.039,,120324,,,A*7F

$GPRMC,101118.30,A,4548.66235,N,00837.72595,E,0.032,,120324,,,A*75

$GPRMC,101118.40,A,4548.66236,N,00837.72596,E,0.113,,120324,,,A*70

$GPRMC,101118.50,A,4548.66235,N,00837.72596,E,0.198,,120324,,,A*71

$GPRMC,101118.60,A,4548.66237,N,00837.72596,E,0.191,,120324,,,A*79

$GPRMC,101118.70,A,4548.66237,N,00837.72596,E,0.112,,120324,,,A*73

$GPRMC,101118.80,A,4548.66238,N,00837.72595,E,0.177,,120324,,,A*73

$GPRMC,101118.90,A,4548.66238,N,00837.72596,E,0.153,,120324,,,A*77

$GPRMC,101119.00,A,4548.66240,N,00837.72597,E,0.189,,120324,,,A*76

$GPRMC,101119.10,A,4548.66241,N,00837.72596,E,0.132,,120324,,,A*77

$GPRMC,101119.20,A,4548.66242,N,00837.72597,E,0.151,,120324,,,A*73

$GPRMC,101119.30,A,4548.66241,N,00837.72596,E,0.195,,120324,,,A*78

$GPRMC,101119.40,A,4548.66243,N,00837.72596,E,0.214,,120324,,,A*77

$GPRMC,101119.50,A,4548.66242,N,00837.72597,E,0.206,,120324,,,A*75

$GPRMC,101119.60,A,4548.66244,N,00837.72597,E,0.159,,120324,,,A*79

$GPRMC,101119.70,A,4548.66245,N,00837.72596,E,0.176,,120324,,,A*75

$GPRMC,101119.80,A,4548.66244,N,00837.72596,E,0.052,,120324,,,A*7C

$GPRMC,101119.90,A,4548.66244,N,00837.72597,E,0.122,,120324,,,A*7A

$GPRMC,101120.00,A,4548.66244,N,00837.72597,E,0.054,,120324,,,A*79

$GPRMC,101120.10,A,4548.66245,N,00837.72597,E,0.054,,120324,,,A*79

$GPRMC,101120.20,A,4548.66244,N,00837.72597,E,0.058,,120324,,,A*77

$GPRMC,101120.30,A,4548.66244,N,00837.72597,E,0.056,,120324,,,A*78

$GPRMC,101120.40,A,4548.66244,N,00837.72597,E,0.088,,120324,,,A*7C

$GPRMC,101120.50,A,4548.66243,N,00837.72597,E,0.061,,120324,,,A*7D

$GPRMC,101120.60,A,4548.66243,N,00837.72597,E,0.108,,120324,,,A*70

$GPRMC,101120.70,A,4548.66243,N,00837.72597,E,0.136,,120324,,,A*7C

$GPRMC,101120.80,A,4548.66242,N,00837.72597,E,0.126,,120324,,,A*73

$GPRMC,101120.90,A,4548.66242,N,00837.72597,E,0.079,,120324,,,A*79

$GPRMC,101121.00,A,4548.66241,N,00837.72597,E,0.074,,120324,,,A*7F

$GPRMC,101121.10,A,4548.66241,N,00837.72597,E,0.067,,120324,,,A*7C

$GPRMC,101121.20,A,4548.66240,N,00837.72597,E,0.042,,120324,,,A*79

$GPRMC,101121.30,A,4548.66239,N,00837.72598,E,0.041,,120324,,,A*7A

$GPRMC,101121.40,A,4548.66238,N,00837.72597,E,0.050,,120324,,,A*73

$GPRMC,101121.50,A,4548.66238,N,00837.72598,E,0.023,,120324,,,A*79

$GPRMC,101121.60,A,4548.66237,N,00837.72598,E,0.012,,120324,,,A*77

$GPRMC,101121.70,A,4548.66236,N,00837.72598,E,0.039,,120324,,,A*7E

$GPRMC,101121.80,A,4548.66236,N,00837.72598,E,0.026,,120324,,,A*7F

$GPRMC,101121.90,A,4548.66235,N,00837.72598,E,0.030,,120324,,,A*7A

$GPRMC,101122.00,A,4548.66234,N,00837.72598,E,0.054,,120324,,,A*73

$GPRMC,101122.10,A,4548.66234,N,00837.72598,E,0.034,,120324,,,A*74

$GPRMC,101122.20,A,4548.66233,N,00837.72598,E,0.051,,120324,,,A*73

$GPRMC,101122.30,A,4548.66232,N,00837.72598,E,0.098,,120324,,,A*76

$GPRMC,101122.40,A,4548.66232,N,00837.72598,E,0.008,,120324,,,A*78

$GPRMC,101122.50,A,4548.66231,N,00837.72598,E,0.017,,120324,,,A*74

$GPRMC,101122.60,A,4548.66230,N,00837.72598,E,0.024,,120324,,,A*76

$GPRMC,101122.70,A,4548.66230,N,00837.72598,E,0.036,,120324,,,A*74

$GPRMC,101122.80,A,4548.66229,N,00837.72598,E,0.016,,120324,,,A*71

$GPRMC,101122.90,A,4548.66229,N,00837.72598,E,0.061,,120324,,,A*70

$GPRMC,101123.00,A,4548.66228,N,00837.72597,E,0.029,,120324,,,A*7A

$GPRMC,101123.10,A,4548.66228,N,00837.72598,E,0.069,,120324,,,A*70

$GPRMC,101123.20,A,4548.66228,N,00837.72598,E,0.102,,120324,,,A*7F

$GPRMC,101123.30,A,4548.66227,N,00837.72598,E,0.054,,120324,,,A*73

$GPRMC,101123.40,A,4548.66227,N,00837.72598,E,0.037,,120324,,,A*71

$GPRMC,101123.50,A,4548.66226,N,00837.72598,E,0.119,,120324,,,A*7C

$GPRMC,101123.60,A,4548.66226,N,00837.72597,E,0.052,,120324,,,A*7E

$GPRMC,101123.70,A,4548.66225,N,00837.72598,E,0.070,,120324,,,A*73

$GPRMC,101123.80,A,4548.66224,N,00837.72598,E,0.082,,120324,,,A*70

$GPRMC,101123.90,A,4548.66224,N,00837.72598,E,0.010,,120324,,,A*7A

$GPRMC,101124.00,A,4548.66223,N,00837.72598,E,0.040,,120324,,,A*76

$GPRMC,101124.10,A,4548.66223,N,00837.72598,E,0.008,,120324,,,A*7B

$GPRMC,101124.20,A,4548.66222,N,00837.72598,E,0.038,,120324,,,A*7A

$GPRMC,101124.30,A,4548.66222,N,00837.72598,E,0.043,,120324,,,A*77

$GPRMC,101124.40,A,4548.66221,N,00837.72598,E,0.031,,120324,,,A*76

$GPRMC,101124.50,A,4548.66220,N,00837.72598,E,0.072,,120324,,,A*71

$GPRMC,101124.60,A,4548.66220,N,00837.72598,E,0.060,,120324,,,A*71

$GPRMC,101124.70,A,4548.66219,N,00837.72598,E,0.057,,120324,,,A*7E

$GPRMC,101124.80,A,4548.66219,N,00837.72598,E,0.107,,120324,,,A*75

$GPRMC,101124.90,A,4548.66218,N,00837.72598,E,0.054,,120324,,,A*72

$GPRMC,101125.00,A,4548.66218,N,00837.72598,E,0.025,,120324,,,A*7C

$GPRMC,101125.10,A,4548.66218,N,00837.72598,E,0.088,,120324,,,A*7A

$GPRMC,101125.20,A,4548.66218,N,00837.72598,E,0.040,,120324,,,A*7D

$GPRMC,101125.30,A,4548.66217,N,00837.72597,E,0.089,,120324,,,A*79

$GPRMC,101125.40,A,4548.66217,N,00837.72597,E,0.121,,120324,,,A*7D

$GPRMC,101125.50,A,4548.66216,N,00837.72597,E,0.104,,120324,,,A*7A

$GPRMC,101125.60,A,4548.66216,N,00837.72597,E,0.040,,120324,,,A*78

$GPRMC,101125.70,A,4548.66216,N,00837.72597,E,0.053,,120324,,,A*7B

$GPRMC,101125.80,A,4548.66217,N,00837.72597,E,0.038,,120324,,,A*78

$GPRMC,101125.90,A,4548.66217,N,00837.72597,E,0.098,,120324,,,A*73

$GPRMC,101126.00,A,4548.66216,N,00837.72597,E,0.162,,120324,,,A*7C

$GPRMC,101126.10,A,4548.66216,N,00837.72597,E,0.076,,120324,,,A*79

$GPRMC,101126.20,A,4548.66217,N,00837.72596,E,0.148,,120324,,,A*76

$GPRMC,101126.30,A,4548.66217,N,00837.72597,E,0.080,,120324,,,A*73

$GPRMC,101126.40,A,4548.66217,N,00837.72597,E,0.077,,120324,,,A*7C

$GPRMC,101126.50,A,4548.66216,N,00837.72597,E,0.021,,120324,,,A*7F

$GPRMC,101126.60,A,4548.66216,N,00837.72597,E,0.050,,120324,,,A*7A

$GPRMC,101126.70,A,4548.66216,N,00837.72597,E,0.079,,120324,,,A*70

$GPRMC,101126.80,A,4548.66216,N,00837.72596,E,0.056,,120324,,,A*73

$GPRMC,101126.90,A,4548.66215,N,00837.72596,E,0.002,,120324,,,A*70

$GPRMC,101127.00,A,4548.66216,N,00837.72596,E,0.059,,120324,,,A*75

$GPRMC,101127.10,A,4548.66215,N,00837.72595,E,0.071,,120324,,,A*7E

$GPRMC,101127.20,A,4548.66215,N,00837.72595,E,0.062,,120324,,,A*7F

$GPRMC,101127.30,A,4548.66215,N,00837.72595,E,0.075,,120324,,,A*78

$GPRMC,101127.40,A,4548.66215,N,00837.72594,E,0.036,,120324,,,A*79

$GPRMC,101127.50,A,4548.66214,N,00837.72595,E,0.082,,120324,,,A*77

$GPRMC,101127.60,A,4548.66214,N,00837.72594,E,0.027,,120324,,,A*7A

$GPRMC,101127.70,A,4548.66213,N,00837.72594,E,0.098,,120324,,,A*78

$GPRMC,101127.80,A,4548.66213,N,00837.72594,E,0.045,,120324,,,A*77

$GPRMC,101127.90,A,4548.66212,N,00837.72594,E,0.035,,120324,,,A*70

$GPRMC,101128.00,A,4548.66212,N,00837.72594,E,0.047,,120324,,,A*73

$GPRMC,101128.10,A,4548.66212,N,00837.72594,E,0.087,,120324,,,A*7E

$GPRMC,101128.20,A,4548.66211,N,00837.72594,E,0.033,,120324,,,A*71

$GPRMC,101128.30,A,4548.66210,N,00837.72594,E,0.033,,120324,,,A*71

$GPRMC,101128.40,A,4548.66210,N,00837.72594,E,0.062,,120324,,,A*72

$GPRMC,101128.50,A,4548.66209,N,00837.72594,E,0.106,,120324,,,A*78

$GPRMC,101128.60,A,4548.66209,N,00837.72593,E,0.033,,120324,,,A*7B

$GPRMC,101128.70,A,4548.66209,N,00837.72593,E,0.063,,120324,,,A*7F

$GPRMC,101128.80,A,4548.66208,N,00837.72593,E,0.047,,120324,,,A*77

$GPRMC,101128.90,A,4548.66208,N,00837.72593,E,0.008,,120324,,,A*7D

$GPRMC,101129.00,A,4548.66208,N,00837.72592,E,0.041,,120324,,,A*79

$GPRMC,101129.10,A,4548.66208,N,00837.72592,E,0.067,,120324,,,A*7C

$GPRMC,101129.20,A,4548.66208,N,00837.72592,E,0.023,,120324,,,A*7F

$GPRMC,101129.30,A,4548.66207,N,00837.72592,E,0.078,,120324,,,A*7F

$GPRMC,101129.40,A,4548.66207,N,00837.72592,E,0.052,,120324,,,A*70

$GPRMC,101129.50,A,4548.66207,N,00837.72591,E,0.007,,120324,,,A*72

$GPRMC,101129.60,A,4548.66207,N,00837.72591,E,0.024,,120324,,,A*70

$GPRMC,101129.70,A,4548.66207,N,00837.72591,E,0.030,,120324,,,A*74

$GPRMC,101129.80,A,4548.66207,N,00837.72590,E,0.034,,120324,,,A*7E

$GPRMC,101129.90,A,4548.66207,N,00837.72590,E,0.038,,120324,,,A*73

$GPRMC,101130.00,A,4548.66207,N,00837.72590,E,0.029,,120324,,,A*72

$GPRMC,101130.10,A,4548.66207,N,00837.72590,E,0.024,,120324,,,A*7E

$GPRMC,101130.20,A,4548.66207,N,00837.72590,E,0.037,,120324,,,A*7F

$GPRMC,101130.30,A,4548.66207,N,00837.72589,E,0.049,,120324,,,A*7F

$GPRMC,101130.40,A,4548.66207,N,00837.72589,E,0.175,,120324,,,A*76

$GPRMC,101130.50,A,4548.66207,N,00837.72589,E,0.070,,120324,,,A*73

$GPRMC,101130.60,A,4548.66207,N,00837.72589,E,0.123,,120324,,,A*77

$GPRMC,101130.70,A,4548.66207,N,00837.72589,E,0.070,,120324,,,A*71

$GPRMC,101130.80,A,4548.66207,N,00837.72590,E,0.083,,120324,,,A*7A

$GPRMC,101130.90,A,4548.66207,N,00837.72590,E,0.092,,120324,,,A*7B

$GPRMC,101131.00,A,4548.66207,N,00837.72590,E,0.006,,120324,,,A*7E

$GPRMC,101131.10,A,4548.66206,N,00837.72590,E,0.023,,120324,,,A*79

$GPRMC,101131.20,A,4548.66206,N,00837.72591,E,0.112,,120324,,,A*78

$GPRMC,101131.30,A,4548.66205,N,00837.72590,E,0.051,,120324,,,A*7D

$GPRMC,101131.40,A,4548.66204,N,00837.72591,E,0.098,,120324,,,A*7F

$GPRMC,101131.50,A,4548.66204,N,00837.72590,E,0.038,,120324,,,A*75

$GPRMC,101131.60,A,4548.66204,N,00837.72590,E,0.081,,120324,,,A*74

$GPRMC,101131.70,A,4548.66204,N,00837.72590,E,0.011,,120324,,,A*7C

$GPRMC,101131.80,A,4548.66204,N,00837.72590,E,0.081,,120324,,,A*7A

$GPRMC,101131.90,A,4548.66204,N,00837.72590,E,0.030,,120324,,,A*71

$GPRMC,101132.00,A,4548.66203,N,00837.72590,E,0.053,,120324,,,A*79

$GPRMC,101132.10,A,4548.66203,N,00837.72589,E,0.039,,120324,,,A*7C

$GPRMC,101132.20,A,4548.66203,N,00837.72589,E,0.017,,120324,,,A*73

$GPRMC,101132.30,A,4548.66203,N,00837.72589,E,0.038,,120324,,,A*7F

$GPRMC,101132.40,A,4548.66203,N,00837.72589,E,0.067,,120324,,,A*72

$GPRMC,101132.50,A,4548.66202,N,00837.72590,E,0.119,,120324,,,A*72

$GPRMC,101132.60,A,4548.66202,N,00837.72589,E,0.103,,120324,,,A*72

$GPRMC,101132.70,A,4548.66201,N,00837.72590,E,0.132,,120324,,,A*7A

$GPRMC,101132.80,A,4548.66200,N,00837.72590,E,0.190,,120324,,,A*7C

$GPRMC,101132.90,A,4548.66200,N,00837.72590,E,0.193,,120324,,,A*7E

$GPRMC,101133.00,A,4548.66199,N,00837.72590,E,0.143,,120324,,,A*78

$GPRMC,101133.10,A,4548.66199,N,00837.72589,E,0.153,,120324,,,A*70

$GPRMC,101133.20,A,4548.66199,N,00837.72588,E,0.205,,120324,,,A*72

$GPRMC,101133.30,A,4548.66199,N,00837.72587,E,0.187,,120324,,,A*75

$GPRMC,101133.40,A,4548.66199,N,00837.72587,E,0.139,,120324,,,A*77

$GPRMC,101133.50,A,4548.66199,N,00837.72587,E,0.067,,120324,,,A*7C

$GPRMC,101133.60,A,4548.66198,N,00837.72587,E,0.042,,120324,,,A*79

$GPRMC,101133.70,A,4548.66198,N,00837.72588,E,0.077,,120324,,,A*71

$GPRMC,101133.80,A,4548.66198,N,00837.72588,E,0.053,,120324,,,A*78

$GPRMC,101133.90,A,4548.66197,N,00837.72588,E,0.023,,120324,,,A*71

$GPRMC,101134.00,A,4548.66197,N,00837.72588,E,0.073,,120324,,,A*7A

$GPRMC,101134.10,A,4548.66197,N,00837.72588,E,0.016,,120324,,,A*78

$GPRMC,101134.20,A,4548.66197,N,00837.72589,E,0.042,,120324,,,A*7B

$GPRMC,101134.30,A,4548.66197,N,00837.72589,E,0.037,,120324,,,A*78

$GPRMC,101134.40,A,4548.66196,N,00837.72590,E,0.091,,120324,,,A*7A

$GPRMC,101134.50,A,4548.66195,N,00837.72590,E,0.140,,120324,,,A*75

$GPRMC,101134.60,A,4548.66195,N,00837.72590,E,0.054,,120324,,,A*72

$GPRMC,101134.70,A,4548.66195,N,00837.72591,E,0.117,,120324,,,A*74

$GPRMC,101134.80,A,4548.66195,N,00837.72591,E,0.086,,120324,,,A*72

$GPRMC,101134.90,A,4548.66194,N,00837.72592,E,0.118,,120324,,,A*77

$GPRMC,101135.00,A,4548.66194,N,00837.72592,E,0.056,,120324,,,A*74

$GPRMC,101135.10,A,4548.66193,N,00837.72593,E,0.043,,120324,,,A*77

$GPRMC,101135.20,A,4548.66193,N,00837.72593,E,0.018,,120324,,,A*7A

$GPRMC,101135.30,A,4548.66192,N,00837.72593,E,0.065,,120324,,,A*70

$GPRMC,101135.40,A,4548.66192,N,00837.72594,E,0.112,,120324,,,A*71

$GPRMC,101135.50,A,4548.66191,N,00837.72594,E,0.017,,120324,,,A*77

$GPRMC,101135.60,A,4548.66191,N,00837.72595,E,0.105,,120324,,,A*77

$GPRMC,101135.70,A,4548.66190,N,00837.72596,E,0.118,,120324,,,A*78

$GPRMC,101135.80,A,4548.66190,N,00837.72596,E,0.042,,120324,,,A*79

$GPRMC,101135.90,A,4548.66189,N,00837.72597,E,0.082,,120324,,,A*7D

$GPRMC,101136.00,A,4548.66190,N,00837.72597,E,0.086,,120324,,,A*7B

$GPRMC,101136.10,A,4548.66189,N,00837.72598,E,0.064,,120324,,,A*71

$GPRMC,101136.20,A,4548.66189,N,00837.72598,E,0.118,,120324,,,A*78

$GPRMC,101136.30,A,4548.66188,N,00837.72599,E,0.019,,120324,,,A*79

$GPRMC,101136.40,A,4548.66187,N,00837.72599,E,0.005,,120324,,,A*7C

$GPRMC,101136.50,A,4548.66186,N,00837.72600,E,0.037,,120324,,,A*7E

$GPRMC,101136.60,A,4548.66186,N,00837.72600,E,0.067,,120324,,,A*78

$GPRMC,101136.70,A,4548.66185,N,00837.72601,E,0.018,,120324,,,A*73

$GPRMC,101136.80,A,4548.66185,N,00837.72601,E,0.045,,120324,,,A*74

$GPRMC,101136.90,A,4548.66184,N,00837.72602,E,0.013,,120324,,,A*74

$GPRMC,101137.00,A,4548.66184,N,00837.72603,E,0.052,,120324,,,A*78

$GPRMC,101137.10,A,4548.66183,N,00837.72603,E,0.167,,120324,,,A*79

$GPRMC,101137.20,A,4548.66182,N,00837.72604,E,0.149,,120324,,,A*70

$GPRMC,101137.30,A,4548.66180,N,00837.72604,E,0.209,,120324,,,A*74

$GPRMC,101137.40,A,4548.66180,N,00837.72605,E,0.077,,120324,,,A*79

$GPRMC,101137.50,A,4548.66179,N,00837.72605,E,0.051,,120324,,,A*7A

$GPRMC,101137.60,A,4548.66179,N,00837.72606,E,0.084,,120324,,,A*72

$GPRMC,101137.70,A,4548.66178,N,00837.72607,E,0.006,,120324,,,A*79

$GPRMC,101137.80,A,4548.66177,N,00837.72607,E,0.063,,120324,,,A*7A

$GPRMC,101137.90,A,4548.66176,N,00837.72607,E,0.109,,120324,,,A*77

$GPRMC,101138.00,A,4548.66177,N,00837.72608,E,0.195,,120324,,,A*7A

$GPRMC,101138.10,A,4548.66176,N,00837.72609,E,0.092,,120324,,,A*7D

$GPRMC,101138.20,A,4548.66176,N,00837.72609,E,0.079,,120324,,,A*7B

$GPRMC,101138.30,A,4548.66174,N,00837.72610,E,0.041,,120324,,,A*7B

$GPRMC,101138.40,A,4548.66174,N,00837.72610,E,0.041,,120324,,,A*7C

$GPRMC,101138.50,A,4548.66173,N,00837.72611,E,0.025,,120324,,,A*79

$GPRMC,101138.60,A,4548.66173,N,00837.72612,E,0.049,,120324,,,A*73

$GPRMC,101138.70,A,4548.66171,N,00837.72612,E,0.021,,120324,,,A*7E

$GPRMC,101138.80,A,4548.66170,N,00837.72613,E,0.020,,120324,,,A*70

$GPRMC,101138.90,A,4548.66169,N,00837.72613,E,0.036,,120324,,,A*7E

$GPRMC,101139.00,A,4548.66168,N,00837.72614,E,0.068,,120324,,,A*7B

$GPRMC,101139.10,A,4548.66168,N,00837.72614,E,0.090,,120324,,,A*7D

