$GPRMC,085646.00,A,4548.67209,N,00837.72794,E,0.185,,120324,3.02,E,A*2D

$GPRMC,085646.10,A,4548.67209,N,00837.72793,E,0.111,,120324,3.02,E,A*26

$GPRMC,085646.20,A,4548.67207,N,00837.72792,E,0.149,,120324,3.02,E,A*27

$GPRMC,085646.30,A,4548.67206,N,00837.72790,E,0.158,,120324,3.02,E,A*25

$GPRMC,085646.40,A,4548.67204,N,00837.72789,E,0.142,,120324,3.02,E,A*23

$GPRMC,085646.50,A,4548.67202,N,00837.72788,E,0.246,,120324,3.02,E,A*22

$GPRMC,085646.60,A,4548.67201,N,00837.72787,E,0.227,,120324,3.02,E,A*2A

$GPGST,085646.60,42,6.5,2.9,178,2.6,1.2,2.0*6D

$GPRMC,085646.70,A,4548.67200,N,00837.72787,E,0.179,,120324,3.02,E,A*22

$GPTXT,01,01,01,NMEA unknown msg*58

$GPRMC,085646.80,A,4548.67197,N,00837.72786,E,0.210,,120324,3.02,E,A*2D

$GPRMC,085646.90,A,4548.67195,N,00837.72786,E,0.284,,120324,3.02,E,A*23

$GPRMC,085647.00,A,4548.67194,N,00837.72785,E,0.207,,120324,3.02,E,A*22

$GPTXT,01,01,01,NMEA unknown msg*58

$GPRMC,085647.10,A,4548.67191,N,00837.72784,E,0.227,,120324,3.02,E,A*25

$GPRMC,085647.20,A,4548.67190,N,00837.72783,E,0.262,,120324,3.02,E,A*21

$GPRMC,085647.30,A,4548.67187,N,00837.72783,E,0.211,,120324,3.02,E,A*22

$GPRMC,085647.40,A,4548.67184,N,00837.72783,E,0.277,,120324,3.02,E,A*26

$GPRMC,085647.50,A,4548.67182,N,00837.72782,E,0.292,,120324,3.02,E,A*2B

$GPRMC,085647.60,A,4548.67179,N,00837.72782,E,0.286,,120324,3.02,E,A*29

$GPGST,085647.60,41,6.6,2.8,178,2.7,1.1,2.0*6F

$GPRMC,085647.70,A,4548.67175,N,00837.72781,E,0.315,,120324,3.02,E,A*2C

$GPRMC,085647.80,A,4548.67171,N,00837.72782,E,0.350,,120324,3.02,E,A*25

$GPRMC,085647.90,A,4548.67171,N,00837.72782,E,0.268,,120324,3.02,E,A*2E

$GPRMC,085648.00,A,4548.67173,N,00837.72782,E,0.223,,120324,3.02,E,A*25

$GPRMC,085648.10,A,4548.67171,N,00837.72782,E,0.077,,120324,3.02,E,A*25

$GPRMC,085648.20,A,4548.67171,N,00837.72782,E,0.065,,120324,3.02,E,A*25

$GPRMC,085648.30,A,4548.67170,N,00837.72781,E,0.126,,120324,3.02,E,A*20

$GPTXT,01,01,01,NMEA unknown msg*58

$GPRMC,085648.40,A,4548.67172,N,00837.72780,E,0.196,,120324,3.02,E,A*2F

$GPRMC,085648.50,A,4548.67171,N,00837.72779,E,0.166,,120324,3.02,E,A*24

$GPRMC,085648.60,A,4548.67170,N,00837.72779,E,0.124,,120324,3.02,E,A*20

$GPGST,085648.60,28,6.7,2.7,178,2.7,1.1,2.1*60

$GPRMC,085648.70,A,4548.67169,N,00837.72779,E,0.100,,120324,3.02,E,A*2F

$GPRMC,085648.80,A,4548.67167,N,00837.72779,E,0.113,,120324,3.02,E,A*2C

$GPRMC,085648.90,A,4548.67166,N,00837.72779,E,0.037,,120324,3.02,E,A*2B

$GPRMC,085649.00,A,4548.67164,N,00837.72779,E,0.076,,120324,3.02,E,A*24

$GPRMC,085649.10,A,4548.67164,N,00837.72778,E,0.069,,120324,3.02,E,A*2A

$GPRMC,085649.20,A,4548.67161,N,00837.72778,E,0.077,,120324,3.02,E,A*23

$GPRMC,085649.30,A,4548.67161,N,00837.72778,E,0.000,,120324,3.02,E,A*22

$GPRMC,085649.40,A,4548.67159,N,00837.72777,E,0.074,,120324,3.02,E,A*22

$GPRMC,085649.50,A,4548.67157,N,00837.72773,E,0.041,,120324,3.02,E,A*2F

$GPRMC,085649.60,A,4548.67155,N,00837.72769,E,0.077,,120324,3.02,E,A*20

$GPGST,085649.60,45,6.3,5.8,0.86,2.5,2.3,2.1*4B

$GPRMC,085649.70,A,4548.67154,N,00837.72765,E,0.051,,120324,3.02,E,A*28

$GPRMC,085649.80,A,4548.67153,N,00837.72761,E,0.116,,120324,3.02,E,A*26

$GPRMC,085649.90,A,4548.67151,N,00837.72756,E,0.175,,120324,3.02,E,A*24

$GPRMC,085650.00,A,4548.67150,N,00837.72752,E,0.227,,120324,3.02,E,A*24

$GPRMC,085650.10,A,4548.67149,N,00837.72748,E,0.239,,120324,3.02,E,A*29

$GPRMC,085650.20,A,4548.67147,N,00837.72744,E,0.303,,120324,3.02,E,A*20

$GPTXT,01,01,01,NMEA unknown msg*58

$GPRMC,085650.30,A,4548.67145,N,00837.72742,E,0.269,,120324,3.02,E,A*28

$GPRMC,085650.40,A,4548.67143,N,00837.72739,E,0.310,,120324,3.02,E,A*2A

$GPRMC,085650.50,A,4548.67141,N,00837.72736,E,0.245,,120324,3.02,E,A*27

$GPRMC,085650.60,A,4548.67141,N,00837.72735,E,0.124,,120324,3.02,E,A*23

$GPGST,085650.60,49,6.2,4.9,179,2.5,2.0,1.8*68

$GPRMC,085650.70,A,4548.67140,N,00837.72732,E,0.241,,120324,3.02,E,A*24

$GPTXT,01,01,01,NMEA unknown msg*58

$GPRMC,085650.80,A,4548.67139,N,00837.72730,E,0.207,,120324,3.02,E,A*25

$GPRMC,085650.90,A,4548.67136,N,00837.72728,E,0.326,,120324,3.02,E,A*20

$GPRMC,085651.00,A,4548.67134,N,00837.72726,E,0.329,,120324,3.02,E,A*2B

$GPRMC,085651.10,A,4548.67131,N,00837.72725,E,0.328,,120324,3.02,E,A*2D

$GPRMC,085651.20,A,4548.67128,N,00837.72725,E,0.328,,120324,3.02,E,A*26

$GPRMC,085651.30,A,4548.67126,N,00837.72725,E,0.251,,120324,3.02,E,A*26

$GPRMC,085651.40,A,4548.67124,N,00837.72723,E,0.209,,120324,3.02,E,A*28

$GPRMC,085651.50,A,4548.67121,N,00837.72723,E,0.249,,120324,3.02,E,A*28

$GPRMC,085651.60,A,4548.67117,N,00837.72720,E,0.167,,120324,3.02,E,A*22

$GPGST,085651.60,45,6.1,4.2,1.3,2.5,1.7,1.8*7A

$GPRMC,085651.70,A,4548.67113,N,00837.72718,E,0.194,,120324,3.02,E,A*20

$GPRMC,085651.80,A,4548.67109,N,00837.72717,E,0.121,,120324,3.02,E,A*25

$GPRMC,085651.90,A,4548.67106,N,00837.72716,E,0.079,,120324,3.02,E,A*26

$GPRMC,085652.00,A,4548.67097,N,00837.72720,E,0.008,,120324,3.02,E,A*26

$GPRMC,085652.10,A,4548.67092,N,00837.72720,E,0.037,,120324,3.02,E,A*2E

$GPRMC,085652.20,A,4548.67086,N,00837.72722,E,0.008,,120324,3.02,E,A*26

$GPRMC,085652.30,A,4548.67081,N,00837.72723,E,0.031,,120324,3.02,E,A*2B

$GPRMC,085652.40,A,4548.67076,N,00837.72723,E,0.106,,120324,3.02,E,A*21

$GPRMC,085652.50,A,4548.67072,N,00837.72723,E,0.155,,120324,3.02,E,A*22

$GPRMC,085652.60,A,4548.67065,N,00837.72725,E,0.220,,120324,3.02,E,A*20

$GPGST,085652.60,36,5.8,3.6,5.1,2.3,1.5,1.8*76

$GPRMC,085652.70,A,4548.67059,N,00837.72728,E,0.260,,120324,3.02,E,A*27

$GPRMC,085652.80,A,4548.67052,N,00837.72731,E,0.325,,120324,3.02,E,A*2B

$GPRMC,085652.90,A,4548.67046,N,00837.72734,E,0.210,,120324,3.02,E,A*2D

$GPRMC,085653.00,A,4548.67043,N,00837.72736,E,0.144,,120324,3.02,E,A*20

$GPRMC,085653.10,A,4548.67039,N,00837.72736,E,0.193,,120324,3.02,E,A*26

$GPRMC,085653.20,A,4548.67035,N,00837.72738,E,0.217,,120324,3.02,E,A*28

$GPRMC,085653.30,A,4548.67033,N,00837.72739,E,0.146,,120324,3.02,E,A*29

$GPRMC,085653.40,A,4548.67027,N,00837.72742,E,0.183,,120324,3.02,E,A*2E

$GPRMC,085653.50,A,4548.67021,N,00837.72745,E,0.178,,120324,3.02,E,A*2A

$GPRMC,085653.60,A,4548.67018,N,00837.72748,E,0.072,,120324,3.02,E,A*25

$GPGST,085653.60,41,5.7,3.2,6.7,2.3,1.3,1.8*7F

$GPRMC,085653.70,A,4548.67012,N,00837.72750,E,0.161,,120324,3.02,E,A*24

$GPRMC,085653.80,A,4548.67006,N,00837.72753,E,0.177,,120324,3.02,E,A*2A

$GPRMC,085653.90,A,4548.66999,N,00837.72756,E,0.146,,120324,3.02,E,A*22

$GPRMC,085654.00,A,4548.66995,N,00837.72759,E,0.079,,120324,3.02,E,A*22

$GPRMC,085654.10,A,4548.66990,N,00837.72761,E,0.127,,120324,3.02,E,A*27

$GPRMC,085654.20,A,4548.66986,N,00837.72762,E,0.184,,120324,3.02,E,A*29

$GPRMC,085654.30,A,4548.66983,N,00837.72763,E,0.198,,120324,3.02,E,A*21

$GPRMC,085654.40,A,4548.66979,N,00837.72762,E,0.208,,120324,3.02,E,A*28

$GPTXT,01,01,01,NMEA unknown msg*58

$GPRMC,085654.50,A,4548.66974,N,00837.72761,E,0.289,,120324,3.02,E,A*2E

$GPRMC,085654.60,A,4548.66971,N,00837.72760,E,0.291,,120324,3.02,E,A*20

$GPGST,085654.60,40,5.6,3.0,6.7,2.2,1.2,1.8*7A

$GPRMC,085654.70,A,4548.66967,N,00837.72758,E,0.333,,120324,3.02,E,A*24

$GPRMC,085654.80,A,4548.66958,N,00837.72757,E,0.690,182.43,120324,3.02,E,A*36

$GPRMC,085654.90,A,4548.66950,N,00837.72756,E,1.008,185.84,120324,3.02,E,A*34

$GPTXT,01,01,01,NMEA unknown msg*58

$GPRMC,085655.00,A,4548.66940,N,00837.72754,E,1.369,186.85,120324,3.02,E,A*39

$GPTXT,01,01,01,NMEA unknown msg*58

$GPRMC,085655.10,A,4548.66931,N,00837.72752,E,1.492,189.89,120324,3.02,E,A*38

$GPRMC,085655.20,V,,,,,,,120324,3.02,E,N*28

$GPRMC,085655.30,V,,,,,,,120324,3.02,E,N*29

$GPRMC,085655.40,A,4548.66919,N,00837.72752,E,1.260,183.29,120324,3.02,E,A*3C

$GPRMC,085655.50,A,4548.66917,N,00837.72753,E,1.019,189.74,120324,3.02,E,A*3C

$GPRMC,085655.60,A,4548.66914,N,00837.72756,E,0.834,196.88,120324,3.02,E,A*32

$GPGST,085655.60,42,5.7,2.9,6.1,2.3,1.2,1.8*77

$GPRMC,085655.70,A,4548.66910,N,00837.72760,E,0.738,190.35,120324,3.02,E,A*31

$GPRMC,085655.80,A,4548.66904,N,00837.72764,E,0.618,184.89,120324,3.02,E,A*3E

$GPRMC,085655.90,A,4548.66897,N,00837.72768,E,0.699,188.62,120324,3.02,E,A*38

$GPRMC,085656.00,A,4548.66892,N,00837.72772,E,0.552,173.44,120324,3.02,E,A*38

$GPRMC,085656.10,A,4548.66886,N,00837.72774,E,0.507,191.71,120324,3.02,E,A*30

$GPRMC,085656.20,A,4548.66879,N,00837.72777,E,0.540,192.22,120324,3.02,E,A*36

$GPRMC,085656.30,V,,,,,,,120324,3.02,E,N*2A

$GPTXT,01,01,01,NMEA unknown msg*58

$GPRMC,085656.40,V,,,,,,,120324,3.02,E,N*2D

$GPRMC,085656.50,A,4548.66872,N,00837.72778,E,0.521,,120324,3.02,E,A*26

$GPRMC,085656.60,A,4548.66870,N,00837.72780,E,0.303,,120324,3.02,E,A*26

$GPGST,085656.60,44,5.7,2.7,6.4,2.3,1.1,1.8*7A

$GPRMC,085656.70,A,4548.66865,N,00837.72780,E,0.400,,120324,3.02,E,A*27

$GPRMC,085656.80,A,4548.66859,N,00837.72779,E,0.463,,120324,3.02,E,A*24

$GPRMC,085656.90,A,4548.66856,N,00837.72779,E,0.339,,120324,3.02,E,A*22

$GPRMC,085657.00,A,4548.66852,N,00837.72779,E,0.269,,120324,3.02,E,A*2A

$GPRMC,085657.10,V,,,,,,,120324,3.02,E,N*29

$GPTXT,01,01,01,NMEA unknown msg*58

$GPRMC,085657.20,A,4548.66845,N,00837.72777,E,0.187,,120324,3.02,E,A*23

$GPRMC,085657.30,V,,,,,,,120324,3.02,E,N*2B

$GPRMC,085657.40,A,4548.66838,N,00837.72771,E,0.289,,120324,3.02,E,A*24

$GPRMC,085657.50,A,4548.66838,N,00837.72768,E,0.306,,120324,3.02,E,A*2B

$GPRMC,085657.60,A,4548.66837,N,00837.72765,E,0.365,,120324,3.02,E,A*2F

$GPGST,085657.60,27,5.7,2.6,6.7,2.3,1.1,1.8*7C

$GPRMC,085657.70,A,4548.66836,N,00837.72765,E,0.354,,120324,3.02,E,A*2D

$GPRMC,085657.80,A,4548.66836,N,00837.72763,E,0.220,,120324,3.02,E,A*26

$GPRMC,085657.90,A,4548.66836,N,00837.72760,E,0.253,,120324,3.02,E,A*20

$GPRMC,085658.00,A,4548.66831,N,00837.72752,E,0.532,186.61,120324,3.02,E,A*36

$GPRMC,085658.10,A,4548.66832,N,00837.72748,E,0.360,,120324,3.02,E,A*28

$GPRMC,085658.20,A,4548.66833,N,00837.72745,E,0.081,,120324,3.02,E,A*2B

$GPRMC,085658.30,A,4548.66836,N,00837.72740,E,0.199,,120324,3.02,E,A*22

$GPRMC,085658.40,A,4548.66831,N,00837.72737,E,0.279,,120324,3.02,E,A*2F

$GPRMC,085658.50,A,4548.66834,N,00837.72731,E,0.360,,120324,3.02,E,A*24

$GPRMC,085658.60,A,4548.66831,N,00837.72731,E,0.343,,120324,3.02,E,A*23

$GPGST,085658.60,45,5.4,2.4,7.2,2.2,1.0,1.8*72

$GPTXT,01,01,01,NMEA unknown msg*58

$GPRMC,085658.70,A,4548.66834,N,00837.72727,E,0.270,,120324,3.02,E,A*21

$GPRMC,085658.80,A,4548.66831,N,00837.72725,E,0.246,,120324,3.02,E,A*2C

$GPRMC,085658.90,A,4548.66830,N,00837.72724,E,0.136,,120324,3.02,E,A*29

$GPRMC,085659.00,A,4548.66829,N,00837.72724,E,0.134,,120324,3.02,E,A*2B

$GPRMC,085659.10,A,4548.66826,N,00837.72724,E,0.216,,120324,3.02,E,A*26

$GPRMC,085659.20,A,4548.66821,N,00837.72724,E,0.266,,120324,3.02,E,A*25

$GPRMC,085659.30,A,4548.66816,N,00837.72725,E,0.253,,120324,3.02,E,A*27

$GPRMC,085659.40,A,4548.66812,N,00837.72725,E,0.226,,120324,3.02,E,A*26

$GPRMC,085659.50,A,4548.66811,N,00837.72724,E,0.157,,120324,3.02,E,A*20

$GPRMC,085659.60,A,4548.66811,N,00837.72723,E,0.116,,120324,3.02,E,A*21

$GPGST,085659.60,32,5.2,2.2,7.9,2.1,0.93,1.7*4F

$GPRMC,085659.70,A,4548.66811,N,00837.72722,E,0.111,,120324,3.02,E,A*26

$GPRMC,085659.80,A,4548.66810,N,00837.72722,E,0.067,,120324,3.02,E,A*28

$GPRMC,085659.90,A,4548.66809,N,00837.72720,E,0.121,,120324,3.02,E,A*20

$GPRMC,085700.00,A,4548.66809,N,00837.72720,E,0.142,,120324,3.02,E,A*21

$GPRMC,085700.10,A,4548.66808,N,00837.72718,E,0.194,,120324,3.02,E,A*21

$GPRMC,085700.20,A,4548.66808,N,00837.72718,E,0.059,,120324,3.02,E,A*22

$GPRMC,085700.30,A,4548.66806,N,00837.72717,E,0.114,,120324,3.02,E,A*2A

$GPTXT,01,01,01,NMEA unknown msg*58

$GPRMC,085700.40,A,4548.66804,N,00837.72715,E,0.150,,120324,3.02,E,A*2D

$GPRMC,085700.50,A,4548.66802,N,00837.72714,E,0.125,,120324,3.02,E,A*29

$GPRMC,085700.60,A,4548.66799,N,00837.72713,E,0.105,,120324,3.02,E,A*22

$GPGST,085700.60,32,5.0,2.1,8.6,2.0,0.88,1.7*48

$GPRMC,085700.70,A,4548.66796,N,00837.72713,E,0.029,,120324,3.02,E,A*23

$GPRMC,085700.80,A,4548.66791,N,00837.72712,E,0.129,,120324,3.02,E,A*2B

$GPRMC,085700.90,A,4548.66789,N,00837.72711,E,0.059,,120324,3.02,E,A*26

$GPRMC,085701.00,A,4548.66787,N,00837.72710,E,0.073,,120324,3.02,E,A*29

$GPRMC,085701.10,A,4548.66785,N,00837.72708,E,0.111,,120324,3.02,E,A*26

$GPRMC,085701.20,A,4548.66785,N,00837.72706,E,0.149,,120324,3.02,E,A*26

$GPRMC,085701.30,A,4548.66785,N,00837.72705,E,0.077,,120324,3.02,E,A*28

$GPRMC,085701.40,A,4548.66785,N,00837.72704,E,0.097,,120324,3.02,E,A*20

$GPRMC,085701.50,A,4548.66786,N,00837.72702,E,0.114,,120324,3.02,E,A*2E

$GPTXT,01,01,01,NMEA unknown msg*58

$GPRMC,085701.60,A,4548.66787,N,00837.72701,E,0.079,,120324,3.02,E,A*25

$GPGST,085701.60,20,4.8,2.0,9.0,1.9,0.84,1.6*42

$GPRMC,085701.70,A,4548.66788,N,00837.72700,E,0.039,,120324,3.02,E,A*2E

$GPRMC,085701.80,A,4548.66789,N,00837.72698,E,0.076,,120324,3.02,E,A*2B

$GPRMC,085701.90,A,4548.66788,N,00837.72697,E,0.072,,120324,3.02,E,A*20

$GPRMC,085702.00,A,4548.66787,N,00837.72696,E,0.064,,120324,3.02,E,A*23

$GPRMC,085702.10,A,4548.66786,N,00837.72694,E,0.072,,120324,3.02,E,A*26

$GPRMC,085702.20,A,4548.66786,N,00837.72693,E,0.069,,120324,3.02,E,A*28

$GPRMC,085702.30,A,4548.66786,N,00837.72692,E,0.013,,120324,3.02,E,A*25

$GPRMC,085702.40,A,4548.66787,N,00837.72691,E,0.036,,120324,3.02,E,A*27

$GPRMC,085702.50,A,4548.66786,N,00837.72689,E,0.156,,120324,3.02,E,A*29

$GPRMC,085702.60,A,4548.66786,N,00837.72687,E,0.163,,120324,3.02,E,A*22

$GPGST,085702.60,22,4.6,1.9,9.2,1.8,0.81,1.6*41

$GPTXT,01,01,01,NMEA unknown msg*58

$GPRMC,085702.70,A,4548.66786,N,00837.72686,E,0.192,,120324,3.02,E,A*2C

$GPRMC,085702.80,A,4548.66786,N,00837.72685,E,0.220,,120324,3.02,E,A*2A

$GPRMC,085702.90,A,4548.66788,N,00837.72684,E,0.093,,120324,3.02,E,A*2E

$GPRMC,085703.00,A,4548.66789,N,00837.72683,E,0.045,,120324,3.02,E,A*2B

$GPRMC,085703.10,A,4548.66788,N,00837.72683,E,0.103,,120324,3.02,E,A*28

$GPRMC,085703.20,A,4548.66788,N,00837.72683,E,0.060,,120324,3.02,E,A*2F

$GPRMC,085703.30,A,4548.66790,N,00837.72683,E,0.090,,120324,3.02,E,A*28

$GPRMC,085703.40,A,4548.66790,N,00837.72682,E,0.068,,120324,3.02,E,A*29

$GPRMC,085703.50,A,4548.66790,N,00837.72681,E,0.080,,120324,3.02,E,A*2D

$GPRMC,085703.60,A,4548.66791,N,00837.72681,E,0.120,,120324,3.02,E,A*24

$GPGST,085703.60,24,4.5,1.8,9.4,1.8,0.78,1.5*47

$GPRMC,085703.70,A,4548.66791,N,00837.72681,E,0.131,,120324,3.02,E,A*25

$GPRMC,085703.80,A,4548.66792,N,00837.72680,E,0.164,,120324,3.02,E,A*28

$GPRMC,085703.90,A,4548.66793,N,00837.72681,E,0.049,,120324,3.02,E,A*27

$GPRMC,085704.00,A,4548.66793,N,00837.72680,E,0.156,,120324,3.02,E,A*27

$GPTXT,01,01,01,NMEA unknown msg*58

$GPRMC,085704.10,A,4548.66793,N,00837.72680,E,0.153,,120324,3.02,E,A*23

$GPRMC,085704.20,A,4548.66792,N,00837.72680,E,0.135,,120324,3.02,E,A*21

$GPRMC,085704.30,A,4548.66791,N,00837.72679,E,0.153,,120324,3.02,E,A*25

$GPRMC,085704.40,A,4548.66790,N,00837.72679,E,0.187,,120324,3.02,E,A*2A

$GPRMC,085704.50,A,4548.66791,N,00837.72679,E,0.093,,120324,3.02,E,A*2E

$GPRMC,085704.60,A,4548.66791,N,00837.72679,E,0.141,,120324,3.02,E,A*23

$GPGST,085704.60,33,4.4,1.8,9.3,1.7,0.76,1.5*41

$GPRMC,085704.70,A,4548.66792,N,00837.72679,E,0.025,,120324,3.02,E,A*22

$GPRMC,085704.80,A,4548.66794,N,00837.72678,E,0.074,,120324,3.02,E,A*2E

$GPRMC,085704.90,A,4548.66795,N,00837.72679,E,0.096,,120324,3.02,E,A*23

$GPRMC,085705.00,A,4548.66795,N,00837.72679,E,0.063,,120324,3.02,E,A*21

$GPTXT,01,01,01,P$GP inv format*5F

$GPRMC,085705.10,A,4548.66797,N,00837.72679,E,0.173,,120324,3.02,E,A*22

$GPRMC,085705.20,A,4548.66798,N,00837.72679,E,0.109,,120324,3.02,E,A*23

$GPRMC,085705.30,A,4548.66797,N,00837.72679,E,0.025,,120324,3.02,E,A*22

$GPRMC,085705.40,A,4548.66796,N,00837.72679,E,0.035,,120324,3.02,E,A*25

$GPRMC,085705.50,A,4548.66796,N,00837.72680,E,0.013,,120324,3.02,E,A*26

$GPRMC,085705.60,A,4548.66797,N,00837.72679,E,0.061,,120324,3.02,E,A*27

$GPGST,085705.60,36,4.3,1.7,9.4,1.7,0.74,1.5*48

$GPRMC,085705.70,A,4548.66798,N,00837.72679,E,0.083,,120324,3.02,E,A*25

$GPTXT,01,01,01,NMEA unknown msg*58

$GPRMC,085705.80,A,4548.66799,N,00837.72679,E,0.017,,120324,3.02,E,A*26

$GPRMC,085705.90,A,4548.66800,N,00837.72679,E,0.028,,120324,3.02,E,A*24

$GPRMC,085706.00,A,4548.66801,N,00837.72679,E,0.108,,120324,3.02,E,A*2C

$GPRMC,085706.10,A,4548.66802,N,00837.72679,E,0.067,,120324,3.02,E,A*26

$GPRMC,085706.20,A,4548.66803,N,00837.72679,E,0.017,,120324,3.02,E,A*23

$GPRMC,085706.30,A,4548.66804,N,00837.72679,E,0.040,,120324,3.02,E,A*27

$GPRMC,085706.40,A,4548.66804,N,00837.72679,E,0.080,,120324,3.02,E,A*2C

$GPRMC,085706.50,A,4548.66803,N,00837.72679,E,0.041,,120324,3.02,E,A*27

$GPRMC,085706.60,A,4548.66804,N,00837.72679,E,0.098,,120324,3.02,E,A*27

$GPGST,085706.60,40,4.2,1.7,9.4,1.7,0.72,1.5*4D

$GPRMC,085706.70,A,4548.66804,N,00837.72679,E,0.095,,120324,3.02,E,A*2B

$GPRMC,085706.80,A,4548.66803,N,00837.72679,E,0.017,,120324,3.02,E,A*29

$GPRMC,085706.90,A,4548.66803,N,00837.72679,E,0.038,,120324,3.02,E,A*25

$GPTXT,01,01,01,NMEA unknown msg*58

$GPRMC,085707.00,A,4548.66803,N,00837.72679,E,0.125,,120324,3.02,E,A*20

$GPRMC,085707.10,A,4548.66803,N,00837.72679,E,0.044,,120324,3.02,E,A*27

$GPRMC,085707.20,A,4548.66803,N,00837.72680,E,0.090,,120324,3.02,E,A*2B

$GPRMC,085707.30,A,4548.66803,N,00837.72679,E,0.088,,120324,3.02,E,A*25

$GPRMC,085707.40,A,4548.66804,N,00837.72680,E,0.093,,120324,3.02,E,A*29

$GPTXT,01,01,01,NMEA unknown msg*58

$GPRMC,085707.50,A,4548.66803,N,00837.72680,E,0.081,,120324,3.02,E,A*2C

$GPRMC,085707.60,A,4548.66803,N,00837.72680,E,0.089,,120324,3.02,E,A*27

$GPGST,085707.60,38,4.2,1.6,9.5,1.7,0.71,1.5*40

$GPRMC,085707.70,A,4548.66803,N,00837.72679,E,0.034,,120324,3.02,E,A*26

$GPRMC,085707.80,A,4548.66801,N,00837.72679,E,0.110,,120324,3.02,E,A*2C

$GPRMC,085707.90,A,4548.66801,N,00837.72679,E,0.086,,120324,3.02,E,A*23

$GPRMC,085708.00,A,4548.66801,N,00837.72678,E,0.089,,120324,3.02,E,A*2B

$GPRMC,085708.10,A,4548.66800,N,00837.72678,E,0.143,,120324,3.02,E,A*2C

$GPRMC,085708.20,A,4548.66798,N,00837.72677,E,0.220,,120324,3.02,E,A*28

$GPRMC,085708.30,A,4548.66798,N,00837.72677,E,0.134,,120324,3.02,E,A*2F

$GPRMC,085708.40,A,4548.66797,N,00837.72677,E,0.148,,120324,3.02,E,A*2C

$GPRMC,085708.50,A,4548.66796,N,00837.72676,E,0.158,,120324,3.02,E,A*2C

$GPRMC,085708.60,A,4548.66795,N,00837.72676,E,0.175,,120324,3.02,E,A*23

$GPGST,085708.60,42,4.1,1.6,9.6,1.6,0.70,1.4*43

$GPRMC,085708.70,A,4548.66795,N,00837.72675,E,0.098,,120324,3.02,E,A*23

$GPTXT,01,01,01,NMEA unknown msg*58

$GPRMC,085708.80,A,4548.66794,N,00837.72675,E,0.102,,120324,3.02,E,A*2F

$GPRMC,085708.90,A,4548.66793,N,00837.72675,E,0.120,,120324,3.02,E,A*29

$GPRMC,085709.00,A,4548.66792,N,00837.72674,E,0.190,,120324,3.02,E,A*2A

$GPRMC,085709.10,A,4548.66792,N,00837.72673,E,0.143,,120324,3.02,E,A*22

$GPRMC,085709.20,A,4548.66790,N,00837.72673,E,0.200,,120324,3.02,E,A*27

$GPRMC,085709.30,A,4548.66789,N,00837.72672,E,0.228,,120324,3.02,E,A*25

$GPRMC,085709.40,A,4548.66789,N,00837.72672,E,0.154,,120324,3.02,E,A*2A

$GPRMC,085709.50,A,4548.66788,N,00837.72671,E,0.223,,120324,3.02,E,A*2A

$GPRMC,085709.60,A,4548.66787,N,00837.72671,E,0.253,,120324,3.02,E,A*21

$GPGST,085709.60,39,4.1,1.6,9.7,1.6,0.68,1.4*46

$GPRMC,085709.70,A,4548.66787,N,00837.72670,E,0.306,,120324,3.02,E,A*20

$GPRMC,085709.80,A,4548.66786,N,00837.72670,E,0.271,,120324,3.02,E,A*2F

$GPRMC,085709.90,A,4548.66787,N,00837.72671,E,0.034,,120324,3.02,E,A*2D

$GPRMC,085710.00,A,4548.66786,N,00837.72671,E,0.134,,120324,3.02,E,A*2C

$GPRMC,085710.10,A,4548.66786,N,00837.72671,E,0.159,,120324,3.02,E,A*26

$GPTXT,01,01,01,NMEA unknown msg*58

$GPRMC,085710.20,A,4548.66785,N,00837.72671,E,0.142,,120324,3.02,E,A*2C

$GPRMC,085710.30,A,4548.66784,N,00837.72671,E,0.145,,120324,3.02,E,A*2B

$GPTXT,01,01,01,NMEA unknown msg*58

$GPRMC,085710.40,A,4548.66784,N,00837.72671,E,0.156,,120324,3.02,E,A*2E

$GPRMC,085710.50,A,4548.66785,N,00837.72671,E,0.035,,120324,3.02,E,A*2A

$GPTXT,01,01,01,NMEA unknown msg*58

$GPRMC,085710.60,A,4548.66785,N,00837.72672,E,0.045,,120324,3.02,E,A*2D

$GPGST,085710.60,35,4.1,1.6,9.9,1.6,0.68,1.4*4C

$GPRMC,085710.70,A,4548.66785,N,00837.72672,E,0.113,,120324,3.02,E,A*2E

$GPTXT,01,01,01,NMEA unknown msg*58

$GPTXT,01,01,01,NMEA unknown msg*58

$GPRMC,085710.80,A,4548.66785,N,00837.72672,E,0.016,,120324,3.02,E,A*25

$GPRMC,085710.90,A,4548.66784,N,00837.72672,E,0.132,,120324,3.02,E,A*22

$GPTXT,01,01,01,NMEA unknown msg*58

$GPRMC,085711.00,A,4548.66784,N,00837.72672,E,0.079,,120324,3.02,E,A*24

$GPRMC,085711.10,A,4548.66782,N,00837.72671,E,0.204,,120324,3.02,E,A*28

$GPRMC,085711.20,A,4548.66782,N,00837.72671,E,0.193,,120324,3.02,E,A*26

$GPRMC,085711.30,A,4548.66782,N,00837.72671,E,0.159,,120324,3.02,E,A*21

$GPRMC,085711.40,A,4548.66781,N,00837.72671,E,0.131,,120324,3.02,E,A*2B

$GPRMC,085711.50,A,4548.66782,N,00837.72672,E,0.078,,120324,3.02,E,A*26

$GPRMC,085711.60,A,4548.66781,N,00837.72672,E,0.100,,120324,3.02,E,A*28

$GPGST,085711.60,25,4.1,1.5,10,1.6,0.68,1.4*60

$GPRMC,085711.70,A,4548.66781,N,00837.72673,E,0.127,,120324,3.02,E,A*2D

$GPRMC,085711.80,A,4548.66779,N,00837.72673,E,0.144,,120324,3.02,E,A*20

$GPRMC,085711.90,A,4548.66780,N,00837.72673,E,0.097,,120324,3.02,E,A*28

$GPTXT,01,01,01,NMEA unknown msg*58

$GPRMC,085712.00,A,4548.66779,N,00837.72674,E,0.142,,120324,3.02,E,A*2A

$GPTXT,01,01,01,NMEA unknown msg*58

$GPRMC,085712.10,A,4548.66777,N,00837.72674,E,0.226,,120324,3.02,E,A*24

$GPRMC,085712.20,A,4548.66777,N,00837.72674,E,0.165,,120324,3.02,E,A*23

$GPRMC,085712.30,A,4548.66778,N,00837.72675,E,0.196,,120324,3.02,E,A*20

$GPRMC,085712.40,A,4548.66777,N,00837.72676,E,0.155,,120324,3.02,E,A*24

$GPRMC,085712.50,A,4548.66777,N,00837.72675,E,0.103,,120324,3.02,E,A*25

$GPRMC,085712.60,A,4548.66776,N,00837.72676,E,0.143,,120324,3.02,E,A*20

$GPGST,085712.60,34,4.1,1.5,9.3,1.6,0.67,1.4*49

$GPTXT,01,01,01,NMEA unknown msg*58

$GPRMC,085712.70,A,4548.66775,N,00837.72676,E,0.155,,120324,3.02,E,A*25

$GPRMC,085712.80,A,4548.66776,N,00837.72676,E,0.031,,120324,3.02,E,A*2A

$GPRMC,085712.90,A,4548.66775,N,00837.72676,E,0.133,,120324,3.02,E,A*2B

$GPRMC,085713.00,A,4548.66774,N,00837.72677,E,0.151,,120324,3.02,E,A*27

$GPRMC,085713.10,A,4548.66773,N,00837.72677,E,0.190,,120324,3.02,E,A*2C

$GPRMC,085713.20,A,4548.66774,N,00837.72677,E,0.070,,120324,3.02,E,A*27

$GPRMC,085713.30,A,4548.66777,N,00837.72677,E,0.200,,120324,3.02,E,A*20

$GPRMC,085713.40,A,4548.66775,N,00837.72677,E,0.060,,120324,3.02,E,A*21

$GPRMC,085713.50,A,4548.66775,N,00837.72677,E,0.083,,120324,3.02,E,A*2D

$GPTXT,01,01,01,NMEA unknown msg*58

$GPRMC,085713.60,A,4548.66775,N,00837.72676,E,0.071,,120324,3.02,E,A*22

$GPGST,085713.60,46,4.1,1.6,8.3,1.6,0.66,1.4*4E

$GPRMC,085713.70,A,4548.66774,N,00837.72675,E,0.157,,120324,3.02,E,A*24

$GPRMC,085713.80,V,,,,,,,120324,3.02,E,N*21

$GPRMC,085713.90,A,4548.66770,N,00837.72677,E,0.380,,120324,3.02,E,A*24

$GPRMC,085714.00,A,4548.66771,N,00837.72675,E,0.054,,120324,3.02,E,A*23

$GPRMC,085714.10,A,4548.66773,N,00837.72676,E,0.393,,120324,3.02,E,A*2B

$GPRMC,085714.20,A,4548.66769,N,00837.72675,E,0.053,,120324,3.02,E,A*2F

$GPRMC,085714.30,A,4548.66768,N,00837.72674,E,0.152,,120324,3.02,E,A*2E

$GPRMC,085714.40,A,4548.66769,N,00837.72674,E,0.099,,120324,3.02,E,A*2E

$GPRMC,085714.50,A,4548.66769,N,00837.72673,E,0.062,,120324,3.02,E,A*2C

$GPRMC,085714.60,A,4548.66767,N,00837.72673,E,0.089,,120324,3.02,E,A*24

$GPGST,085714.60,34,4.2,1.6,7.3,1.7,0.66,1.5*40

$GPRMC,085714.70,A,4548.66767,N,00837.72673,E,0.062,,120324,3.02,E,A*20

$GPRMC,085714.80,A,4548.66767,N,00837.72671,E,0.241,,120324,3.02,E,A*2E

$GPRMC,085714.90,A,4548.66767,N,00837.72670,E,0.175,,120324,3.02,E,A*2A

$GPRMC,085715.00,V,,,,,,,120324,3.02,E,N*2F

$GPTXT,01,01,01,NMEA unknown msg*58

$GPRMC,085715.10,V,,,,,,,120324,3.02,E,N*2E

$GPTXT,01,01,01,NMEA unknown msg*58

$GPRMC,085715.20,V,,,,,,,120324,3.02,E,N*2D

$GPTXT,01,01,01,NMEA unknown msg*58

$GPTXT,01,01,01,NMEA unknown msg*58

$GPRMC,085715.30,V,,,,,,,120324,3.02,E,N*2C

$GPRMC,085715.40,V,,,,,,,120324,3.02,E,N*2B

$GPTXT,01,01,01,NMEA unknown msg*58

$GPRMC,085715.50,V,,,,,,,120324,3.02,E,N*2A

$GPRMC,085715.60,V,,,,,,,120324,3.02,E,N*29

$GPGST,085715.60,0.0000,4.6,1.8,6.9,1.8,0.75,1.5*54

$GPRMC,085715.70,V,,,,,,,120324,3.02,E,N*28

$GPRMC,085715.80,V,,,,,,,120324,3.02,E,N*27

$GPRMC,085715.90,V,,,,,,,120324,3.02,E,N*26

$GPRMC,085716.00,V,,,,,,,120324,3.02,E,N*2C

$GPRMC,085716.10,V,,,,,,,120324,3.02,E,N*2D

$GPRMC,085716.20,A,4548.66769,N,00837.72669,E,0.067,,120324,3.02,E,A*27

$GPRMC,085716.30,A,4548.66766,N,00837.72667,E,0.055,,120324,3.02,E,A*26

$GPRMC,085716.40,A,4548.66765,N,00837.72667,E,0.035,,120324,3.02,E,A*24

$GPRMC,085716.50,A,4548.66763,N,00837.72665,E,0.061,,120324,3.02,E,A*20

$GPRMC,085716.60,A,4548.66758,N,00837.72663,E,0.024,,120324,3.02,E,A*2C

$GPGST,085716.60,38,4.9,1.9,6.2,2.0,0.80,1.6*45

$GPRMC,085716.70,A,4548.66755,N,00837.72662,E,0.018,,120324,3.02,E,A*2E

$GPTXT,01,01,01,NMEA unknown msg*58

$GPRMC,085716.80,A,4548.66752,N,00837.72660,E,0.052,,120324,3.02,E,A*2A

$GPRMC,085716.90,A,4548.66749,N,00837.72658,E,0.050,,120324,3.02,E,A*28

$GPRMC,085717.00,A,4548.66746,N,00837.72656,E,0.024,,120324,3.02,E,A*22

$GPRMC,085717.10,A,4548.66742,N,00837.72654,E,0.057,,120324,3.02,E,A*21

$GPRMC,085717.20,A,4548.66738,N,00837.72652,E,0.088,,120324,3.02,E,A*2B

$GPRMC,085717.30,A,4548.66735,N,00837.72651,E,0.122,,120324,3.02,E,A*25

$GPRMC,085717.40,A,4548.66735,N,00837.72650,E,0.011,,120324,3.02,E,A*22

$GPTXT,01,01,01,NMEA unknown msg*58

$GPRMC,085717.50,A,4548.66734,N,00837.72649,E,0.051,,120324,3.02,E,A*2E

$GPRMC,085717.60,A,4548.66733,N,00837.72648,E,0.049,,120324,3.02,E,A*22

$GPGST,085717.60,39,5.0,1.9,5.2,2.0,0.78,1.6*49

$GPTXT,01,01,01,NMEA unknown msg*58

$GPRMC,085717.70,A,4548.66732,N,00837.72647,E,0.068,,120324,3.02,E,A*2E

$GPRMC,085717.80,A,4548.66730,N,00837.72646,E,0.024,,120324,3.02,E,A*2A

$GPRMC,085717.90,A,4548.66729,N,00837.72645,E,0.057,,120324,3.02,E,A*24

$GPRMC,085718.00,A,4548.66728,N,00837.72645,E,0.034,,120324,3.02,E,A*26

$GPRMC,085718.10,A,4548.66727,N,00837.72644,E,0.058,,120324,3.02,E,A*23

$GPRMC,085718.20,A,4548.66726,N,00837.72643,E,0.005,,120324,3.02,E,A*2E

$GPRMC,085718.30,A,4548.66724,N,00837.72642,E,0.074,,120324,3.02,E,A*2A

$GPRMC,085718.40,A,4548.66722,N,00837.72642,E,0.086,,120324,3.02,E,A*26

$GPRMC,085718.50,A,4548.66721,N,00837.72641,E,0.049,,120324,3.02,E,A*24

$GPRMC,085718.60,A,4548.66721,N,00837.72640,E,0.067,,120324,3.02,E,A*2A

$GPGST,085718.60,38,5.2,1.9,4.3,2.1,0.77,1.7*4A

$GPTXT,01,01,01,NMEA unknown msg*58

$GPRMC,085718.70,A,4548.66719,N,00837.72639,E,0.046,,120324,3.02,E,A*2D

$GPRMC,085718.80,A,4548.66717,N,00837.72638,E,0.068,,120324,3.02,E,A*21

$GPRMC,085718.90,A,4548.66716,N,00837.72638,E,0.040,,120324,3.02,E,A*2B

$GPRMC,085719.00,A,4548.66713,N,00837.72637,E,0.099,,120324,3.02,E,A*2D

$GPRMC,085719.10,A,4548.66712,N,00837.72635,E,0.077,,120324,3.02,E,A*2F

$GPRMC,085719.20,A,4548.66712,N,00837.72634,E,0.059,,120324,3.02,E,A*21

$GPRMC,085719.30,A,4548.66712,N,00837.72633,E,0.022,,120324,3.02,E,A*2B

$GPRMC,085719.40,A,4548.66712,N,00837.72631,E,0.084,,120324,3.02,E,A*22

$GPRMC,085719.50,A,4548.66711,N,00837.72630,E,0.100,,120324,3.02,E,A*2C

$GPRMC,085719.60,A,4548.66710,N,00837.72629,E,0.179,,120324,3.02,E,A*28

$GPGST,085719.60,28,5.3,1.9,3.5,2.1,0.76,1.7*4B

$GPRMC,085719.70,A,4548.66711,N,00837.72627,E,0.189,,120324,3.02,E,A*29

$GPRMC,085719.80,A,4548.66712,N,00837.72626,E,0.122,,120324,3.02,E,A*25

$GPRMC,085719.90,A,4548.66710,N,00837.72625,E,0.172,,120324,3.02,E,A*20

$GPRMC,085720.00,A,4548.66709,N,00837.72623,E,0.151,,120324,3.02,E,A*2C

$GPRMC,085720.10,A,4548.66708,N,00837.72622,E,0.150,,120324,3.02,E,A*2C

$GPRMC,085720.20,A,4548.66706,N,00837.72621,E,0.170,,120324,3.02,E,A*20

$GPTXT,01,01,01,NMEA unknown msg*58

$GPRMC,085720.30,A,4548.66705,N,00837.72621,E,0.128,,120324,3.02,E,A*2F

$GPRMC,085720.40,A,4548.66704,N,00837.72620,E,0.137,,120324,3.02,E,A*26

$GPRMC,085720.50,A,4548.66704,N,00837.72619,E,0.099,,120324,3.02,E,A*28

$GPRMC,085720.60,A,4548.66705,N,00837.72617,E,0.089,,120324,3.02,E,A*25

$GPGST,085720.60,31,5.4,1.8,2.8,2.2,0.75,1.8*4C

$GPRMC,085720.70,A,4548.66707,N,00837.72617,E,0.031,,120324,3.02,E,A*25

$GPTXT,01,01,01,NMEA unknown msg*58

$GPTXT,01,01,01,NMEA unknown msg*58

$GPRMC,085720.80,A,4548.66706,N,00837.72616,E,0.043,,120324,3.02,E,A*2F

$GPRMC,085720.90,A,4548.66705,N,00837.72616,E,0.032,,120324,3.02,E,A*2B

$GPRMC,085721.00,A,4548.66704,N,00837.72615,E,0.059,,120324,3.02,E,A*2C

$GPRMC,085721.10,A,4548.66703,N,00837.72614,E,0.066,,120324,3.02,E,A*27

$GPRMC,085721.20,A,4548.66702,N,00837.72614,E,0.013,,120324,3.02,E,A*27

$GPRMC,085721.30,A,4548.66701,N,00837.72614,E,0.021,,120324,3.02,E,A*24

$GPRMC,085721.40,A,4548.66701,N,00837.72614,E,0.036,,120324,3.02,E,A*25

$GPRMC,085721.50,A,4548.66701,N,00837.72614,E,0.058,,120324,3.02,E,A*2C

$GPRMC,085721.60,A,4548.66702,N,00837.72614,E,0.083,,120324,3.02,E,A*2A

$GPGST,085721.60,28,5.5,1.8,2.3,2.2,0.74,1.8*4E

$GPRMC,085721.70,A,4548.66703,N,00837.72613,E,0.083,,120324,3.02,E,A*2D

$GPRMC,085721.80,A,4548.66705,N,00837.72612,E,0.064,,120324,3.02,E,A*2C

$GPRMC,085721.90,A,4548.66706,N,00837.72612,E,0.039,,120324,3.02,E,A*26

$GPRMC,085722.00,A,4548.66708,N,00837.72611,E,0.022,,120324,3.02,E,A*2B

$GPRMC,085722.10,A,4548.66710,N,00837.72610,E,0.100,,120324,3.02,E,A*23

$GPRMC,085722.20,A,4548.66711,N,00837.72609,E,0.031,,120324,3.02,E,A*2A

$GPTXT,01,01,01,NMEA unknown msg*58

$GPRMC,085722.30,A,4548.66713,N,00837.72608,E,0.014,,120324,3.02,E,A*2F

$GPRMC,085722.40,A,4548.66714,N,00837.72607,E,0.021,,120324,3.02,E,A*26

$GPRMC,085722.50,A,4548.66715,N,00837.72607,E,0.054,,120324,3.02,E,A*24

$GPRMC,085722.60,A,4548.66717,N,00837.72606,E,0.006,,120324,3.02,E,A*23

$GPGST,085722.60,32,5.5,1.8,1.9,2.2,0.73,1.8*48

$GPRMC,085722.70,A,4548.66718,N,00837.72606,E,0.056,,120324,3.02,E,A*28

$GPTXT,01,01,01,NMEA unknown msg*58

$GPRMC,085722.80,A,4548.66719,N,00837.72605,E,0.094,,120324,3.02,E,A*2B

$GPRMC,085722.90,A,4548.66721,N,00837.72604,E,0.049,,120324,3.02,E,A*20

$GPRMC,085723.00,A,4548.66723,N,00837.72603,E,0.099,,120324,3.02,E,A*20

$GPTXT,01,01,01,NMEA unknown msg*58

$GPRMC,085723.10,A,4548.66722,N,00837.72603,E,0.068,,120324,3.02,E,A*2E

$GPRMC,085723.20,A,4548.66724,N,00837.72602,E,0.067,,120324,3.02,E,A*25

$GPRMC,085723.30,A,4548.66725,N,00837.72602,E,0.110,,120324,3.02,E,A*24

$GPRMC,085723.40,A,4548.66726,N,00837.72601,E,0.007,,120324,3.02,E,A*24

$GPRMC,085723.50,A,4548.66728,N,00837.72601,E,0.067,,120324,3.02,E,A*2D

$GPRMC,085723.60,A,4548.66729,N,00837.72600,E,0.044,,120324,3.02,E,A*2F

$GPGST,085723.60,29,5.6,1.8,1.4,2.2,0.72,1.8*4C

$GPRMC,085723.70,A,4548.66730,N,00837.72599,E,0.124,,120324,3.02,E,A*22

$GPRMC,085723.80,A,4548.66733,N,00837.72599,E,0.065,,120324,3.02,E,A*2A

$GPRMC,085723.90,A,4548.66734,N,00837.72599,E,0.071,,120324,3.02,E,A*29

$GPRMC,085724.00,A,4548.66737,N,00837.72598,E,0.089,,120324,3.02,E,A*22

$GPRMC,085724.10,A,4548.66739,N,00837.72597,E,0.051,,120324,3.02,E,A*27

$GPRMC,085724.20,A,4548.66741,N,00837.72597,E,0.069,,120324,3.02,E,A*20

$GPRMC,085724.30,A,4548.66744,N,00837.72597,E,0.023,,120324,3.02,E,A*2A

$GPRMC,085724.40,A,4548.66746,N,00837.72597,E,0.046,,120324,3.02,E,A*2C

$GPRMC,085724.50,A,4548.66749,N,00837.72597,E,0.008,,120324,3.02,E,A*28

$GPRMC,085724.60,A,4548.66753,N,00837.72597,E,0.057,,120324,3.02,E,A*2A

$GPGST,085724.60,28,5.6,1.8,1.1,2.3,0.71,1.8*4D

$GPTXT,01,01,01,NMEA unknown msg*58

$GPRMC,085724.70,A,4548.66756,N,00837.72596,E,0.070,,120324,3.02,E,A*2A

$GPRMC,085724.80,A,4548.66759,N,00837.72597,E,0.122,,120324,3.02,E,A*2D

$GPRMC,085724.90,A,4548.66762,N,00837.72597,E,0.082,,120324,3.02,E,A*2F

$GPRMC,085725.00,A,4548.66765,N,00837.72597,E,0.105,,120324,3.02,E,A*2E

$GPRMC,085725.10,A,4548.66768,N,00837.72597,E,0.054,,120324,3.02,E,A*27

$GPRMC,085725.20,A,4548.66772,N,00837.72597,E,0.076,,120324,3.02,E,A*2F

$GPRMC,085725.30,A,4548.66776,N,00837.72597,E,0.094,,120324,3.02,E,A*26

$GPRMC,085725.40,A,4548.66783,N,00837.72597,E,0.054,,120324,3.02,E,A*27

$GPTXT,01,01,01,NMEA unknown msg*58

$GPRMC,085725.50,A,4548.66790,N,00837.72596,E,0.093,,120324,3.02,E,A*2E

$GPRMC,085725.60,A,4548.66796,N,00837.72596,E,0.068,,120324,3.02,E,A*2F

$GPGST,085725.60,20,5.6,1.7,0.88,2.3,0.70,1.9*7B

$GPRMC,085725.70,A,4548.66803,N,00837.72595,E,0.063,,120324,3.02,E,A*25

$GPRMC,085725.80,A,4548.66811,N,00837.72595,E,0.098,,120324,3.02,E,A*2D

$GPRMC,085725.90,A,4548.66817,N,00837.72594,E,0.138,,120324,3.02,E,A*20

$GPRMC,085726.00,A,4548.66823,N,00837.72594,E,0.158,,120324,3.02,E,A*2B

$GPRMC,085726.10,A,4548.66829,N,00837.72593,E,0.136,,120324,3.02,E,A*2F

$GPRMC,085726.20,A,4548.66829,N,00837.72593,E,0.000,,120324,3.02,E,A*28

$GPRMC,085726.30,A,4548.66831,N,00837.72594,E,0.134,,120324,3.02,E,A*21

$GPRMC,085726.40,A,4548.66834,N,00837.72594,E,0.170,,120324,3.02,E,A*23

$GPTXT,01,01,01,NMEA unknown msg*58

$GPRMC,085726.50,A,4548.66836,N,00837.72594,E,0.126,,120324,3.02,E,A*23

$GPRMC,085726.60,A,4548.66839,N,00837.72593,E,0.098,,120324,3.02,E,A*2C

$GPGST,085726.60,31,5.3,4.8,4.6,2.1,1.9,1.8*79

$GPRMC,085726.70,A,4548.66841,N,00837.72592,E,0.144,,120324,3.02,E,A*23

$GPRMC,085726.80,A,4548.66843,N,00837.72593,E,0.055,,120324,3.02,E,A*2E

$GPRMC,085726.90,A,4548.66845,N,00837.72594,E,0.088,,120324,3.02,E,A*2E

$GPRMC,085727.00,A,4548.66847,N,00837.72594,E,0.120,,120324,3.02,E,A*27

$GPRMC,085727.10,A,4548.66849,N,00837.72595,E,0.083,,120324,3.02,E,A*21

$GPTXT,01,01,01,NMEA unknown msg*58

$GPRMC,085727.20,A,4548.66851,N,00837.72595,E,0.108,,120324,3.02,E,A*29

$GPRMC,085727.30,A,4548.66853,N,00837.72596,E,0.119,,120324,3.02,E,A*29

$GPRMC,085727.40,A,4548.66854,N,00837.72596,E,0.150,,120324,3.02,E,A*24

$GPTXT,01,01,01,NMEA unknown msg*58

$GPRMC,085727.50,A,4548.66856,N,00837.72596,E,0.145,,120324,3.02,E,A*23

$GPRMC,085727.60,A,4548.66858,N,00837.72597,E,0.131,,120324,3.02,E,A*2C

$GPGST,085727.60,29,5.2,4.1,3.7,2.1,1.6,1.6*7E

$GPRMC,085727.70,A,4548.66859,N,00837.72598,E,0.102,,120324,3.02,E,A*23

$GPRMC,085727.80,A,4548.66860,N,00837.72598,E,0.115,,120324,3.02,E,A*20

$GPRMC,085727.90,A,4548.66861,N,00837.72598,E,0.119,,120324,3.02,E,A*2C

$GPTXT,01,01,01,NMEA unknown msg*58

$GPRMC,085728.00,A,4548.66863,N,00837.72599,E,0.107,,120324,3.02,E,A*26

$GPRMC,085728.10,A,4548.66864,N,00837.72599,E,0.096,,120324,3.02,E,A*29

$GPRMC,085728.20,A,4548.66865,N,00837.72599,E,0.103,,120324,3.02,E,A*26

$GPRMC,085728.30,A,4548.66867,N,00837.72599,E,0.150,,120324,3.02,E,A*23

$GPRMC,085728.40,A,4548.66868,N,00837.72599,E,0.102,,120324,3.02,E,A*2C

$GPRMC,085728.50,A,4548.66869,N,00837.72599,E,0.082,,120324,3.02,E,A*25

$GPRMC,085728.60,A,4548.66871,N,00837.72599,E,0.175,,120324,3.02,E,A*26

$GPGST,085728.60,28,5.1,3.6,2.9,2.1,1.5,1.6*7F

$GPTXT,01,01,01,NMEA unknown msg*58

$GPRMC,085728.70,A,4548.66872,N,00837.72600,E,0.107,,120324,3.02,E,A*22

$GPTXT,01,01,01,NMEA unknown msg*58

$GPRMC,085728.80,A,4548.66872,N,00837.72601,E,0.108,,120324,3.02,E,A*23

$GPRMC,085728.90,A,4548.66873,N,00837.72601,E,0.115,,120324,3.02,E,A*2F

$GPRMC,085729.00,A,4548.66874,N,00837.72602,E,0.146,,120324,3.02,E,A*25

$GPTXT,01,01,01,NMEA unknown msg*58

$GPRMC,085729.10,A,4548.66874,N,00837.72602,E,0.100,,120324,3.02,E,A*26

$GPRMC,085729.20,A,4548.66875,N,00837.72602,E,0.062,,120324,3.02,E,A*21

$GPRMC,085729.30,A,4548.66876,N,00837.72603,E,0.116,,120324,3.02,E,A*20

$GPTXT,01,01,01,NMEA unknown msg*58

$GPRMC,085729.40,A,4548.66876,N,00837.72603,E,0.046,,120324,3.02,E,A*23

$GPRMC,085729.50,A,4548.66877,N,00837.72604,E,0.068,,120324,3.02,E,A*28

$GPRMC,085729.60,A,4548.66877,N,00837.72604,E,0.047,,120324,3.02,E,A*26

$GPGST,085729.60,27,5.1,3.3,2.3,2.1,1.3,1.6*78

$GPRMC,085729.70,A,4548.66878,N,00837.72604,E,0.037,,120324,3.02,E,A*2F

$GPRMC,085729.80,A,4548.66878,N,00837.72605,E,0.064,,120324,3.02,E,A*27

$GPRMC,085729.90,A,4548.66879,N,00837.72605,E,0.070,,120324,3.02,E,A*22

$GPRMC,085730.00,A,4548.66879,N,00837.72606,E,0.073,,120324,3.02,E,A*23

$GPRMC,085730.10,A,4548.66879,N,00837.72606,E,0.018,,120324,3.02,E,A*2F

$GPTXT,01,01,01,NMEA unknown msg*58

$GPRMC,085730.20,A,4548.66879,N,00837.72606,E,0.079,,120324,3.02,E,A*2B

$GPRMC,085730.30,A,4548.66879,N,00837.72607,E,0.032,,120324,3.02,E,A*24

$GPRMC,085730.40,A,4548.66880,N,00837.72607,E,0.073,,120324,3.02,E,A*20

$GPRMC,085730.50,A,4548.66881,N,00837.72606,E,0.115,,120324,3.02,E,A*20

$GPRMC,085730.60,A,4548.66882,N,00837.72606,E,0.071,,120324,3.02,E,A*23

$GPGST,085730.60,27,5.1,3.1,1.7,2.1,1.2,1.6*74

$GPRMC,085730.70,A,4548.66883,N,00837.72606,E,0.127,,120324,3.02,E,A*21

$GPRMC,085730.80,A,4548.66884,N,00837.72606,E,0.115,,120324,3.02,E,A*28

$GPRMC,085730.90,A,4548.66883,N,00837.72606,E,0.065,,120324,3.02,E,A*28

$GPTXT,01,01,01,NMEA unknown msg*58

$GPRMC,085731.00,A,4548.66883,N,00837.72606,E,0.117,,120324,3.02,E,A*24

$GPRMC,085731.10,A,4548.66884,N,00837.72606,E,0.107,,120324,3.02,E,A*23

$GPRMC,085731.20,A,4548.66884,N,00837.72606,E,0.096,,120324,3.02,E,A*29

$GPRMC,085731.30,A,4548.66884,N,00837.72605,E,0.088,,120324,3.02,E,A*24

$GPTXT,01,01,01,NMEA unknown msg*58

$GPRMC,085731.40,A,4548.66884,N,00837.72605,E,0.024,,120324,3.02,E,A*25

$GPRMC,085731.50,A,4548.66884,N,00837.72605,E,0.030,,120324,3.02,E,A*21

$GPRMC,085731.60,A,4548.66884,N,00837.72604,E,0.039,,120324,3.02,E,A*2A

$GPGST,085731.60,28,5.2,2.9,1.0,2.1,1.1,1.6*74

$GPRMC,085731.70,A,4548.66885,N,00837.72604,E,0.024,,120324,3.02,E,A*26

$GPRMC,085731.80,A,4548.66885,N,00837.72604,E,0.050,,120324,3.02,E,A*2A

$GPRMC,085731.90,A,4548.66884,N,00837.72603,E,0.046,,120324,3.02,E,A*2A

$GPRMC,085732.00,A,4548.66883,N,00837.72602,E,0.034,,120324,3.02,E,A*23

$GPRMC,085732.10,A,4548.66883,N,00837.72602,E,0.038,,120324,3.02,E,A*2E

$GPRMC,085732.20,A,4548.66883,N,00837.72602,E,0.047,,120324,3.02,E,A*25

$GPRMC,085732.30,A,4548.66884,N,00837.72602,E,0.025,,120324,3.02,E,A*27

$GPRMC,085732.40,A,4548.66885,N,00837.72602,E,0.047,,120324,3.02,E,A*25

$GPRMC,085732.50,A,4548.66887,N,00837.72601,E,0.126,,120324,3.02,E,A*23

$GPRMC,085732.60,A,4548.66889,N,00837.72600,E,0.066,,120324,3.02,E,A*2A

$GPGST,085732.60,33,5.2,2.7,0.43,2.1,1.1,1.6*45

$GPRMC,085732.70,A,4548.66890,N,00837.72600,E,0.061,,120324,3.02,E,A*24

$GPRMC,085732.80,A,4548.66891,N,00837.72598,E,0.090,,120324,3.02,E,A*26

$GPRMC,085732.90,A,4548.66892,N,00837.72598,E,0.073,,120324,3.02,E,A*29

$GPRMC,085733.00,A,4548.66893,N,00837.72597,E,0.135,,120324,3.02,E,A*2C

$GPRMC,085733.10,A,4548.66895,N,00837.72596,E,0.067,,120324,3.02,E,A*2C

$GPRMC,085733.20,A,4548.66896,N,00837.72596,E,0.062,,120324,3.02,E,A*29

$GPRMC,085733.30,A,4548.66897,N,00837.72596,E,0.053,,120324,3.02,E,A*2B

$GPRMC,085733.40,A,4548.66900,N,00837.72596,E,0.062,,120324,3.02,E,A*21

$GPRMC,085733.50,A,4548.66902,N,00837.72595,E,0.052,,120324,3.02,E,A*22

$GPRMC,085733.60,A,4548.66905,N,00837.72594,E,0.041,,120324,3.02,E,A*25

$GPGST,085733.60,34,5.2,2.6,180,2.1,1.0,1.7*62

$GPRMC,085733.70,A,4548.66906,N,00837.72594,E,0.054,,120324,3.02,E,A*23

$GPRMC,085733.80,A,4548.66909,N,00837.72593,E,0.128,,120324,3.02,E,A*2E

$GPRMC,085733.90,A,4548.66911,N,00837.72592,E,0.060,,120324,3.02,E,A*2A

$GPRMC,085734.00,A,4548.66912,N,00837.72592,E,0.031,,120324,3.02,E,A*23

$GPRMC,085734.10,A,4548.66915,N,00837.72591,E,0.039,,120324,3.02,E,A*2E

$GPTXT,01,01,01,NMEA unknown msg*58

$GPRMC,085734.20,A,4548.66917,N,00837.72590,E,0.038,,120324,3.02,E,A*2F

$GPRMC,085734.30,A,4548.66920,N,00837.72589,E,0.036,,120324,3.02,E,A*2C

$GPRMC,085734.40,A,4548.66923,N,00837.72588,E,0.036,,120324,3.02,E,A*29

$GPRMC,085734.50,A,4548.66926,N,00837.72587,E,0.048,,120324,3.02,E,A*2B

$GPRMC,085734.60,A,4548.66928,N,00837.72586,E,0.032,,120324,3.02,E,A*2A

$GPGST,085734.60,33,5.2,2.4,179,2.1,0.98,1.7*56

$GPRMC,085734.70,A,4548.66930,N,00837.72585,E,0.064,,120324,3.02,E,A*22

$GPRMC,085734.80,A,4548.66933,N,00837.72584,E,0.025,,120324,3.02,E,A*2A

$GPRMC,085734.90,A,4548.66936,N,00837.72584,E,0.037,,120324,3.02,E,A*2D

$GPRMC,085735.00,A,4548.66939,N,00837.72582,E,0.088,,120324,3.02,E,A*28

$GPRMC,085735.10,A,4548.66942,N,00837.72581,E,0.074,,120324,3.02,E,A*25

$GPRMC,085735.20,A,4548.66944,N,00837.72580,E,0.050,,120324,3.02,E,A*27

$GPRMC,085735.30,A,4548.66946,N,00837.72579,E,0.092,,120324,3.02,E,A*2C

$GPRMC,085735.40,A,4548.66948,N,00837.72578,E,0.021,,120324,3.02,E,A*2C

$GPTXT,01,01,01,NMEA unknown msg*58

$GPRMC,085735.50,A,4548.66952,N,00837.72577,E,0.043,,120324,3.02,E,A*2D

$GPRMC,085735.60,A,4548.66956,N,00837.72575,E,0.062,,120324,3.02,E,A*2B

$GPGST,085735.60,32,5.2,2.3,179,2.1,0.94,1.7*5D

$GPRMC,085735.70,A,4548.66959,N,00837.72574,E,0.054,,120324,3.02,E,A*21

$GPTXT,01,01,01,NMEA unknown msg*58

$GPRMC,085735.80,A,4548.66962,N,00837.72573,E,0.049,,120324,3.02,E,A*2D

$GPRMC,085735.90,A,4548.66965,N,00837.72572,E,0.074,,120324,3.02,E,A*24

$GPRMC,085736.00,A,4548.66967,N,00837.72571,E,0.023,,120324,3.02,E,A*2D

$GPRMC,085736.10,A,4548.66968,N,00837.72571,E,0.042,,120324,3.02,E,A*24

$GPRMC,085736.20,A,4548.66970,N,00837.72570,E,0.024,,120324,3.02,E,A*2F

$GPRMC,085736.30,A,4548.66973,N,00837.72569,E,0.052,,120324,3.02,E,A*24

$GPRMC,085736.40,A,4548.66974,N,00837.72569,E,0.041,,120324,3.02,E,A*26

$GPRMC,085736.50,A,4548.66978,N,00837.72568,E,0.037,,120324,3.02,E,A*2B

$GPRMC,085736.60,A,4548.66981,N,00837.72566,E,0.060,,120324,3.02,E,A*22

$GPGST,085736.60,32,5.1,2.3,179,2.1,0.91,1.7*58

$GPRMC,085736.70,A,4548.66984,N,00837.72566,E,0.018,,120324,3.02,E,A*29

$GPRMC,085736.80,A,4548.66987,N,00837.72565,E,0.072,,120324,3.02,E,A*2A

$GPRMC,085736.90,A,4548.66991,N,00837.72564,E,0.047,,120324,3.02,E,A*2B

$GPRMC,085737.00,A,4548.66995,N,00837.72564,E,0.054,,120324,3.02,E,A*25

$GPRMC,085737.10,A,4548.66997,N,00837.72563,E,0.051,,120324,3.02,E,A*24

$GPRMC,085737.20,A,4548.67001,N,00837.72563,E,0.027,,120324,3.02,E,A*21

$GPRMC,085737.30,A,4548.67002,N,00837.72562,E,0.012,,120324,3.02,E,A*24

$GPRMC,085737.40,A,4548.67005,N,00837.72563,E,0.115,,120324,3.02,E,A*23

$GPTXT,01,01,01,NMEA unknown msg*58

$GPRMC,085737.50,A,4548.67009,N,00837.72562,E,0.102,,120324,3.02,E,A*29

$GPRMC,085737.60,A,4548.67012,N,00837.72561,E,0.046,,120324,3.02,E,A*22

$GPGST,085737.60,32,5.1,2.2,178,2.1,0.88,1.7*51

$GPRMC,085737.70,A,4548.67015,N,00837.72561,E,0.071,,120324,3.02,E,A*20

$GPRMC,085737.80,A,4548.67020,N,00837.72560,E,0.097,,120324,3.02,E,A*20

$GPRMC,085737.90,A,4548.67022,N,00837.72560,E,0.032,,120324,3.02,E,A*2C

$GPRMC,085738.00,A,4548.67025,N,00837.72559,E,0.041,,120324,3.02,E,A*23

$GPRMC,085738.10,A,4548.67028,N,00837.72559,E,0.048,,120324,3.02,E,A*26

$GPRMC,085738.20,A,4548.67032,N,00837.72559,E,0.052,,120324,3.02,E,A*25

$GPRMC,085738.30,A,4548.67035,N,00837.72558,E,0.073,,120324,3.02,E,A*21

$GPRMC,085738.40,A,4548.67035,N,00837.72558,E,0.000,,120324,3.02,E,A*22

$GPRMC,085738.50,A,4548.67035,N,00837.72558,E,0.000,,120324,3.02,E,A*23

$GPRMC,085738.60,A,4548.67037,N,00837.72556,E,0.040,,120324,3.02,E,A*28

$GPGST,085738.60,32,4.9,4.8,2.9,2.0,1.9,1.9*77

$GPRMC,085738.70,A,4548.67038,N,00837.72554,E,0.059,,120324,3.02,E,A*2C

$GPRMC,085738.80,A,4548.67040,N,00837.72553,E,0.026,,120324,3.02,E,A*23

$GPRMC,085738.90,A,4548.67042,N,00837.72551,E,0.038,,120324,3.02,E,A*2D

$GPRMC,085739.00,A,4548.67043,N,00837.72550,E,0.036,,120324,3.02,E,A*2B

$GPRMC,085739.10,A,4548.67043,N,00837.72550,E,0.000,,120324,3.02,E,A*2F

$GPRMC,085739.20,A,4548.67043,N,00837.72550,E,0.000,,120324,3.02,E,A*2C

$GPRMC,085739.30,A,4548.67046,N,00837.72549,E,0.033,,120324,3.02,E,A*20

$GPRMC,085739.40,A,4548.67047,N,00837.72548,E,0.039,,120324,3.02,E,A*2D

$GPRMC,085739.50,A,4548.67049,N,00837.72548,E,0.095,,120324,3.02,E,A*24

$GPRMC,085739.60,A,4548.67052,N,00837.72548,E,0.071,,120324,3.02,E,A*27

$GPGST,085739.60,25,5.2,4.8,2.5,2.1,1.9,1.7*79

$GPRMC,085739.70,A,4548.67055,N,00837.72548,E,0.041,,120324,3.02,E,A*22

$GPRMC,085739.80,A,4548.67058,N,00837.72547,E,0.080,,120324,3.02,E,A*22

$GPRMC,085739.90,A,4548.67061,N,00837.72546,E,0.037,,120324,3.02,E,A*24

$GPRMC,085740.00,A,4548.67065,N,00837.72543,E,0.028,,120324,3.02,E,A*2C

$GPRMC,085740.10,A,4548.67068,N,00837.72539,E,0.084,,120324,3.02,E,A*2B

$GPRMC,085740.20,A,4548.67073,N,00837.72538,E,0.014,,120324,3.02,E,A*2A

$GPRMC,085740.30,A,4548.67076,N,00837.72537,E,0.045,,120324,3.02,E,A*25

$GPRMC,085740.40,A,4548.67079,N,00837.72536,E,0.049,,120324,3.02,E,A*20

$GPRMC,085740.50,A,4548.67084,N,00837.72536,E,0.101,,120324,3.02,E,A*2E

$GPRMC,085740.60,A,4548.67087,N,00837.72537,E,0.106,,120324,3.02,E,A*28

$GPGST,085740.60,32,5.0,3.9,2.2,2.0,1.6,1.5*7E

$GPRMC,085740.70,A,4548.67090,N,00837.72537,E,0.151,,120324,3.02,E,A*2D

$GPRMC,085740.80,A,4548.67093,N,00837.72537,E,0.055,,120324,3.02,E,A*24

$GPRMC,085740.90,A,4548.67096,N,00837.72539,E,0.088,,120324,3.02,E,A*2E

$GPTXT,01,01,01,NMEA unknown msg*58

$GPRMC,085741.00,A,4548.67097,N,00837.72538,E,0.073,,120324,3.02,E,A*22

$GPRMC,085741.10,A,4548.67098,N,00837.72537,E,0.119,,120324,3.02,E,A*2E

$GPRMC,085741.20,A,4548.67099,N,00837.72536,E,0.156,,120324,3.02,E,A*26

$GPRMC,085741.30,A,4548.67100,N,00837.72535,E,0.103,,120324,3.02,E,A*25

$GPRMC,085741.40,A,4548.67101,N,00837.72534,E,0.101,,120324,3.02,E,A*20

$GPRMC,085741.50,A,4548.67102,N,00837.72532,E,0.225,,120324,3.02,E,A*21

$GPRMC,085741.60,A,4548.67104,N,00837.72530,E,0.253,,120324,3.02,E,A*27

$GPGST,085741.60,31,4.9,3.5,1.2,2.0,1.4,1.4*78

$GPRMC,085741.70,A,4548.67106,N,00837.72527,E,0.262,,120324,3.02,E,A*20

$GPRMC,085741.80,A,4548.67109,N,00837.72524,E,0.138,,120324,3.02,E,A*2F

$GPRMC,085741.90,A,4548.67111,N,00837.72523,E,0.154,,120324,3.02,E,A*2A

$GPRMC,085742.00,A,4548.67112,N,00837.72522,E,0.202,,120324,3.02,E,A*22

$GPRMC,085742.10,A,4548.67112,N,00837.72522,E,0.169,,120324,3.02,E,A*2D

$GPRMC,085742.20,A,4548.67113,N,00837.72523,E,0.192,,120324,3.02,E,A*2A

$GPRMC,085742.30,A,4548.67114,N,00837.72523,E,0.138,,120324,3.02,E,A*2C

$GPRMC,085742.40,A,4548.67115,N,00837.72523,E,0.229,,120324,3.02,E,A*29

$GPRMC,085742.50,A,4548.67115,N,00837.72521,E,0.117,,120324,3.02,E,A*24

$GPRMC,085742.60,A,4548.67115,N,00837.72520,E,0.141,,120324,3.02,E,A*25

$GPGST,085742.60,27,4.8,3.1,0.59,1.9,1.3,1.4*4B

$GPRMC,085742.70,A,4548.67114,N,00837.72519,E,0.106,,120324,3.02,E,A*2C

$GPRMC,085742.80,A,4548.67113,N,00837.72518,E,0.120,,120324,3.02,E,A*21

$GPRMC,085742.90,A,4548.67112,N,00837.72517,E,0.108,,120324,3.02,E,A*24

$GPRMC,085743.00,A,4548.67112,N,00837.72517,E,0.000,,120324,3.02,E,A*25

$GPRMC,085743.10,A,4548.67112,N,00837.72515,E,0.222,,120324,3.02,E,A*24

$GPTXT,01,01,01,NMEA unknown msg*58

$GPRMC,085743.20,A,4548.67112,N,00837.72512,E,0.194,,120324,3.02,E,A*2E

$GPRMC,085743.30,A,4548.67112,N,00837.72507,E,0.123,,120324,3.02,E,A*27

$GPRMC,085743.40,A,4548.67112,N,00837.72504,E,0.172,,120324,3.02,E,A*27

$GPRMC,085743.50,A,4548.67112,N,00837.72502,E,0.201,,120324,3.02,E,A*27

$GPRMC,085743.60,A,4548.67111,N,00837.72499,E,0.167,,120324,3.02,E,A*27

$GPGST,085743.60,26,4.6,4.2,3.5,1.9,1.7,1.5*7E

$GPRMC,085743.70,A,4548.67110,N,00837.72495,E,0.222,,120324,3.02,E,A*29

$GPTXT,01,01,01,NMEA unknown msg*58

$GPRMC,085743.80,A,4548.67110,N,00837.72493,E,0.225,,120324,3.02,E,A*27

$GPRMC,085743.90,A,4548.67110,N,00837.72492,E,0.140,,120324,3.02,E,A*27

$GPRMC,085744.00,A,4548.67110,N,00837.72490,E,0.136,,120324,3.02,E,A*2A

$GPRMC,085744.10,A,4548.67110,N,00837.72488,E,0.106,,120324,3.02,E,A*21

$GPRMC,085744.20,A,4548.67110,N,00837.72487,E,0.144,,120324,3.02,E,A*2B

$GPRMC,085744.30,A,4548.67111,N,00837.72486,E,0.164,,120324,3.02,E,A*28

$GPRMC,085744.40,A,4548.67112,N,00837.72485,E,0.079,,120324,3.02,E,A*22

$GPRMC,085744.50,A,4548.67113,N,00837.72486,E,0.080,,120324,3.02,E,A*27

$GPRMC,085744.60,A,4548.67114,N,00837.72486,E,0.145,,120324,3.02,E,A*2B

$GPGST,085744.60,35,4.5,3.6,1.8,1.8,1.5,1.4*76

$GPRMC,085744.70,A,4548.67117,N,00837.72487,E,0.075,,120324,3.02,E,A*2A

$GPRMC,085744.80,A,4548.67118,N,00837.72487,E,0.110,,120324,3.02,E,A*28

$GPRMC,085744.90,A,4548.67120,N,00837.72488,E,0.142,,120324,3.02,E,A*2A

$GPRMC,085745.00,A,4548.67122,N,00837.72489,E,0.161,,120324,3.02,E,A*20

$GPRMC,085745.10,A,4548.67125,N,00837.72489,E,0.094,,120324,3.02,E,A*2D

$GPRMC,085745.20,A,4548.67127,N,00837.72489,E,0.155,,120324,3.02,E,A*20

$GPRMC,085745.30,A,4548.67129,N,00837.72489,E,0.115,,120324,3.02,E,A*2B

$GPRMC,085745.40,A,4548.67131,N,00837.72490,E,0.075,,120324,3.02,E,A*2A

$GPRMC,085745.50,A,4548.67133,N,00837.72490,E,0.069,,120324,3.02,E,A*24

$GPRMC,085745.60,A,4548.67134,N,00837.72490,E,0.124,,120324,3.02,E,A*28

$GPGST,085745.60,36,4.4,3.3,1.1,1.8,1.3,1.3*78

$GPRMC,085745.70,A,4548.67135,N,00837.72490,E,0.174,,120324,3.02,E,A*2D

$GPRMC,085745.80,A,4548.67136,N,00837.72490,E,0.121,,120324,3.02,E,A*21

$GPRMC,085745.90,A,4548.67136,N,00837.72490,E,0.092,,120324,3.02,E,A*29

$GPRMC,085746.00,A,4548.67137,N,00837.72491,E,0.126,,120324,3.02,E,A*2D

$GPRMC,085746.10,A,4548.67139,N,00837.72493,E,0.107,,120324,3.02,E,A*23

$GPRMC,085746.20,A,4548.67139,N,00837.72494,E,0.158,,120324,3.02,E,A*2D

$GPRMC,085746.30,A,4548.67140,N,00837.72495,E,0.134,,120324,3.02,E,A*29

$GPRMC,085746.40,A,4548.67141,N,00837.72497,E,0.129,,120324,3.02,E,A*21

$GPRMC,085746.50,A,4548.67142,N,00837.72499,E,0.139,,120324,3.02,E,A*2C

$GPRMC,085746.60,A,4548.67142,N,00837.72499,E,0.000,,120324,3.02,E,A*24

$GPGST,085746.60,36,4.4,3.1,0.92,1.8,1.2,1.4*44

$GPRMC,085746.70,A,4548.67143,N,00837.72503,E,0.131,,120324,3.02,E,A*25

$GPRMC,085746.80,A,4548.67144,N,00837.72506,E,0.160,,120324,3.02,E,A*2C

$GPRMC,085746.90,A,4548.67145,N,00837.72507,E,0.182,,120324,3.02,E,A*21

$GPRMC,085747.00,A,4548.67145,N,00837.72508,E,0.265,,120324,3.02,E,A*2C

$GPRMC,085747.10,A,4548.67145,N,00837.72510,E,0.247,,120324,3.02,E,A*24

$GPRMC,085747.20,A,4548.67146,N,00837.72511,E,0.222,,120324,3.02,E,A*26

$GPRMC,085747.30,A,4548.67146,N,00837.72513,E,0.265,,120324,3.02,E,A*26

$GPRMC,085747.40,A,4548.67147,N,00837.72516,E,0.290,,120324,3.02,E,A*2F

$GPRMC,085747.50,A,4548.67148,N,00837.72519,E,0.254,,120324,3.02,E,A*26

$GPRMC,085747.60,A,4548.67149,N,00837.72522,E,0.252,,120324,3.02,E,A*2A

$GPGST,085747.60,34,4.4,3.9,7.2,1.8,1.6,1.4*75

$GPRMC,085747.70,A,4548.67151,N,00837.72525,E,0.222,,120324,3.02,E,A*22

$GPTXT,01,01,01,NMEA unknown msg*58

$GPRMC,085747.80,A,4548.67151,N,00837.72527,E,0.293,,120324,3.02,E,A*25

$GPRMC,085747.90,A,4548.67151,N,00837.72530,E,0.406,,120324,3.02,E,A*28

$GPRMC,085748.00,A,4548.67152,N,00837.72532,E,0.373,,120324,3.02,E,A*2A

$GPRMC,085748.10,A,4548.67154,N,00837.72536,E,0.313,,120324,3.02,E,A*2F

$GPRMC,085748.20,A,4548.67154,N,00837.72539,E,0.342,,120324,3.02,E,A*27

$GPRMC,085748.30,A,4548.67156,N,00837.72542,E,0.226,,120324,3.02,E,A*2B

$GPRMC,085748.40,A,4548.67156,N,00837.72545,E,0.272,,120324,3.02,E,A*2A

$GPRMC,085748.50,A,4548.67157,N,00837.72547,E,0.250,,120324,3.02,E,A*28

$GPRMC,085748.60,A,4548.67159,N,00837.72550,E,0.225,,120324,3.02,E,A*21

$GPGST,085748.60,37,4.3,3.5,5.4,1.7,1.4,1.3*7C

$GPRMC,085748.70,A,4548.67160,N,00837.72553,E,0.248,,120324,3.02,E,A*22

$GPRMC,085748.80,A,4548.67162,N,00837.72555,E,0.217,,120324,3.02,E,A*23

$GPRMC,085748.90,A,4548.67164,N,00837.72557,E,0.230,,120324,3.02,E,A*23

$GPRMC,085749.00,A,4548.67166,N,00837.72559,E,0.191,,120324,3.02,E,A*2F

$GPRMC,085749.10,A,4548.67168,N,00837.72561,E,0.225,,120324,3.02,E,A*27

$GPRMC,085749.20,A,4548.67170,N,00837.72563,E,0.225,,120324,3.02,E,A*2F

$GPRMC,085749.30,A,4548.67171,N,00837.72564,E,0.228,,120324,3.02,E,A*25

$GPRMC,085749.40,A,4548.67172,N,00837.72566,E,0.240,,120324,3.02,E,A*2D

$GPRMC,085749.50,A,4548.67173,N,00837.72567,E,0.202,,120324,3.02,E,A*2A

$GPRMC,085749.60,A,4548.67174,N,00837.72568,E,0.205,,120324,3.02,E,A*26

$GPGST,085749.60,17,4.3,3.2,4.5,1.7,1.3,1.3*7F

$GPRMC,085749.70,A,4548.67175,N,00837.72569,E,0.186,,120324,3.02,E,A*2F

$GPRMC,085749.80,A,4548.67175,N,00837.72568,E,0.132,,120324,3.02,E,A*2E

$GPRMC,085749.90,A,4548.67175,N,00837.72568,E,0.170,,120324,3.02,E,A*29

$GPRMC,085750.00,A,4548.67174,N,00837.72567,E,0.126,,120324,3.02,E,A*25

$GPRMC,085750.10,A,4548.67175,N,00837.72567,E,0.108,,120324,3.02,E,A*29

$GPRMC,085750.20,A,4548.67175,N,00837.72567,E,0.087,,120324,3.02,E,A*2C

$GPRMC,085750.30,A,4548.67174,N,00837.72567,E,0.177,,120324,3.02,E,A*22

$GPRMC,085750.40,A,4548.67175,N,00837.72568,E,0.154,,120324,3.02,E,A*2A

$GPTXT,01,01,01,NMEA unknown msg*58

$GPRMC,085750.50,A,4548.67175,N,00837.72569,E,0.085,,120324,3.02,E,A*27

$GPRMC,085750.60,A,4548.67175,N,00837.72569,E,0.132,,120324,3.02,E,A*29

$GPGST,085750.60,29,4.3,3.0,3.8,1.7,1.2,1.3*73

$GPRMC,085750.70,A,4548.67175,N,00837.72569,E,0.193,,120324,3.02,E,A*23

$GPRMC,085750.80,A,4548.67175,N,00837.72570,E,0.121,,120324,3.02,E,A*2D

$GPRMC,085750.90,A,4548.67174,N,00837.72572,E,0.096,,120324,3.02,E,A*22

$GPRMC,085751.00,A,4548.67172,N,00837.72574,E,0.141,,120324,3.02,E,A*21

$GPRMC,085751.10,A,4548.67170,N,00837.72575,E,0.160,,120324,3.02,E,A*20

$GPRMC,085751.20,A,4548.67168,N,00837.72576,E,0.193,,120324,3.02,E,A*25

$GPRMC,085751.30,A,4548.67166,N,00837.72576,E,0.194,,120324,3.02,E,A*2D

$GPRMC,085751.40,A,4548.67163,N,00837.72577,E,0.241,,120324,3.02,E,A*25

$GPRMC,085751.50,A,4548.67160,N,00837.72578,E,0.244,,120324,3.02,E,A*2D

$GPRMC,085751.60,A,4548.67158,N,00837.72579,E,0.205,,120324,3.02,E,A*21

$GPGST,085751.60,27,4.3,2.8,4.0,1.7,1.1,1.4*7E

$GPRMC,085751.70,A,4548.67156,N,00837.72579,E,0.203,,120324,3.02,E,A*28

$GPRMC,085751.80,A,4548.67154,N,00837.72580,E,0.140,,120324,3.02,E,A*27

$GPRMC,085751.90,A,4548.67152,N,00837.72580,E,0.134,,120324,3.02,E,A*23

$GPRMC,085752.00,A,4548.67150,N,00837.72580,E,0.178,,120324,3.02,E,A*23

$GPRMC,085752.10,A,4548.67149,N,00837.72580,E,0.139,,120324,3.02,E,A*2F

$GPRMC,085752.20,A,4548.67146,N,00837.72580,E,0.184,,120324,3.02,E,A*25

$GPRMC,085752.30,A,4548.67145,N,00837.72580,E,0.102,,120324,3.02,E,A*29

$GPRMC,085752.40,A,4548.67144,N,00837.72579,E,0.110,,120324,3.02,E,A*2A

$GPRMC,085752.50,A,4548.67141,N,00837.72579,E,0.166,,120324,3.02,E,A*2F

$GPRMC,085752.60,A,4548.67140,N,00837.72579,E,0.158,,120324,3.02,E,A*20

$GPGST,085752.60,25,4.3,2.7,3.5,1.7,1.1,1.4*72

$GPRMC,085752.70,A,4548.67138,N,00837.72578,E,0.128,,120324,3.02,E,A*28

$GPRMC,085752.80,A,4548.67134,N,00837.72577,E,0.200,,120324,3.02,E,A*2D

$GPRMC,085752.90,A,4548.67134,N,00837.72577,E,0.175,,120324,3.02,E,A*2D

$GPRMC,085753.00,A,4548.67133,N,00837.72576,E,0.070,,120324,3.02,E,A*27

$GPRMC,085753.10,A,4548.67132,N,00837.72576,E,0.121,,120324,3.02,E,A*22

$GPRMC,085753.20,A,4548.67131,N,00837.72576,E,0.121,,120324,3.02,E,A*22

$GPRMC,085753.30,A,4548.67131,N,00837.72576,E,0.088,,120324,3.02,E,A*21

$GPRMC,085753.40,A,4548.67130,N,00837.72576,E,0.097,,120324,3.02,E,A*29

$GPRMC,085753.50,A,4548.67130,N,00837.72576,E,0.098,,120324,3.02,E,A*27

$GPRMC,085753.60,A,4548.67130,N,00837.72576,E,0.013,,120324,3.02,E,A*27

$GPGST,085753.60,28,4.3,2.6,2.8,1.7,1.0,1.4*72

$GPRMC,085753.70,A,4548.67128,N,00837.72576,E,0.122,,120324,3.02,E,A*2C

$GPRMC,085753.80,A,4548.67128,N,00837.72576,E,0.094,,120324,3.02,E,A*2F

$GPRMC,085753.90,A,4548.67127,N,00837.72576,E,0.059,,120324,3.02,E,A*20

$GPRMC,085754.00,A,4548.67126,N,00837.72575,E,0.105,,120324,3.02,E,A*24

$GPRMC,085754.10,A,4548.67124,N,00837.72574,E,0.164,,120324,3.02,E,A*21

$GPRMC,085754.20,A,4548.67123,N,00837.72572,E,0.167,,120324,3.02,E,A*20

$GPRMC,085754.30,A,4548.67121,N,00837.72572,E,0.184,,120324,3.02,E,A*2E

$GPRMC,085754.40,A,4548.67120,N,00837.72572,E,0.185,,120324,3.02,E,A*29

$GPRMC,085754.50,A,4548.67120,N,00837.72572,E,0.141,,120324,3.02,E,A*20

$GPRMC,085754.60,A,4548.67119,N,00837.72572,E,0.141,,120324,3.02,E,A*29

$GPGST,085754.60,28,4.3,2.5,2.1,1.7,1.0,1.4*7F

$GPRMC,085754.70,A,4548.67119,N,00837.72572,E,0.125,,120324,3.02,E,A*2A

$GPRMC,085754.80,A,4548.67116,N,00837.72572,E,0.201,,120324,3.02,E,A*2F

$GPRMC,085754.90,A,4548.67114,N,00837.72572,E,0.247,,120324,3.02,E,A*2E

$GPRMC,085755.00,A,4548.67113,N,00837.72572,E,0.207,,120324,3.02,E,A*25

$GPRMC,085755.10,A,4548.67112,N,00837.72572,E,0.170,,120324,3.02,E,A*26

$GPRMC,085755.20,A,4548.67111,N,00837.72571,E,0.164,,120324,3.02,E,A*20

$GPRMC,085755.30,A,4548.67109,N,00837.72570,E,0.203,,120324,3.02,E,A*2B

$GPRMC,085755.40,A,4548.67107,N,00837.72570,E,0.210,,120324,3.02,E,A*20

$GPRMC,085755.50,A,4548.67106,N,00837.72569,E,0.227,,120324,3.02,E,A*2C

$GPRMC,085755.60,A,4548.67103,N,00837.72569,E,0.178,,120324,3.02,E,A*23

$GPGST,085755.60,25,4.4,2.4,1.5,1.8,0.97,1.5*43

$GPRMC,085755.70,A,4548.67101,N,00837.72568,E,0.204,,120324,3.02,E,A*29

$GPRMC,085755.80,A,4548.67099,N,00837.72568,E,0.121,,120324,3.02,E,A*22

$GPRMC,085755.90,A,4548.67097,N,00837.72567,E,0.089,,120324,3.02,E,A*21

$GPRMC,085756.00,A,4548.67095,N,00837.72566,E,0.124,,120324,3.02,E,A*2E

$GPRMC,085756.10,A,4548.67092,N,00837.72564,E,0.154,,120324,3.02,E,A*2D

$GPRMC,085756.20,A,4548.67090,N,00837.72562,E,0.171,,120324,3.02,E,A*2D

$GPRMC,085756.30,A,4548.67088,N,00837.72561,E,0.096,,120324,3.02,E,A*2E

$GPRMC,085756.40,A,4548.67085,N,00837.72559,E,0.149,,120324,3.02,E,A*2C

$GPRMC,085756.50,A,4548.67083,N,00837.72558,E,0.122,,120324,3.02,E,A*27

$GPRMC,085756.60,A,4548.67080,N,00837.72557,E,0.178,,120324,3.02,E,A*27

$GPGST,085756.60,25,4.4,2.3,1.0,1.8,0.94,1.5*41

$GPRMC,085756.70,A,4548.67080,N,00837.72555,E,0.082,,120324,3.02,E,A*20

$GPRMC,085756.80,A,4548.67077,N,00837.72554,E,0.149,,120324,3.02,E,A*20

$GPRMC,085756.90,A,4548.67074,N,00837.72552,E,0.155,,120324,3.02,E,A*29

$GPRMC,085757.00,A,4548.67071,N,00837.72551,E,0.171,,120324,3.02,E,A*21

$GPRMC,085757.10,A,4548.67068,N,00837.72549,E,0.224,,120324,3.02,E,A*22

$GPRMC,085757.20,A,4548.67066,N,00837.72548,E,0.122,,120324,3.02,E,A*2B

$GPRMC,085757.30,A,4548.67065,N,00837.72547,E,0.133,,120324,3.02,E,A*26

$GPRMC,085757.40,A,4548.67063,N,00837.72546,E,0.123,,120324,3.02,E,A*27

$GPRMC,085757.50,A,4548.67062,N,00837.72544,E,0.104,,120324,3.02,E,A*20

$GPRMC,085757.60,A,4548.67061,N,00837.72543,E,0.094,,120324,3.02,E,A*2F

$GPGST,085757.60,25,4.4,2.3,0.63,1.8,0.91,1.5*71

$GPRMC,085757.70,A,4548.67060,N,00837.72542,E,0.078,,120324,3.02,E,A*2C

$GPRMC,085757.80,A,4548.67059,N,00837.72541,E,0.086,,120324,3.02,E,A*2B

$GPRMC,085757.90,A,4548.67058,N,00837.72539,E,0.072,,120324,3.02,E,A*2F

$GPRMC,085758.00,A,4548.67058,N,00837.72538,E,0.053,,120324,3.02,E,A*2B

$GPRMC,085758.10,A,4548.67057,N,00837.72537,E,0.099,,120324,3.02,E,A*2C

$GPRMC,085758.20,A,4548.67055,N,00837.72536,E,0.092,,120324,3.02,E,A*27

$GPTXT,01,01,01,NMEA unknown msg*58

$GPRMC,085758.30,A,4548.67054,N,00837.72535,E,0.043,,120324,3.02,E,A*28

$GPRMC,085758.40,A,4548.67053,N,00837.72534,E,0.054,,120324,3.02,E,A*2F

$GPRMC,085758.50,A,4548.67051,N,00837.72534,E,0.116,,120324,3.02,E,A*2B

$GPRMC,085758.60,A,4548.67049,N,00837.72534,E,0.135,,120324,3.02,E,A*20

$GPGST,085758.60,25,4.5,2.2,0.13,1.8,0.89,1.6*73

$GPRMC,085758.70,A,4548.67050,N,00837.72533,E,0.107,,120324,3.02,E,A*2F

$GPRMC,085758.80,A,4548.67048,N,00837.72532,E,0.134,,120324,3.02,E,A*28

$GPRMC,085758.90,A,4548.67047,N,00837.72532,E,0.148,,120324,3.02,E,A*2D

$GPRMC,085759.00,A,4548.67044,N,00837.72532,E,0.236,,120324,3.02,E,A*2C

$GPRMC,085759.10,A,4548.67044,N,00837.72532,E,0.185,,120324,3.02,E,A*26

$GPRMC,085759.20,A,4548.67043,N,00837.72531,E,0.136,,120324,3.02,E,A*29

$GPRMC,085759.30,A,4548.67043,N,00837.72530,E,0.109,,120324,3.02,E,A*25

$GPTXT,01,01,01,NMEA unknown msg*58

$GPRMC,085759.40,A,4548.67043,N,00837.72530,E,0.082,,120324,3.02,E,A*20

$GPRMC,085759.50,A,4548.67043,N,00837.72529,E,0.045,,120324,3.02,E,A*22

$GPRMC,085759.60,A,4548.67043,N,00837.72529,E,0.073,,120324,3.02,E,A*24

$GPGST,085759.60,26,4.5,2.2,180,1.8,0.87,1.6*5A

$GPTXT,01,01,01,NMEA unknown msg*58

$GPRMC,085759.70,A,4548.67042,N,00837.72528,E,0.086,,120324,3.02,E,A*2F

$GPRMC,085759.80,A,4548.67041,N,00837.72528,E,0.060,,120324,3.02,E,A*2B

$GPRMC,085759.90,A,4548.67040,N,00837.72527,E,0.101,,120324,3.02,E,A*22

$GPRMC,085800.00,A,4548.67038,N,00837.72526,E,0.083,,120324,3.02,E,A*2D

$GPRMC,085800.10,A,4548.67036,N,00837.72526,E,0.058,,120324,3.02,E,A*24

$GPRMC,085800.20,A,4548.67035,N,00837.72526,E,0.089,,120324,3.02,E,A*28

