$GPGGA,100234.00,4548.6589104,N,00837.7264574,E,4,13,2.24,212.101,M,48.401,M,,0000*54
$GPGGA,100234.10,4548.6589107,N,00837.7264575,E,4,13,2.24,212.101,M,48.401,M,,0001*56
$GPGGA,100234.20,4548.6589107,N,00837.7264576,E,4,13,2.24,212.101,M,48.401,M,,0002*55
$GPGGA,100234.30,4548.6589106,N,00837.7264577,E,4,13,2.24,212.100,M,48.401,M,,0003*54
$GPGGA,100234.40,4548.6589107,N,00837.7264576,E,4,13,2.24,212.100,M,48.401,M,,0004*54
$GPGGA,100234.50,4548.6589110,N,00837.7264577,E,4,13,2.24,212.100,M,48.401,M,,0005*53
$GPGGA,100234.60,4548.6589112,N,00837.7264575,E,4,13,2.24,212.100,M,48.401,M,,0006*53
$GPGGA,100234.70,4548.6589115,N,00837.7264575,E,4,13,2.24,212.100,M,48.401,M,,0007*54
$GPGGA,100234.80,4548.6589116,N,00837.7264574,E,4,13,2.24,212.100,M,48.401,M,,0008*56
$GPGGA,100234.90,4548.6589117,N,00837.7264574,E,4,13,2.24,212.100,M,48.401,M,,0009*57
$GPGGA,100235.00,4548.6589117,N,00837.7264573,E,4,13,2.24,212.100,M,48.401,M,,0010*50
$GPGGA,100235.10,4548.6589115,N,00837.7264573,E,4,13,2.24,212.100,M,48.401,M,,0011*52
$GPGGA,100235.20,4548.6589111,N,00837.7264571,E,4,13,2.24,212.100,M,48.401,M,,0012*54
$GPGGA,100235.30,4548.6589106,N,00837.7264571,E,4,13,2.24,212.100,M,48.401,M,,0013*52
$GPGGA,100235.40,4548.6589101,N,00837.7264570,E,4,13,2.24,212.100,M,48.401,M,,0014*54
$GPGGA,100235.50,4548.6589099,N,00837.7264572,E,4,13,2.24,212.100,M,48.401,M,,0015*56
$GPGGA,100235.60,4548.6589097,N,00837.7264572,E,4,13,2.24,212.100,M,48.401,M,,0016*58
$GPGGA,100235.70,4548.6589097,N,00837.7264574,E,4,13,2.24,212.100,M,48.401,M,,0017*5E
$GPGGA,100235.80,4548.6589097,N,00837.7264573,E,4,13,2.24,212.100,M,48.401,M,,0018*59
$GPGGA,100235.90,4548.6589097,N,00837.7264574,E,4,13,2.24,212.100,M,48.401,M,,0019*5E
$GPGGA,100236.00,4548.6589099,N,00837.7264575,E,4,13,2.24,212.100,M,48.401,M,,0020*51
$GPGGA,100236.10,4548.6589101,N,00837.7264576,E,4,13,2.24,212.100,M,48.401,M,,0021*52
$GPGGA,100236.20,4548.6589103,N,00837.7264575,E,4,13,2.24,212.100,M,48.401,M,,0022*53
$GPGGA,100236.30,4548.6589108,N,00837.7264575,E,4,13,2.24,212.100,M,48.401,M,,0023*58
$GPGGA,100236.40,4548.6589112,N,00837.7264575,E,4,13,2.24,212.100,M,48.401,M,,0024*53
$GPGGA,100236.50,4548.6589120,N,00837.7264575,E,4,13,2.24,212.100,M,48.401,M,,0025*52
$GPGGA,100236.60,4548.6589127,N,00837.7264576,E,4,13,2.24,212.100,M,48.401,M,,0026*56
$GPGGA,100236.70,4548.6589133,N,00837.7264576,E,4,13,2.24,212.100,M,48.401,M,,0027*53
$GPGGA,100236.80,4548.6589135,N,00837.7264578,E,4,13,2.24,212.100,M,48.401,M,,0028*5B
$GPGGA,100236.90,4548.6589133,N,00837.7264578,E,4,13,2.24,212.100,M,48.401,M,,0029*5D
$GPGGA,100237.00,4548.6589128,N,00837.7264579,E,4,13,2.24,212.100,M,48.401,M,,0030*56
$GPGGA,100237.10,4548.6589116,N,00837.7264579,E,4,13,2.24,212.100,M,48.401,M,,0031*5B
$GPGGA,100237.20,4548.6589102,N,00837.7264577,E,4,13,2.24,212.100,M,48.401,M,,0032*50
$GPGGA,100237.30,4548.6589091,N,00837.7264577,E,4,13,2.24,212.100,M,48.401,M,,0033*5B
$GPGGA,100237.40,4548.6589076,N,00837.7264574,E,4,13,2.24,212.100,M,48.401,M,,0034*51
$GPGGA,100237.50,4548.6589064,N,00837.7264574,E,4,13,2.24,212.100,M,48.401,M,,0035*52
$GPGGA,100237.60,4548.6589049,N,00837.7264573,E,4,13,2.24,212.100,M,48.401,M,,0036*5A
$GPGGA,100237.70,4548.6589037,N,00837.7264571,E,4,13,2.24,212.100,M,48.401,M,,0037*51
$GPGGA,100237.80,4548.6589032,N,00837.7264571,E,4,13,2.24,212.100,M,48.401,M,,0038*54
$GPGGA,100237.90,4548.6589033,N,00837.7264572,E,4,13,2.24,212.100,M,48.401,M,,0039*56
$GPGGA,100238.00,4548.6589041,N,00837.7264572,E,4,13,2.24,212.100,M,48.401,M,,0040*5B
$GPGGA,100238.10,4548.6589052,N,00837.7264573,E,4,13,2.24,212.100,M,48.401,M,,0041*58
$GPGGA,100238.20,4548.6589068,N,00837.7264576,E,4,13,2.24,212.100,M,48.401,M,,0042*54
$GPGGA,100238.30,4548.6589085,N,00837.7264578,E,4,13,2.24,212.100,M,48.401,M,,0043*59
$GPGGA,100238.40,4548.6589101,N,00837.7264578,E,4,13,2.24,212.100,M,48.401,M,,0044*54
$GPGGA,100238.50,4548.6589114,N,00837.7264579,E,4,13,2.24,212.100,M,48.401,M,,0045*51
$GPGGA,100238.60,4548.6589124,N,00837.7264579,E,4,13,2.24,212.100,M,48.401,M,,0046*52
$GPGGA,100238.70,4548.6589132,N,00837.7264579,E,4,13,2.24,212.100,M,48.401,M,,0047*55
$GPGGA,100238.80,4548.6589135,N,00837.7264579,E,4,13,2.24,212.099,M,48.401,M,,0048*53
$GPGGA,100238.90,4548.6589137,N,00837.7264580,E,4,13,2.24,212.099,M,48.401,M,,0049*57
$GPGGA,100239.00,4548.6589138,N,00837.7264580,E,4,13,2.24,212.099,M,48.401,M,,0050*58
$GPGGA,100239.10,4548.6589134,N,00837.7264579,E,4,13,2.24,212.099,M,48.401,M,,0051*52
$GPGGA,100239.20,4548.6589129,N,00837.7264579,E,4,13,2.24,212.099,M,48.401,M,,0052*5E
$GPGGA,100239.30,4548.6589121,N,00837.7264579,E,4,13,2.24,212.099,M,48.401,M,,0053*56
$GPGGA,100239.40,4548.6589113,N,00837.7264579,E,4,13,2.24,212.099,M,48.401,M,,0054*57
$GPGGA,100239.50,4548.6589106,N,00837.7264577,E,4,13,2.24,212.099,M,48.401,M,,0055*5D
$GPGGA,100239.60,4548.6589101,N,00837.7264576,E,4,13,2.24,212.099,M,48.401,M,,0056*5B
$GPGGA,100239.70,4548.6589098,N,00837.7264574,E,4,13,2.24,212.099,M,48.401,M,,0057*58
$GPGGA,100239.80,4548.6589098,N,00837.7264574,E,4,13,2.24,212.099,M,48.401,M,,0058*58
$GPGGA,100239.90,4548.6589099,N,00837.7264573,E,4,13,2.24,212.099,M,48.401,M,,0059*5E
$GPGGA,100240.00,4548.6589103,N,00837.7264573,E,4,13,2.24,212.099,M,48.401,M,,0060*51
$GPGGA,100240.10,4548.6589107,N,00837.7264573,E,4,13,2.24,212.099,M,48.401,M,,0061*55
$GPGGA,100240.20,4548.6589114,N,00837.7264573,E,4,13,2.24,212.099,M,48.401,M,,0062*57
$GPGGA,100240.30,4548.6589120,N,00837.7264575,E,4,13,2.24,212.099,M,48.401,M,,0063*56
$GPGGA,100240.40,4548.6589126,N,00837.7264575,E,4,13,2.25,212.099,M,48.401,M,,0064*51
$GPGGA,100240.50,4548.6589131,N,00837.7264576,E,4,13,2.25,212.099,M,48.401,M,,0065*54
$GPGGA,100240.60,4548.6589135,N,00837.7264576,E,4,13,2.25,212.099,M,48.401,M,,0066*50
$GPGGA,100240.70,4548.6589137,N,00837.7264576,E,4,13,2.25,212.099,M,48.401,M,,0067*52
$GPGGA,100240.80,4548.6589136,N,00837.7264575,E,4,13,2.25,212.099,M,48.401,M,,0068*50
$GPGGA,100240.90,4548.6589135,N,00837.7264575,E,4,13,2.25,212.099,M,48.401,M,,0069*53
$GPGGA,100241.00,4548.6589132,N,00837.7264575,E,4,13,2.25,212.099,M,48.401,M,,0070*54
$GPGGA,100241.10,4548.6589130,N,00837.7264575,E,4,13,2.25,212.099,M,48.401,M,,0071*56
$GPGGA,100241.20,4548.6589128,N,00837.7264574,E,4,13,2.25,212.099,M,48.401,M,,0072*5E
$GPGGA,100241.30,4548.6589126,N,00837.7264573,E,4,13,2.25,212.099,M,48.401,M,,0073*57
$GPGGA,100241.40,4548.6589124,N,00837.7264573,E,4,13,2.25,212.099,M,48.401,M,,0074*55
$GPGGA,100241.50,4548.6589122,N,00837.7264574,E,4,13,2.25,212.099,M,48.401,M,,0075*54
$GPGGA,100241.60,4548.6589121,N,00837.7264573,E,4,13,2.25,212.099,M,48.401,M,,0076*50
$GPGGA,100241.70,4548.6589119,N,00837.7264573,E,4,13,2.25,212.099,M,48.401,M,,0077*5B
$GPGGA,100241.80,4548.6589112,N,00837.7264571,E,4,13,2.25,212.099,M,48.401,M,,0078*52
$GPGGA,100241.90,4548.6589107,N,00837.7264570,E,4,13,2.25,212.099,M,48.401,M,,0079*57
$GPGGA,100242.00,4548.6589107,N,00837.7264569,E,4,13,2.25,212.099,M,48.401,M,,0080*53
$GPGGA,100242.10,4548.6589104,N,00837.7264568,E,4,13,2.25,212.099,M,48.401,M,,0081*51
$GPGGA,100242.20,4548.6589106,N,00837.7264567,E,4,13,2.25,212.099,M,48.401,M,,0082*5C
$GPGGA,100242.30,4548.6589110,N,00837.7264568,E,4,13,2.25,212.099,M,48.401,M,,0083*54
$GPGGA,100242.40,4548.6589110,N,00837.7264569,E,4,13,2.25,212.099,M,48.401,M,,0084*55
$GPGGA,100242.50,4548.6589113,N,00837.7264569,E,4,13,2.25,212.100,M,48.401,M,,0085*57
$GPGGA,100242.60,4548.6589116,N,00837.7264570,E,4,13,2.25,212.100,M,48.401,M,,0086*5A
$GPGGA,100242.70,4548.6589111,N,00837.7264569,E,4,13,2.25,212.100,M,48.401,M,,0087*55
$GPGGA,100242.80,4548.6589115,N,00837.7264571,E,4,13,2.25,212.100,M,48.401,M,,0088*58
$GPGGA,100242.90,4548.6589121,N,00837.7264572,E,4,13,2.25,212.101,M,48.401,M,,0089*5D
$GPGGA,100243.00,4548.6589126,N,00837.7264571,E,4,13,2.25,212.101,M,48.401,M,,0090*59
$GPGGA,100243.10,4548.6589128,N,00837.7264571,E,4,13,2.25,212.101,M,48.401,M,,0091*57
$GPGGA,100243.20,4548.6589122,N,00837.7264570,E,4,13,2.25,212.101,M,48.401,M,,0092*5C
$GPGGA,100243.30,4548.6589118,N,00837.7264571,E,4,13,2.25,212.101,M,48.401,M,,0093*54
$GPGGA,100243.40,4548.6589113,N,00837.7264570,E,4,13,2.25,212.102,M,48.401,M,,0094*5D
$GPGGA,100243.50,4548.6589115,N,00837.7264572,E,4,13,2.25,212.101,M,48.401,M,,0095*5A
$GPGGA,100243.60,4548.6589111,N,00837.7264571,E,4,13,2.25,212.102,M,48.401,M,,0096*5E
$GPGGA,100243.70,4548.6589107,N,00837.7264572,E,4,13,2.25,212.102,M,48.401,M,,0097*5A
$GPGGA,100243.80,4548.6589106,N,00837.7264571,E,4,13,2.25,212.102,M,48.401,M,,0098*58
$GPGGA,100243.90,4548.6589108,N,00837.7264571,E,4,13,2.25,212.102,M,48.401,M,,0099*56
$GPGGA,100244.00,4548.6589113,N,00837.7264571,E,4,13,2.25,212.103,M,48.401,M,,0100*52
$GPGGA,100244.10,4548.6589116,N,00837.7264573,E,4,13,2.25,212.103,M,48.401,M,,0101*55
$GPGGA,100244.20,4548.6589110,N,00837.7264571,E,4,13,2.25,212.103,M,48.401,M,,0102*51
$GPGGA,100244.30,4548.6589102,N,00837.7264571,E,4,13,2.25,212.104,M,48.401,M,,0103*55
$GPGGA,100244.40,4548.6589088,N,00837.7264571,E,4,13,2.25,212.104,M,48.401,M,,0104*56
$GPGGA,100244.50,4548.6589066,N,00837.7264572,E,4,13,2.25,212.104,M,48.401,M,,0105*55
$GPGGA,100244.60,4548.6589038,N,00837.7264572,E,4,13,2.25,212.104,M,48.401,M,,0106*5E
$GPGGA,100244.70,4548.6589009,N,00837.7264572,E,4,13,2.25,212.104,M,48.401,M,,0107*5C
$GPGGA,100244.80,4548.6588985,N,00837.7264574,E,4,13,2.25,212.104,M,48.401,M,,0108*56
$GPGGA,100244.90,4548.6588973,N,00837.7264575,E,4,13,2.25,212.104,M,48.401,M,,0109*5E
$GPGGA,100245.00,4548.6588974,N,00837.7264573,E,4,13,2.25,212.104,M,48.401,M,,0110*5F
$GPGGA,100245.10,4548.6588977,N,00837.7264572,E,4,13,2.25,212.104,M,48.401,M,,0111*5D
$GPGGA,100245.20,4548.6588984,N,00837.7264571,E,4,13,2.25,212.104,M,48.401,M,,0112*52
$GPGGA,100245.30,4548.6589005,N,00837.7264570,E,4,13,2.25,212.104,M,48.401,M,,0113*52
$GPGGA,100245.40,4548.6589034,N,00837.7264568,E,4,13,2.25,212.105,M,48.401,M,,0114*58
$GPGGA,100245.50,4548.6589066,N,00837.7264567,E,4,13,2.25,212.105,M,48.401,M,,0115*50
$GPGGA,100245.60,4548.6589091,N,00837.7264564,E,4,13,2.25,212.105,M,48.401,M,,0116*5B
$GPGGA,100245.70,4548.6589107,N,00837.7264562,E,4,13,2.25,212.105,M,48.401,M,,0117*53
$GPGGA,100245.80,4548.6589111,N,00837.7264563,E,4,13,2.25,212.105,M,48.401,M,,0118*55
$GPGGA,100245.90,4548.6589109,N,00837.7264561,E,4,13,2.25,212.105,M,48.401,M,,0119*5E
$GPGGA,100246.00,4548.6589113,N,00837.7264557,E,4,13,2.25,212.105,M,48.401,M,,0120*50
$GPGGA,100246.10,4548.6589125,N,00837.7264556,E,4,13,2.25,212.105,M,48.401,M,,0121*54
$GPGGA,100246.20,4548.6589142,N,00837.7264554,E,4,13,2.25,212.105,M,48.401,M,,0122*57
$GPGGA,100246.30,4548.6589166,N,00837.7264553,E,4,13,2.25,212.105,M,48.401,M,,0123*56
$GPGGA,100246.40,4548.6589196,N,00837.7264549,E,4,13,2.25,212.105,M,48.401,M,,0124*52
$GPGGA,100246.50,4548.6589228,N,00837.7264541,E,4,13,2.25,212.105,M,48.401,M,,0125*5C
$GPGGA,100246.60,4548.6589265,N,00837.7264533,E,4,13,2.25,212.105,M,48.401,M,,0126*50
$GPGGA,100246.70,4548.6589298,N,00837.7264528,E,4,13,2.25,212.105,M,48.401,M,,0127*58
$GPGGA,100246.80,4548.6589321,N,00837.7264525,E,4,13,2.25,212.105,M,48.401,M,,0128*56
$GPGGA,100246.90,4548.6589324,N,00837.7264526,E,4,13,2.25,212.105,M,48.401,M,,0129*50
$GPGGA,100247.00,4548.6589298,N,00837.7264528,E,4,13,2.25,212.105,M,48.401,M,,0130*58
$GPGGA,100247.10,4548.6589268,N,00837.7264533,E,4,13,2.25,212.104,M,48.401,M,,0131*5C
$GPGGA,100247.20,4548.6589228,N,00837.7264538,E,4,13,2.25,212.104,M,48.401,M,,0132*53
$GPGGA,100247.30,4548.6589194,N,00837.7264543,E,4,13,2.25,212.103,M,48.401,M,,0133*5C
$GPGGA,100247.40,4548.6589162,N,00837.7264545,E,4,13,2.25,212.103,M,48.401,M,,0134*53
$GPGGA,100247.50,4548.6589149,N,00837.7264548,E,4,13,2.25,212.102,M,48.401,M,,0135*56
$GPGGA,100247.60,4548.6589142,N,00837.7264550,E,4,13,2.25,212.102,M,48.401,M,,0136*54
$GPGGA,100247.70,4548.6589144,N,00837.7264551,E,4,13,2.25,212.102,M,48.401,M,,0137*53
$GPGGA,100247.80,4548.6589138,N,00837.7264549,E,4,13,2.25,212.102,M,48.401,M,,0138*51
$GPGGA,100247.90,4548.6589133,N,00837.7264548,E,4,13,2.25,212.101,M,48.401,M,,0139*58
$GPGGA,100248.00,4548.6589120,N,00837.7264547,E,4,13,2.25,212.101,M,48.401,M,,0140*5D
$GPGGA,100248.10,4548.6589105,N,00837.7264547,E,4,13,2.25,212.101,M,48.401,M,,0141*5A
$GPGGA,100248.20,4548.6589089,N,00837.7264546,E,4,13,2.25,212.101,M,48.401,M,,0142*5E
$GPGGA,100248.30,4548.6589078,N,00837.7264547,E,4,13,2.25,212.100,M,48.401,M,,0143*50
$GPGGA,100248.40,4548.6589075,N,00837.7264547,E,4,13,2.25,212.100,M,48.401,M,,0144*5D
$GPGGA,100248.50,4548.6589074,N,00837.7264547,E,4,13,2.25,212.100,M,48.401,M,,0145*5C
$GPGGA,100248.60,4548.6589078,N,00837.7264547,E,4,13,2.25,212.100,M,48.401,M,,0146*50
$GPGGA,100248.70,4548.6589092,N,00837.7264548,E,4,13,2.25,212.100,M,48.401,M,,0147*5B
$GPGGA,100248.80,4548.6589117,N,00837.7264551,E,4,13,2.25,212.100,M,48.401,M,,0148*5F
$GPGGA,100248.90,4548.6589133,N,00837.7264551,E,4,13,2.25,212.100,M,48.401,M,,0149*59
$GPGGA,100249.00,4548.6589135,N,00837.7264550,E,4,13,2.25,212.099,M,48.401,M,,0150*5F
$GPGGA,100249.10,4548.6589124,N,00837.7264551,E,4,13,2.25,212.099,M,48.401,M,,0151*5E
$GPGGA,100249.20,4548.6589116,N,00837.7264551,E,4,13,2.25,212.099,M,48.401,M,,0152*5F
$GPGGA,100249.30,4548.6589113,N,00837.7264551,E,4,13,2.25,212.099,M,48.401,M,,0153*5A
$GPGGA,100249.40,4548.6589119,N,00837.7264551,E,4,13,2.25,212.099,M,48.401,M,,0154*50
$GPGGA,100249.50,4548.6589127,N,00837.7264551,E,4,13,2.25,212.098,M,48.401,M,,0155*5C
$GPGGA,100249.60,4548.6589131,N,00837.7264550,E,4,13,2.25,212.098,M,48.401,M,,0156*5A
$GPGGA,100249.70,4548.6589130,N,00837.7264550,E,4,13,2.25,212.098,M,48.401,M,,0157*5B
$GPGGA,100249.80,4548.6589130,N,00837.7264548,E,4,13,2.25,212.098,M,48.401,M,,0158*52
$GPGGA,100249.90,4548.6589131,N,00837.7264547,E,4,13,2.25,212.098,M,48.401,M,,0159*5C
$GPGGA,100250.00,4548.6589130,N,00837.7264547,E,4,13,2.25,212.098,M,48.401,M,,0160*56
$GPGGA,100250.10,4548.6589131,N,00837.7264546,E,4,13,2.25,212.098,M,48.401,M,,0161*56
$GPGGA,100250.20,4548.6589135,N,00837.7264545,E,4,13,2.25,212.098,M,48.401,M,,0162*51
$GPGGA,100250.30,4548.6589142,N,00837.7264546,E,4,13,2.25,212.098,M,48.401,M,,0163*52
$GPGGA,100250.40,4548.6589148,N,00837.7264547,E,4,13,2.25,212.098,M,48.401,M,,0164*59
$GPGGA,100250.50,4548.6589149,N,00837.7264547,E,4,13,2.25,212.098,M,48.401,M,,0165*58
$GPGGA,100250.60,4548.6589149,N,00837.7264547,E,4,13,2.25,212.098,M,48.401,M,,0166*58
$GPGGA,100250.70,4548.6589145,N,00837.7264548,E,4,13,2.25,212.098,M,48.401,M,,0167*5B
$GPGGA,100250.80,4548.6589139,N,00837.7264549,E,4,13,2.25,212.098,M,48.401,M,,0168*51
$GPGGA,100250.90,4548.6589136,N,00837.7264548,E,4,13,2.25,212.098,M,48.401,M,,0169*5F
$GPGGA,100251.00,4548.6589132,N,00837.7264547,E,4,13,2.25,212.098,M,48.401,M,,0170*54
$GPGGA,100251.10,4548.6589127,N,00837.7264546,E,4,13,2.25,212.098,M,48.401,M,,0171*51
$GPGGA,100251.20,4548.6589119,N,00837.7264545,E,4,13,2.25,212.098,M,48.401,M,,0172*5F
$GPGGA,100251.30,4548.6589109,N,00837.7264544,E,4,13,2.25,212.099,M,48.401,M,,0173*5E
$GPGGA,100251.40,4548.6589100,N,00837.7264544,E,4,13,2.25,212.099,M,48.401,M,,0174*57
$GPGGA,100251.50,4548.6589092,N,00837.7264545,E,4,13,2.25,212.098,M,48.401,M,,0175*5D
$GPGGA,100251.60,4548.6589085,N,00837.7264544,E,4,13,2.25,212.098,M,48.401,M,,0176*5A
$GPGGA,100251.70,4548.6589080,N,00837.7264544,E,4,13,2.25,212.098,M,48.401,M,,0177*5F
$GPGGA,100251.80,4548.6589076,N,00837.7264547,E,4,13,2.25,212.098,M,48.401,M,,0178*55
$GPGGA,100251.90,4548.6589074,N,00837.7264548,E,4,13,2.25,212.098,M,48.401,M,,0179*58
$GPGGA,100252.00,4548.6589074,N,00837.7264548,E,4,13,2.25,212.098,M,48.401,M,,0180*54
$GPGGA,100252.10,4548.6589077,N,00837.7264549,E,4,13,2.25,212.098,M,48.401,M,,0181*56
$GPGGA,100252.20,4548.6589083,N,00837.7264550,E,4,13,2.25,212.098,M,48.401,M,,0182*55
$GPGGA,100252.30,4548.6589093,N,00837.7264549,E,4,13,2.25,212.098,M,48.401,M,,0183*5C
$GPGGA,100252.40,4548.6589103,N,00837.7264549,E,4,13,2.25,212.097,M,48.401,M,,0184*5B
$GPGGA,100252.50,4548.6589111,N,00837.7264548,E,4,13,2.25,212.097,M,48.401,M,,0185*59
$GPGGA,100252.60,4548.6589115,N,00837.7264547,E,4,13,2.25,212.097,M,48.401,M,,0186*52
$GPGGA,100252.70,4548.6589115,N,00837.7264548,E,4,13,2.25,212.097,M,48.401,M,,0187*5D
$GPGGA,100252.80,4548.6589112,N,00837.7264549,E,4,13,2.25,212.097,M,48.401,M,,0188*5B
$GPGGA,100252.90,4548.6589105,N,00837.7264551,E,4,13,2.25,212.096,M,48.401,M,,0189*55
$GPGGA,100253.00,4548.6589101,N,00837.7264552,E,4,13,2.25,212.096,M,48.401,M,,0190*52
$GPGGA,100253.10,4548.6589099,N,00837.7264553,E,4,13,2.25,212.096,M,48.401,M,,0191*53
$GPGGA,100253.20,4548.6589101,N,00837.7264555,E,4,13,2.25,212.096,M,48.401,M,,0192*55
$GPGGA,100253.30,4548.6589104,N,00837.7264555,E,4,13,2.25,212.096,M,48.401,M,,0193*50
$GPGGA,100253.40,4548.6589110,N,00837.7264557,E,4,13,2.25,212.096,M,48.401,M,,0194*57
$GPGGA,100253.50,4548.6589116,N,00837.7264558,E,4,13,2.25,212.095,M,48.401,M,,0195*5D
$GPGGA,100253.60,4548.6589115,N,00837.7264559,E,4,13,2.25,212.095,M,48.401,M,,0196*5F
$GPGGA,100253.70,4548.6589115,N,00837.7264559,E,4,13,2.25,212.095,M,48.401,M,,0197*5F
$GPGGA,100253.80,4548.6589115,N,00837.7264560,E,4,13,2.25,212.095,M,48.401,M,,0198*55
$GPGGA,100253.90,4548.6589115,N,00837.7264560,E,4,13,2.25,212.095,M,48.401,M,,0199*55
$GPGGA,100254.00,4548.6589114,N,00837.7264560,E,4,13,2.25,212.095,M,48.401,M,,0200*59
$GPGGA,100254.10,4548.6589116,N,00837.7264560,E,4,13,2.25,212.095,M,48.401,M,,0201*5B
$GPGGA,100254.20,4548.6589118,N,00837.7264561,E,4,13,2.25,212.094,M,48.401,M,,0202*55
$GPGGA,100254.30,4548.6589119,N,00837.7264562,E,4,13,2.25,212.094,M,48.401,M,,0203*57
$GPGGA,100254.40,4548.6589118,N,00837.7264563,E,4,13,2.25,212.094,M,48.401,M,,0204*57
$GPGGA,100254.50,4548.6589117,N,00837.7264563,E,4,13,2.25,212.094,M,48.401,M,,0205*58
$GPGGA,100254.60,4548.6589115,N,00837.7264564,E,4,13,2.25,212.094,M,48.401,M,,0206*5D
$GPGGA,100254.70,4548.6589115,N,00837.7264563,E,4,13,2.25,212.095,M,48.401,M,,0207*5B
$GPGGA,100254.80,4548.6589114,N,00837.7264563,E,4,13,2.25,212.095,M,48.401,M,,0208*5A
$GPGGA,100254.90,4548.6589116,N,00837.7264564,E,4,13,2.25,212.095,M,48.401,M,,0209*5F
$GPGGA,100255.00,4548.6589119,N,00837.7264564,E,4,13,2.25,212.095,M,48.401,M,,0210*50
$GPGGA,100255.10,4548.6589124,N,00837.7264564,E,4,13,2.25,212.095,M,48.401,M,,0211*5E
$GPGGA,100255.20,4548.6589127,N,00837.7264565,E,4,13,2.25,212.095,M,48.401,M,,0212*5C
$GPGGA,100255.30,4548.6589128,N,00837.7264566,E,4,13,2.25,212.095,M,48.401,M,,0213*50
$GPGGA,100255.40,4548.6589130,N,00837.7264566,E,4,13,2.25,212.095,M,48.401,M,,0214*59
$GPGGA,100255.50,4548.6589132,N,00837.7264566,E,4,13,2.25,212.095,M,48.401,M,,0215*5B
$GPGGA,100255.60,4548.6589132,N,00837.7264567,E,4,13,2.25,212.096,M,48.401,M,,0216*59
$GPGGA,100255.70,4548.6589132,N,00837.7264568,E,4,13,2.25,212.096,M,48.401,M,,0217*56
$GPGGA,100255.80,4548.6589131,N,00837.7264568,E,4,13,2.25,212.096,M,48.401,M,,0218*55
$GPGGA,100255.90,4548.6589133,N,00837.7264568,E,4,13,2.25,212.096,M,48.401,M,,0219*57
$GPGGA,100256.00,4548.6589133,N,00837.7264567,E,4,13,2.25,212.096,M,48.401,M,,0220*58
$GPGGA,100256.10,4548.6589135,N,00837.7264566,E,4,13,2.25,212.096,M,48.401,M,,0221*5F
$GPGGA,100256.20,4548.6589140,N,00837.7264565,E,4,13,2.25,212.096,M,48.401,M,,0222*5E
$GPGGA,100256.30,4548.6589144,N,00837.7264566,E,4,13,2.25,212.097,M,48.401,M,,0223*58
$GPGGA,100256.40,4548.6589140,N,00837.7264565,E,4,13,2.25,212.096,M,48.401,M,,0224*5E
$GPGGA,100256.50,4548.6589139,N,00837.7264567,E,4,13,2.25,212.097,M,48.401,M,,0225*53
$GPGGA,100256.60,4548.6589135,N,00837.7264567,E,4,13,2.25,212.097,M,48.401,M,,0226*5F
$GPGGA,100256.70,4548.6589129,N,00837.7264568,E,4,13,2.25,212.097,M,48.401,M,,0227*5D
$GPGGA,100256.80,4548.6589128,N,00837.7264568,E,4,13,2.25,212.097,M,48.401,M,,0228*5C
$GPGGA,100256.90,4548.6589131,N,00837.7264569,E,4,13,2.25,212.098,M,48.401,M,,0229*5A
$GPGGA,100257.00,4548.6589132,N,00837.7264570,E,4,13,2.25,212.098,M,48.401,M,,0230*51
$GPGGA,100257.10,4548.6589127,N,00837.7264573,E,4,13,2.25,212.098,M,48.401,M,,0231*56
$GPGGA,100257.20,4548.6589119,N,00837.7264574,E,4,13,2.25,212.098,M,48.401,M,,0232*5C
$GPGGA,100257.30,4548.6589114,N,00837.7264576,E,4,13,2.25,212.099,M,48.401,M,,0233*52
$GPGGA,100257.40,4548.6589115,N,00837.7264581,E,4,13,2.25,212.099,M,48.401,M,,0234*5B
$GPGGA,100257.50,4548.6589118,N,00837.7264586,E,4,13,2.25,212.099,M,48.401,M,,0235*51
$GPGGA,100257.60,4548.6589118,N,00837.7264591,E,4,13,2.25,212.100,M,48.401,M,,0236*56
$GPGGA,100257.70,4548.6589114,N,00837.7264596,E,4,13,2.25,212.100,M,48.401,M,,0237*5D
$GPGGA,100257.80,4548.6589112,N,00837.7264601,E,4,13,2.25,212.100,M,48.401,M,,0238*56
$GPGGA,100257.90,4548.6589115,N,00837.7264604,E,4,13,2.25,212.100,M,48.401,M,,0239*54
$GPGGA,100258.00,4548.6589117,N,00837.7264605,E,4,13,2.25,212.101,M,48.401,M,,0240*5E
$GPGGA,100258.10,4548.6589118,N,00837.7264605,E,4,13,2.25,212.101,M,48.401,M,,0241*51
$GPGGA,100258.20,4548.6589124,N,00837.7264605,E,4,13,2.25,212.101,M,48.401,M,,0242*5E
$GPGGA,100258.30,4548.6589131,N,00837.7264605,E,4,13,2.25,212.101,M,48.401,M,,0243*5A
$GPGGA,100258.40,4548.6589138,N,00837.7264606,E,4,13,2.25,212.101,M,48.401,M,,0244*50
$GPGGA,100258.50,4548.6589146,N,00837.7264610,E,4,13,2.25,212.102,M,48.401,M,,0245*5D
$GPGGA,100258.60,4548.6589149,N,00837.7264615,E,4,13,2.25,212.102,M,48.401,M,,0246*57
$GPGGA,100258.70,4548.6589148,N,00837.7264622,E,4,13,2.25,212.102,M,48.401,M,,0247*52
$GPGGA,100258.80,4548.6589138,N,00837.7264628,E,4,13,2.25,212.102,M,48.401,M,,0248*5F
$GPGGA,100258.90,4548.6589124,N,00837.7264630,E,4,13,2.25,212.102,M,48.401,M,,0249*5B
$GPGGA,100259.00,4548.6589113,N,00837.7264628,E,4,13,2.25,212.103,M,48.401,M,,0250*57
$GPGGA,100259.10,4548.6589112,N,00837.7264628,E,4,13,2.25,212.103,M,48.401,M,,0251*56
$GPGGA,100259.20,4548.6589120,N,00837.7264630,E,4,13,2.25,212.103,M,48.401,M,,0252*5E
$GPGGA,100259.30,4548.6589125,N,00837.7264631,E,4,13,2.25,212.103,M,48.401,M,,0253*5A
$GPGGA,100259.40,4548.6589130,N,00837.7264631,E,4,13,2.25,212.103,M,48.401,M,,0254*5E
$GPGGA,100259.50,4548.6589138,N,00837.7264630,E,4,13,2.25,212.103,M,48.401,M,,0255*57
$GPGGA,100259.60,4548.6589142,N,00837.7264630,E,4,13,2.25,212.103,M,48.401,M,,0256*5A
$GPGGA,100259.70,4548.6589144,N,00837.7264631,E,4,13,2.25,212.104,M,48.401,M,,0257*5A
$GPGGA,100259.80,4548.6589143,N,00837.7264631,E,4,13,2.25,212.104,M,48.401,M,,0258*5D
$GPGGA,100259.90,4548.6589133,N,00837.7264631,E,4,13,2.25,212.104,M,48.401,M,,0259*5A
$GPGGA,100300.00,4548.6589124,N,00837.7264631,E,4,13,2.25,212.103,M,48.401,M,,0260*55
$GPGGA,100300.10,4548.6589118,N,00837.7264632,E,4,13,2.25,212.103,M,48.401,M,,0261*59
$GPGGA,100300.20,4548.6589116,N,00837.7264632,E,4,13,2.25,212.104,M,48.401,M,,0262*50
$GPGGA,100300.30,4548.6589116,N,00837.7264632,E,4,13,2.25,212.104,M,48.401,M,,0263*50
$GPGGA,100300.40,4548.6589115,N,00837.7264632,E,4,13,2.25,212.104,M,48.401,M,,0264*53
$GPGGA,100300.50,4548.6589114,N,00837.7264631,E,4,13,2.25,212.104,M,48.401,M,,0265*51
$GPGGA,100300.60,4548.6589116,N,00837.7264632,E,4,13,2.25,212.104,M,48.401,M,,0266*50
$GPGGA,100300.70,4548.6589115,N,00837.7264633,E,4,13,2.25,212.104,M,48.401,M,,0267*52
$GPGGA,100300.80,4548.6589112,N,00837.7264634,E,4,13,2.25,212.104,M,48.401,M,,0268*52
$GPGGA,100300.90,4548.6589113,N,00837.7264635,E,4,13,2.25,212.104,M,48.401,M,,0269*52
$GPGGA,100301.00,4548.6589117,N,00837.7264636,E,4,13,2.25,212.104,M,48.401,M,,0270*55
$GPGGA,100301.10,4548.6589119,N,00837.7264636,E,4,13,2.25,212.104,M,48.401,M,,0271*5B
$GPGGA,100301.20,4548.6589124,N,00837.7264635,E,4,13,2.25,212.104,M,48.401,M,,0272*56
$GPGGA,100301.30,4548.6589128,N,00837.7264633,E,4,13,2.25,212.104,M,48.401,M,,0273*5C
$GPGGA,100301.40,4548.6589128,N,00837.7264632,E,4,13,2.25,212.104,M,48.401,M,,0274*5D
$GPGGA,100301.50,4548.6589127,N,00837.7264631,E,4,13,2.25,212.104,M,48.401,M,,0275*51
$GPGGA,100301.60,4548.6589127,N,00837.7264632,E,4,13,2.25,212.104,M,48.401,M,,0276*52
$GPGGA,100301.70,4548.6589124,N,00837.7264632,E,4,13,2.25,212.104,M,48.401,M,,0277*51
$GPGGA,100301.80,4548.6589125,N,00837.7264631,E,4,13,2.25,212.104,M,48.401,M,,0278*53
$GPGGA,100301.90,4548.6589127,N,00837.7264632,E,4,13,2.25,212.104,M,48.401,M,,0279*52
$GPGGA,100302.00,4548.6589128,N,00837.7264633,E,4,13,2.25,212.103,M,48.401,M,,0280*57
$GPGGA,100302.10,4548.6589127,N,00837.7264634,E,4,13,2.25,212.103,M,48.401,M,,0281*5F
$GPGGA,100302.20,4548.6589125,N,00837.7264637,E,4,13,2.25,212.103,M,48.401,M,,0282*5E
$GPGGA,100302.30,4548.6589122,N,00837.7264640,E,4,13,2.25,212.103,M,48.401,M,,0283*59
$GPGGA,100302.40,4548.6589123,N,00837.7264640,E,4,13,2.25,212.103,M,48.401,M,,0284*58
$GPGGA,100302.50,4548.6589122,N,00837.7264643,E,4,13,2.25,212.103,M,48.401,M,,0285*5A
$GPGGA,100302.60,4548.6589121,N,00837.7264645,E,4,13,2.25,212.103,M,48.401,M,,0286*5F
$GPGGA,100302.70,4548.6589121,N,00837.7264646,E,4,13,2.25,212.103,M,48.401,M,,0287*5C
$GPGGA,100302.80,4548.6589122,N,00837.7264647,E,4,13,2.25,212.103,M,48.401,M,,0288*5E
$GPGGA,100302.90,4548.6589125,N,00837.7264649,E,4,13,2.25,212.103,M,48.401,M,,0289*57
$GPGGA,100303.00,4548.6589130,N,00837.7264651,E,4,13,2.25,212.103,M,48.401,M,,0290*5A
$GPGGA,100303.10,4548.6589133,N,00837.7264653,E,4,13,2.25,212.103,M,48.401,M,,0291*5B
$GPGGA,100303.20,4548.6589131,N,00837.7264655,E,4,13,2.25,212.104,M,48.401,M,,0292*58
$GPGGA,100303.30,4548.6589128,N,00837.7264656,E,4,13,2.25,212.104,M,48.401,M,,0293*53
$GPGGA,100303.40,4548.6589127,N,00837.7264655,E,4,13,2.25,212.104,M,48.401,M,,0294*5F
$GPGGA,100303.50,4548.6589124,N,00837.7264656,E,4,13,2.25,212.104,M,48.401,M,,0295*5F
$GPGGA,100303.60,4548.6589120,N,00837.7264656,E,4,13,2.25,212.104,M,48.401,M,,0296*5B
$GPGGA,100303.70,4548.6589114,N,00837.7264655,E,4,13,2.25,212.104,M,48.401,M,,0297*5F
$GPGGA,100303.80,4548.6589108,N,00837.7264654,E,4,13,2.25,212.104,M,48.401,M,,0298*53
$GPGGA,100303.90,4548.6589102,N,00837.7264654,E,4,13,2.25,212.104,M,48.401,M,,0299*59
$GPGGA,100304.00,4548.6589100,N,00837.7264654,E,4,13,2.25,212.104,M,48.401,M,,0300*54
$GPGGA,100304.10,4548.6589100,N,00837.7264653,E,4,13,2.25,212.104,M,48.401,M,,0301*53
$GPGGA,100304.20,4548.6589101,N,00837.7264652,E,4,13,2.25,212.104,M,48.401,M,,0302*53
$GPGGA,100304.30,4548.6589104,N,00837.7264652,E,4,13,2.25,212.104,M,48.401,M,,0303*56
$GPGGA,100304.40,4548.6589110,N,00837.7264652,E,4,13,2.25,212.104,M,48.401,M,,0304*53
$GPGGA,100304.50,4548.6589116,N,00837.7264652,E,4,13,2.25,212.104,M,48.401,M,,0305*55
$GPGGA,100304.60,4548.6589122,N,00837.7264652,E,4,13,2.25,212.104,M,48.401,M,,0306*52
$GPGGA,100304.70,4548.6589126,N,00837.7264650,E,4,13,2.25,212.104,M,48.401,M,,0307*54
$GPGGA,100304.80,4548.6589131,N,00837.7264649,E,4,13,2.25,212.105,M,48.401,M,,0308*5B
$GPGGA,100304.90,4548.6589134,N,00837.7264648,E,4,13,2.25,212.105,M,48.401,M,,0309*5F
$GPGGA,100305.00,4548.6589135,N,00837.7264648,E,4,13,2.25,212.105,M,48.401,M,,0310*5E
$GPGGA,100305.10,4548.6589130,N,00837.7264647,E,4,13,2.25,212.105,M,48.401,M,,0311*54
$GPGGA,100305.20,4548.6589124,N,00837.7264647,E,4,13,2.25,212.105,M,48.401,M,,0312*51
$GPGGA,100305.30,4548.6589120,N,00837.7264648,E,4,13,2.25,212.105,M,48.401,M,,0313*5A
$GPGGA,100305.40,4548.6589117,N,00837.7264649,E,4,13,2.25,212.106,M,48.401,M,,0314*5C
$GPGGA,100305.50,4548.6589115,N,00837.7264650,E,4,13,2.25,212.106,M,48.401,M,,0315*56
$GPGGA,100305.60,4548.6589113,N,00837.7264651,E,4,13,2.25,212.106,M,48.401,M,,0316*51
$GPGGA,100305.70,4548.6589112,N,00837.7264651,E,4,13,2.25,212.106,M,48.401,M,,0317*50
$GPGGA,100305.80,4548.6589112,N,00837.7264650,E,4,13,2.25,212.107,M,48.401,M,,0318*50
$GPGGA,100305.90,4548.6589114,N,00837.7264649,E,4,13,2.25,212.107,M,48.401,M,,0319*5E
$GPGGA,100306.00,4548.6589115,N,00837.7264649,E,4,13,2.25,212.107,M,48.401,M,,0320*5F
$GPGGA,100306.10,4548.6589113,N,00837.7264648,E,4,13,2.25,212.107,M,48.401,M,,0321*58
$GPGGA,100306.20,4548.6589114,N,00837.7264646,E,4,13,2.25,212.108,M,48.401,M,,0322*5E
$GPGGA,100306.30,4548.6589110,N,00837.7264646,E,4,13,2.25,212.108,M,48.401,M,,0323*5A
$GPGGA,100306.40,4548.6589106,N,00837.7264646,E,4,13,2.25,212.108,M,48.401,M,,0324*5D
$GPGGA,100306.50,4548.6589101,N,00837.7264646,E,4,13,2.25,212.108,M,48.401,M,,0325*5A
$GPGGA,100306.60,4548.6589101,N,00837.7264645,E,4,13,2.25,212.108,M,48.401,M,,0326*59
$GPGGA,100306.70,4548.6589102,N,00837.7264646,E,4,13,2.25,212.108,M,48.401,M,,0327*59
$GPGGA,100306.80,4548.6589102,N,00837.7264644,E,4,13,2.25,212.108,M,48.401,M,,0328*5B
$GPGGA,100306.90,4548.6589104,N,00837.7264643,E,4,13,2.25,212.108,M,48.401,M,,0329*5A
$GPGGA,100307.00,4548.6589111,N,00837.7264645,E,4,13,2.25,212.109,M,48.401,M,,0330*59
$GPGGA,100307.10,4548.6589117,N,00837.7264645,E,4,13,2.25,212.109,M,48.401,M,,0331*5F
$GPGGA,100307.20,4548.6589121,N,00837.7264645,E,4,13,2.25,212.109,M,48.401,M,,0332*5A
$GPGGA,100307.30,4548.6589123,N,00837.7264644,E,4,13,2.25,212.109,M,48.401,M,,0333*59
$GPGGA,100307.40,4548.6589121,N,00837.7264645,E,4,13,2.25,212.109,M,48.401,M,,0334*5A
$GPGGA,100307.50,4548.6589121,N,00837.7264644,E,4,13,2.25,212.109,M,48.401,M,,0335*5B
$GPGGA,100307.60,4548.6589123,N,00837.7264645,E,4,13,2.25,212.109,M,48.401,M,,0336*58
$GPGGA,100307.70,4548.6589126,N,00837.7264647,E,4,13,2.25,212.109,M,48.401,M,,0337*5F
$GPGGA,100307.80,4548.6589126,N,00837.7264648,E,4,13,2.25,212.109,M,48.401,M,,0338*50
$GPGGA,100307.90,4548.6589126,N,00837.7264648,E,4,13,2.25,212.109,M,48.401,M,,0339*50
$GPGGA,100308.00,4548.6589127,N,00837.7264648,E,4,13,2.25,212.109,M,48.401,M,,0340*59
$GPGGA,100308.10,4548.6589126,N,00837.7264649,E,4,13,2.25,212.109,M,48.401,M,,0341*59
$GPGGA,100308.20,4548.6589124,N,00837.7264648,E,4,13,2.25,212.109,M,48.401,M,,0342*5A
$GPGGA,100308.30,4548.6589121,N,00837.7264647,E,4,13,2.25,212.109,M,48.401,M,,0343*50
$GPGGA,100308.40,4548.6589120,N,00837.7264647,E,4,13,2.25,212.109,M,48.401,M,,0344*51
$GPGGA,100308.50,4548.6589120,N,00837.7264647,E,4,13,2.25,212.109,M,48.401,M,,0345*51
$GPGGA,100308.60,4548.6589119,N,00837.7264647,E,4,13,2.25,212.109,M,48.401,M,,0346*5B
$GPGGA,100308.70,4548.6589119,N,00837.7264647,E,4,13,2.25,212.109,M,48.401,M,,0347*5B
$GPGGA,100308.80,4548.6589117,N,00837.7264648,E,4,13,2.25,212.109,M,48.401,M,,0348*5A
$GPGGA,100308.90,4548.6589114,N,00837.7264650,E,4,13,2.25,212.109,M,48.401,M,,0349*50
$GPGGA,100309.00,4548.6589111,N,00837.7264650,E,4,13,2.25,212.109,M,48.401,M,,0350*55
$GPGGA,100309.10,4548.6589109,N,00837.7264650,E,4,13,2.25,212.109,M,48.401,M,,0351*5C
$GPGGA,100309.20,4548.6589106,N,00837.7264652,E,4,13,2.25,212.109,M,48.401,M,,0352*51
$GPGGA,100309.30,4548.6589103,N,00837.7264652,E,4,13,2.25,212.109,M,48.401,M,,0353*54
$GPGGA,100309.40,4548.6589097,N,00837.7264652,E,4,13,2.25,212.109,M,48.401,M,,0354*58
$GPGGA,100309.50,4548.6589090,N,00837.7264653,E,4,13,2.25,212.109,M,48.401,M,,0355*5E
$GPGGA,100309.60,4548.6589086,N,00837.7264653,E,4,13,2.25,212.109,M,48.401,M,,0356*59
$GPGGA,100309.70,4548.6589084,N,00837.7264653,E,4,13,2.25,212.109,M,48.401,M,,0357*5B
$GPGGA,100309.80,4548.6589087,N,00837.7264650,E,4,13,2.25,212.109,M,48.401,M,,0358*5B
$GPGGA,100309.90,4548.6589095,N,00837.7264651,E,4,13,2.25,212.109,M,48.401,M,,0359*59
$GPGGA,100310.00,4548.6589104,N,00837.7264653,E,4,13,2.25,212.109,M,48.401,M,,0360*59
$GPGGA,100310.10,4548.6589109,N,00837.7264656,E,4,13,2.25,212.109,M,48.401,M,,0361*51
$GPGGA,100310.20,4548.6589117,N,00837.7264660,E,4,13,2.25,212.109,M,48.401,M,,0362*5B
$GPGGA,100310.30,4548.6589123,N,00837.7264663,E,4,13,2.25,212.109,M,48.401,M,,0363*5F
$GPGGA,100310.40,4548.6589126,N,00837.7264666,E,4,13,2.25,212.109,M,48.401,M,,0364*5F
$GPGGA,100310.50,4548.6589126,N,00837.7264667,E,4,13,2.25,212.109,M,48.401,M,,0365*5E
$GPGGA,100310.60,4548.6589129,N,00837.7264666,E,4,13,2.25,212.109,M,48.401,M,,0366*50
$GPGGA,100310.70,4548.6589132,N,00837.7264665,E,4,13,2.25,212.109,M,48.401,M,,0367*59
$GPGGA,100310.80,4548.6589128,N,00837.7264664,E,4,13,2.25,212.109,M,48.401,M,,0368*53
$GPGGA,100310.90,4548.6589124,N,00837.7264664,E,4,13,2.25,212.109,M,48.401,M,,0369*5F
$GPGGA,100311.00,4548.6589122,N,00837.7264664,E,4,13,2.25,212.109,M,48.401,M,,0370*59
$GPGGA,100311.10,4548.6589123,N,00837.7264664,E,4,13,2.25,212.109,M,48.401,M,,0371*58
$GPGGA,100311.20,4548.6589120,N,00837.7264666,E,4,13,2.25,212.109,M,48.401,M,,0372*59
$GPGGA,100311.30,4548.6589116,N,00837.7264667,E,4,13,2.25,212.108,M,48.401,M,,0373*5C
$GPGGA,100311.40,4548.6589114,N,00837.7264668,E,4,13,2.25,212.109,M,48.401,M,,0374*50
$GPGGA,100311.50,4548.6589111,N,00837.7264668,E,4,13,2.25,212.108,M,48.401,M,,0375*54
$GPGGA,100311.60,4548.6589107,N,00837.7264671,E,4,13,2.25,212.108,M,48.401,M,,0376*5B
$GPGGA,100311.70,4548.6589105,N,00837.7264671,E,4,13,2.25,212.108,M,48.401,M,,0377*59
$GPGGA,100311.80,4548.6589109,N,00837.7264672,E,4,13,2.25,212.108,M,48.401,M,,0378*56
$GPGGA,100311.90,4548.6589113,N,00837.7264673,E,4,13,2.25,212.108,M,48.401,M,,0379*5C
$GPGGA,100312.00,4548.6589113,N,00837.7264673,E,4,13,2.25,212.108,M,48.401,M,,0380*50
$GPGGA,100312.10,4548.6589112,N,00837.7264673,E,4,13,2.25,212.108,M,48.401,M,,0381*51
$GPGGA,100312.20,4548.6589113,N,00837.7264674,E,4,13,2.25,212.108,M,48.401,M,,0382*57
$GPGGA,100312.30,4548.6589111,N,00837.7264675,E,4,13,2.25,212.108,M,48.401,M,,0383*54
$GPGGA,100312.40,4548.6589110,N,00837.7264676,E,4,13,2.25,212.108,M,48.401,M,,0384*56
$GPGGA,100312.50,4548.6589108,N,00837.7264676,E,4,13,2.25,212.109,M,48.401,M,,0385*5E
$GPGGA,100312.60,4548.6589109,N,00837.7264678,E,4,13,2.25,212.109,M,48.401,M,,0386*51
$GPGGA,100312.70,4548.6589107,N,00837.7264681,E,4,13,2.25,212.109,M,48.401,M,,0387*59
$GPGGA,100312.80,4548.6589092,N,00837.7264681,E,4,13,2.25,212.109,M,48.401,M,,0388*54
$GPGGA,100312.90,4548.6589072,N,00837.7264678,E,4,13,2.25,212.109,M,48.401,M,,0389*5C
$GPGGA,100313.00,4548.6589054,N,00837.7264671,E,4,13,2.25,212.109,M,48.401,M,,0390*51
$GPGGA,100313.10,4548.6589012,N,00837.7264664,E,4,13,2.25,212.108,M,48.401,M,,0391*56
$GPGGA,100313.20,4548.6588994,N,00837.7264661,E,4,13,2.25,212.108,M,48.401,M,,0392*55
$GPGGA,100313.30,4548.6588974,N,00837.7264661,E,4,13,2.25,212.108,M,48.401,M,,0393*5B
$GPGGA,100313.40,4548.6588998,N,00837.7264662,E,4,13,2.25,212.108,M,48.401,M,,0394*5A
$GPGGA,100313.50,4548.6589037,N,00837.7264659,E,4,13,2.25,212.109,M,48.401,M,,0395*5E
$GPGGA,100313.60,4548.6589070,N,00837.7264657,E,4,13,2.25,212.110,M,48.401,M,,0396*5B
$GPGGA,100313.70,4548.6589082,N,00837.7264657,E,4,13,2.25,212.110,M,48.401,M,,0397*56
$GPGGA,100313.80,4548.6589094,N,00837.7264653,E,4,13,2.25,212.111,M,48.401,M,,0398*54
$GPGGA,100313.90,4548.6589110,N,00837.7264654,E,4,13,2.25,212.111,M,48.401,M,,0399*5E
$GPGGA,100314.00,4548.6589118,N,00837.7264647,E,4,13,2.25,212.111,M,48.401,M,,0400*5D
$GPGGA,100314.10,4548.6589123,N,00837.7264649,E,4,13,2.25,212.111,M,48.401,M,,0401*5B
$GPGGA,100314.20,4548.6589120,N,00837.7264646,E,4,13,2.25,212.112,M,48.401,M,,0402*54
$GPGGA,100314.30,4548.6589114,N,00837.7264647,E,4,13,2.25,212.112,M,48.401,M,,0403*52
$GPGGA,100314.40,4548.6589101,N,00837.7264648,E,4,13,2.25,212.112,M,48.401,M,,0404*59
$GPGGA,100314.50,4548.6589079,N,00837.7264645,E,4,13,2.25,212.112,M,48.401,M,,0405*5A
$GPGGA,100314.60,4548.6589068,N,00837.7264648,E,4,13,2.25,212.112,M,48.401,M,,0406*57
$GPGGA,100314.70,4548.6589063,N,00837.7264648,E,4,13,2.25,212.112,M,48.401,M,,0407*5C
$GPGGA,100314.80,4548.6589079,N,00837.7264648,E,4,13,2.25,212.112,M,48.401,M,,0408*57
$GPGGA,100314.90,4548.6589107,N,00837.7264646,E,4,13,2.25,212.112,M,48.401,M,,0409*51
$GPGGA,100315.00,4548.6589139,N,00837.7264643,E,4,13,2.25,212.113,M,48.401,M,,0410*58
$GPGGA,100315.10,4548.6589164,N,00837.7264642,E,4,13,2.25,212.113,M,48.401,M,,0411*51
$GPGGA,100315.20,4548.6589185,N,00837.7264636,E,4,13,2.25,212.113,M,48.401,M,,0412*5D
$GPGGA,100315.30,4548.6589194,N,00837.7264635,E,4,13,2.25,212.113,M,48.401,M,,0413*5E
$GPGGA,100315.40,4548.6589199,N,00837.7264631,E,4,13,2.25,212.113,M,48.401,M,,0414*57
$GPGGA,100315.50,4548.6589194,N,00837.7264631,E,4,13,2.25,212.113,M,48.401,M,,0415*5A
$GPGGA,100315.60,4548.6589190,N,00837.7264631,E,4,13,2.25,212.113,M,48.401,M,,0416*5E
$GPGGA,100315.70,4548.6589181,N,00837.7264634,E,4,13,2.25,212.113,M,48.401,M,,0417*5B
$GPGGA,100315.80,4548.6589168,N,00837.7264636,E,4,13,2.25,212.113,M,48.401,M,,0418*5E
$GPGGA,100315.90,4548.6589154,N,00837.7264640,E,4,13,2.25,212.112,M,48.401,M,,0419*51
$GPGGA,100316.00,4548.6589151,N,00837.7264640,E,4,13,2.25,212.112,M,48.401,M,,0420*54
$GPGGA,100316.10,4548.6589168,N,00837.7264640,E,4,13,2.25,212.112,M,48.401,M,,0421*5E
$GPGGA,100316.20,4548.6589209,N,00837.7264635,E,4,13,2.25,212.112,M,48.401,M,,0422*58
$GPGGA,100316.30,4548.6589256,N,00837.7264633,E,4,13,2.25,212.112,M,48.401,M,,0423*54
$GPGGA,100316.40,4548.6589306,N,00837.7264635,E,4,13,2.25,212.112,M,48.401,M,,0424*56
$GPGGA,100316.50,4548.6589352,N,00837.7264644,E,4,13,2.25,212.111,M,48.401,M,,0425*52
$GPGGA,100316.60,4548.6589386,N,00837.7264660,E,4,13,2.25,212.111,M,48.401,M,,0426*5D
$GPGGA,100316.70,4548.6589409,N,00837.7264686,E,4,13,2.25,212.110,M,48.401,M,,0427*54
$GPGGA,100316.80,4548.6589418,N,00837.7264723,E,4,13,2.25,212.110,M,48.401,M,,0428*5A
$GPGGA,100316.90,4548.6589415,N,00837.7264770,E,4,13,2.25,212.110,M,48.401,M,,0429*51
$GPGGA,100317.00,4548.6589394,N,00837.7264823,E,4,13,2.25,212.111,M,48.401,M,,0430*57
$GPGGA,100317.10,4548.6589364,N,00837.7264876,E,4,13,2.25,212.111,M,48.401,M,,0431*58
$GPGGA,100317.20,4548.6589335,N,00837.7264920,E,4,13,2.25,212.112,M,48.401,M,,0432*5D
$GPGGA,100317.30,4548.6589305,N,00837.7264952,E,4,13,2.25,212.112,M,48.401,M,,0433*5B
$GPGGA,100317.40,4548.6589262,N,00837.7264969,E,4,13,2.25,212.112,M,48.401,M,,0434*53
$GPGGA,100317.50,4548.6589220,N,00837.7264977,E,4,13,2.25,212.112,M,48.401,M,,0435*5A
$GPGGA,100317.60,4548.6589192,N,00837.7264979,E,4,13,2.25,212.113,M,48.401,M,,0436*5F
$GPGGA,100317.70,4548.6589183,N,00837.7264982,E,4,13,2.25,212.113,M,48.401,M,,0437*5B
$GPGGA,100317.80,4548.6589192,N,00837.7264980,E,4,13,2.25,212.113,M,48.401,M,,0438*59
$GPGGA,100317.90,4548.6589208,N,00837.7264976,E,4,13,2.25,212.113,M,48.401,M,,0439*50
$GPGGA,100318.00,4548.6589216,N,00837.7264964,E,4,13,2.25,212.113,M,48.401,M,,0440*54
$GPGGA,100318.10,4548.6589214,N,00837.7264952,E,4,13,2.25,212.113,M,48.401,M,,0441*53
$GPGGA,100318.20,4548.6589202,N,00837.7264940,E,4,13,2.25,212.113,M,48.401,M,,0442*57
$GPGGA,100318.30,4548.6589179,N,00837.7264933,E,4,13,2.25,212.113,M,48.401,M,,0443*5C
$GPGGA,100318.40,4548.6589155,N,00837.7264935,E,4,13,2.25,212.113,M,48.401,M,,0444*54
$GPGGA,100318.50,4548.6589132,N,00837.7264943,E,4,13,2.25,212.113,M,48.401,M,,0445*54
$GPGGA,100318.60,4548.6589116,N,00837.7264954,E,4,13,2.25,212.113,M,48.401,M,,0446*54
$GPGGA,100318.70,4548.6589112,N,00837.7264964,E,4,13,2.25,212.113,M,48.401,M,,0447*53
$GPGGA,100318.80,4548.6589121,N,00837.7264964,E,4,13,2.25,212.113,M,48.401,M,,0448*53
$GPGGA,100318.90,4548.6589133,N,00837.7264976,E,4,13,2.25,212.113,M,48.401,M,,0449*53
$GPGGA,100319.00,4548.6589148,N,00837.7264980,E,4,13,2.25,212.113,M,48.401,M,,0450*56
$GPGGA,100319.10,4548.6589161,N,00837.7264978,E,4,13,2.25,212.113,M,48.401,M,,0451*5A
$GPGGA,100319.20,4548.6589166,N,00837.7264973,E,4,13,2.25,212.113,M,48.401,M,,0452*56
$GPGGA,100319.30,4548.6589163,N,00837.7264969,E,4,13,2.25,212.113,M,48.401,M,,0453*58
$GPGGA,100319.40,4548.6589151,N,00837.7264967,E,4,13,2.25,212.113,M,48.401,M,,0454*57
$GPGGA,100319.50,4548.6589132,N,00837.7264968,E,4,13,2.25,212.113,M,48.401,M,,0455*5D
$GPGGA,100319.60,4548.6589113,N,00837.7264973,E,4,13,2.25,212.113,M,48.401,M,,0456*54
$GPGGA,100319.70,4548.6589101,N,00837.7264975,E,4,13,2.25,212.113,M,48.401,M,,0457*51
$GPGGA,100319.80,4548.6589097,N,00837.7264971,E,4,13,2.25,212.113,M,48.401,M,,0458*5B
$GPGGA,100319.90,4548.6589097,N,00837.7264960,E,4,13,2.25,212.113,M,48.401,M,,0459*5B
$GPGGA,100320.00,4548.6589109,N,00837.7264953,E,4,13,2.25,212.113,M,48.401,M,,0460*54
$GPGGA,100320.10,4548.6589123,N,00837.7264950,E,4,13,2.25,212.113,M,48.401,M,,0461*5F
$GPGGA,100320.20,4548.6589139,N,00837.7264950,E,4,13,2.25,212.113,M,48.401,M,,0462*54
$GPGGA,100320.30,4548.6589155,N,00837.7264956,E,4,13,2.25,212.114,M,48.401,M,,0463*5F
$GPGGA,100320.40,4548.6589163,N,00837.7264965,E,4,13,2.25,212.114,M,48.401,M,,0464*5A
$GPGGA,100320.50,4548.6589172,N,00837.7264971,E,4,13,2.25,212.114,M,48.401,M,,0465*5F
$GPGGA,100320.60,4548.6589179,N,00837.7264972,E,4,13,2.25,212.114,M,48.401,M,,0466*57
$GPGGA,100320.70,4548.6589186,N,00837.7264965,E,4,13,2.25,212.114,M,48.401,M,,0467*51
$GPGGA,100320.80,4548.6589192,N,00837.7264958,E,4,13,2.25,212.114,M,48.401,M,,0468*5A
$GPGGA,100320.90,4548.6589191,N,00837.7264953,E,4,13,2.25,212.113,M,48.401,M,,0469*55
$GPGGA,100321.00,4548.6589184,N,00837.7264950,E,4,13,2.25,212.113,M,48.401,M,,0470*52
$GPGGA,100321.10,4548.6589176,N,00837.7264950,E,4,13,2.25,212.113,M,48.401,M,,0471*5F
$GPGGA,100321.20,4548.6589164,N,00837.7264952,E,4,13,2.25,212.113,M,48.401,M,,0472*5E
$GPGGA,100321.30,4548.6589150,N,00837.7264951,E,4,13,2.25,212.112,M,48.401,M,,0473*5B
$GPGGA,100321.40,4548.6589136,N,00837.7264951,E,4,13,2.25,212.112,M,48.401,M,,0474*5B
$GPGGA,100321.50,4548.6589123,N,00837.7264951,E,4,13,2.25,212.111,M,48.401,M,,0475*5C
$GPGGA,100321.60,4548.6589113,N,00837.7264951,E,4,13,2.25,212.111,M,48.401,M,,0476*5F
$GPGGA,100321.70,4548.6589109,N,00837.7264952,E,4,13,2.25,212.111,M,48.401,M,,0477*57
$GPGGA,100321.80,4548.6589109,N,00837.7264956,E,4,13,2.25,212.110,M,48.401,M,,0478*52
$GPGGA,100321.90,4548.6589111,N,00837.7264960,E,4,13,2.25,212.110,M,48.401,M,,0479*5E
$GPGGA,100322.00,4548.6589107,N,00837.7264960,E,4,13,2.25,212.110,M,48.401,M,,0480*55
$GPGGA,100322.10,4548.6589104,N,00837.7264956,E,4,13,2.25,212.110,M,48.401,M,,0481*53
$GPGGA,100322.20,4548.6589104,N,00837.7264955,E,4,13,2.25,212.109,M,48.401,M,,0482*58
$GPGGA,100322.30,4548.6589103,N,00837.7264957,E,4,13,2.25,212.109,M,48.401,M,,0483*5D
$GPGGA,100322.40,4548.6589099,N,00837.7264958,E,4,13,2.25,212.109,M,48.401,M,,0484*50
$GPGGA,100322.50,4548.6589096,N,00837.7264958,E,4,13,2.25,212.109,M,48.401,M,,0485*5F
$GPGGA,100322.60,4548.6589094,N,00837.7264958,E,4,13,2.25,212.109,M,48.401,M,,0486*5D
$GPGGA,100322.70,4548.6589089,N,00837.7264960,E,4,13,2.25,212.108,M,48.401,M,,0487*5B
$GPGGA,100322.80,4548.6589086,N,00837.7264962,E,4,13,2.25,212.108,M,48.401,M,,0488*56
$GPGGA,100322.90,4548.6589083,N,00837.7264964,E,4,13,2.25,212.108,M,48.401,M,,0489*55
$GPGGA,100323.00,4548.6589071,N,00837.7264969,E,4,13,2.25,212.108,M,48.401,M,,0490*55
$GPGGA,100323.10,4548.6589057,N,00837.7264974,E,4,13,2.25,212.108,M,48.401,M,,0491*5D
$GPGGA,100323.20,4548.6589044,N,00837.7264978,E,4,13,2.25,212.107,M,48.401,M,,0492*5C
$GPGGA,100323.30,4548.6589032,N,00837.7264981,E,4,13,2.25,212.107,M,48.401,M,,0493*5B
$GPGGA,100323.40,4548.6589023,N,00837.7264981,E,4,13,2.25,212.107,M,48.401,M,,0494*5B
$GPGGA,100323.50,4548.6589019,N,00837.7264983,E,4,13,2.25,212.107,M,48.401,M,,0495*50
$GPGGA,100323.60,4548.6589015,N,00837.7264987,E,4,13,2.25,212.107,M,48.401,M,,0496*58
$GPGGA,100323.70,4548.6588998,N,00837.7264993,E,4,13,2.25,212.106,M,48.401,M,,0497*51
$GPGGA,100323.80,4548.6588977,N,00837.7264995,E,4,13,2.25,212.106,M,48.401,M,,0498*56
$GPGGA,100323.90,4548.6588959,N,00837.7264993,E,4,13,2.25,212.106,M,48.401,M,,0499*5C
$GPGGA,100324.00,4548.6588944,N,00837.7264992,E,4,13,2.25,212.105,M,48.401,M,,0500*5D
$GPGGA,100324.10,4548.6588921,N,00837.7264992,E,4,13,2.25,212.105,M,48.401,M,,0501*5E
$GPGGA,100324.20,4548.6588899,N,00837.7264992,E,4,13,2.25,212.105,M,48.401,M,,0502*5C
$GPGGA,100324.30,4548.6588879,N,00837.7264992,E,4,13,2.25,212.105,M,48.401,M,,0503*52
$GPGGA,100324.40,4548.6588866,N,00837.7264988,E,4,13,2.25,212.104,M,48.401,M,,0504*56
$GPGGA,100324.50,4548.6588863,N,00837.7264979,E,4,13,2.25,212.104,M,48.401,M,,0505*5D
$GPGGA,100324.60,4548.6588876,N,00837.7264960,E,4,13,2.25,212.104,M,48.401,M,,0506*51
$GPGGA,100324.70,4548.6588906,N,00837.7264944,E,4,13,2.25,212.105,M,48.401,M,,0507*50
$GPGGA,100324.80,4548.6588921,N,00837.7264941,E,4,13,2.25,212.105,M,48.401,M,,0508*50
$GPGGA,100324.90,4548.6588921,N,00837.7264946,E,4,13,2.25,212.105,M,48.401,M,,0509*57
$GPGGA,100325.00,4548.6588925,N,00837.7264948,E,4,13,2.25,212.105,M,48.401,M,,0510*5D
$GPGGA,100325.10,4548.6588939,N,00837.7264946,E,4,13,2.25,212.105,M,48.401,M,,0511*5E
$GPGGA,100325.20,4548.6588961,N,00837.7264946,E,4,13,2.25,212.106,M,48.401,M,,0512*50
$GPGGA,100325.30,4548.6588990,N,00837.7264946,E,4,13,2.25,212.106,M,48.401,M,,0513*5E
$GPGGA,100325.40,4548.6589019,N,00837.7264945,E,4,13,2.25,212.107,M,48.401,M,,0514*55
$GPGGA,100325.50,4548.6589036,N,00837.7264940,E,4,13,2.25,212.107,M,48.401,M,,0515*5D
$GPGGA,100325.60,4548.6589057,N,00837.7264932,E,4,13,2.25,212.107,M,48.401,M,,0516*5F
$GPGGA,100325.70,4548.6589085,N,00837.7264924,E,4,13,2.25,212.107,M,48.401,M,,0517*57
$GPGGA,100325.80,4548.6589118,N,00837.7264920,E,4,13,2.25,212.107,M,48.401,M,,0518*56
$GPGGA,100325.90,4548.6589160,N,00837.7264918,E,4,13,2.25,212.107,M,48.401,M,,0519*52
$GPGGA,100326.00,4548.6589209,N,00837.7264917,E,4,13,2.25,212.106,M,48.401,M,,0520*50
$GPGGA,100326.10,4548.6589258,N,00837.7264914,E,4,13,2.25,212.106,M,48.401,M,,0521*57
$GPGGA,100326.20,4548.6589303,N,00837.7264911,E,4,13,2.25,212.106,M,48.401,M,,0522*5D
$GPGGA,100326.30,4548.6589338,N,00837.7264906,E,4,13,2.25,212.106,M,48.401,M,,0523*53
$GPGGA,100326.40,4548.6589362,N,00837.7264903,E,4,13,2.25,212.106,M,48.401,M,,0524*59
$GPGGA,100326.50,4548.6589374,N,00837.7264901,E,4,13,2.25,212.106,M,48.401,M,,0525*5C
$GPGGA,100326.60,4548.6589378,N,00837.7264899,E,4,13,2.25,212.105,M,48.401,M,,0526*53
$GPGGA,100326.70,4548.6589380,N,00837.7264898,E,4,13,2.25,212.105,M,48.401,M,,0527*55
$GPGGA,100326.80,4548.6589375,N,00837.7264897,E,4,13,2.26,212.105,M,48.401,M,,0528*53
$GPGGA,100326.90,4548.6589366,N,00837.7264896,E,4,13,2.26,212.105,M,48.401,M,,0529*50
$GPGGA,100327.00,4548.6589352,N,00837.7264895,E,4,13,2.26,212.105,M,48.401,M,,0530*54
$GPGGA,100327.10,4548.6589344,N,00837.7264889,E,4,13,2.26,212.105,M,48.401,M,,0531*5E
$GPGGA,100327.20,4548.6589363,N,00837.7264877,E,4,13,2.26,212.105,M,48.401,M,,0532*5A
$GPGGA,100327.30,4548.6589389,N,00837.7264865,E,4,13,2.26,212.105,M,48.401,M,,0533*5D
$GPGGA,100327.40,4548.6589402,N,00837.7264858,E,4,13,2.26,212.104,M,48.401,M,,0534*56
$GPGGA,100327.50,4548.6589408,N,00837.7264859,E,4,13,2.26,212.104,M,48.401,M,,0535*5D
$GPGGA,100327.60,4548.6589405,N,00837.7264866,E,4,13,2.26,212.104,M,48.401,M,,0536*5C
$GPGGA,100327.70,4548.6589392,N,00837.7264870,E,4,13,2.26,212.105,M,48.401,M,,0537*53
$GPGGA,100327.80,4548.6589370,N,00837.7264885,E,4,13,2.26,212.105,M,48.401,M,,0538*55
$GPGGA,100327.90,4548.6589347,N,00837.7264897,E,4,13,2.26,212.105,M,48.401,M,,0539*52
$GPGGA,100328.00,4548.6589328,N,00837.7264901,E,4,13,2.26,212.105,M,48.401,M,,0540*5D
$GPGGA,100328.10,4548.6589314,N,00837.7264901,E,4,13,2.26,212.105,M,48.401,M,,0541*52
$GPGGA,100328.20,4548.6589297,N,00837.7264900,E,4,13,2.26,212.106,M,48.401,M,,0542*5A
$GPGGA,100328.30,4548.6589281,N,00837.7264902,E,4,13,2.26,212.106,M,48.401,M,,0543*5F
$GPGGA,100328.40,4548.6589268,N,00837.7264906,E,4,13,2.26,212.106,M,48.401,M,,0544*5C
$GPGGA,100328.50,4548.6589256,N,00837.7264910,E,4,13,2.26,212.106,M,48.401,M,,0545*56
$GPGGA,100328.60,4548.6589244,N,00837.7264912,E,4,13,2.26,212.107,M,48.401,M,,0546*56
$GPGGA,100328.70,4548.6589237,N,00837.7264912,E,4,13,2.26,212.107,M,48.401,M,,0547*52
$GPGGA,100328.80,4548.6589226,N,00837.7264914,E,4,13,2.26,212.108,M,48.401,M,,0548*5B
$GPGGA,100328.90,4548.6589215,N,00837.7264916,E,4,13,2.26,212.108,M,48.401,M,,0549*59
$GPGGA,100329.00,4548.6589203,N,00837.7264916,E,4,13,2.26,212.108,M,48.401,M,,0550*5E
$GPGGA,100329.10,4548.6589193,N,00837.7264916,E,4,13,2.26,212.109,M,48.401,M,,0551*55
$GPGGA,100329.20,4548.6589184,N,00837.7264916,E,4,13,2.26,212.109,M,48.401,M,,0552*53
$GPGGA,100329.30,4548.6589180,N,00837.7264915,E,4,13,2.26,212.109,M,48.401,M,,0553*54
$GPGGA,100329.40,4548.6589180,N,00837.7264914,E,4,13,2.26,212.109,M,48.401,M,,0554*55
$GPGGA,100329.50,4548.6589177,N,00837.7264915,E,4,13,2.26,212.109,M,48.401,M,,0555*5C
$GPGGA,100329.60,4548.6589168,N,00837.7264917,E,4,13,2.26,212.110,M,48.401,M,,0556*58
$GPGGA,100329.70,4548.6589159,N,00837.7264919,E,4,13,2.26,212.110,M,48.401,M,,0557*54
$GPGGA,100329.80,4548.6589155,N,00837.7264921,E,4,13,2.26,212.110,M,48.401,M,,0558*53
$GPGGA,100329.90,4548.6589161,N,00837.7264921,E,4,13,2.26,212.110,M,48.401,M,,0559*54
$GPGGA,100330.00,4548.6589166,N,00837.7264921,E,4,13,2.26,212.109,M,48.401,M,,0560*50
$GPGGA,100330.10,4548.6589177,N,00837.7264922,E,4,13,2.26,212.109,M,48.401,M,,0561*53
$GPGGA,100330.20,4548.6589184,N,00837.7264922,E,4,13,2.26,212.109,M,48.401,M,,0562*5F
$GPGGA,100330.30,4548.6589187,N,00837.7264922,E,4,13,2.26,212.109,M,48.401,M,,0563*5C
$GPGGA,100330.40,4548.6589186,N,00837.7264922,E,4,13,2.26,212.109,M,48.401,M,,0564*5D
$GPGGA,100330.50,4548.6589185,N,00837.7264921,E,4,13,2.26,212.108,M,48.401,M,,0565*5C
$GPGGA,100330.60,4548.6589186,N,00837.7264920,E,4,13,2.26,212.108,M,48.401,M,,0566*5E
$GPGGA,100330.70,4548.6589187,N,00837.7264920,E,4,13,2.26,212.108,M,48.401,M,,0567*5F
$GPGGA,100330.80,4548.6589193,N,00837.7264920,E,4,13,2.26,212.107,M,48.401,M,,0568*55
$GPGGA,100330.90,4548.6589204,N,00837.7264919,E,4,13,2.26,212.107,M,48.401,M,,0569*52
$GPGGA,100331.00,4548.6589223,N,00837.7264920,E,4,13,2.26,212.106,M,48.401,M,,0570*5C
$GPGGA,100331.10,4548.6589249,N,00837.7264921,E,4,13,2.26,212.106,M,48.401,M,,0571*51
$GPGGA,100331.20,4548.6589272,N,00837.7264918,E,4,13,2.26,212.106,M,48.401,M,,0572*53
$GPGGA,100331.30,4548.6589286,N,00837.7264913,E,4,13,2.26,212.105,M,48.401,M,,0573*50
$GPGGA,100331.40,4548.6589303,N,00837.7264906,E,4,13,2.26,212.105,M,48.401,M,,0574*58
$GPGGA,100331.50,4548.6589314,N,00837.7264900,E,4,13,2.26,212.105,M,48.401,M,,0575*58
$GPGGA,100331.60,4548.6589328,N,00837.7264898,E,4,13,2.26,212.104,M,48.401,M,,0576*56
$GPGGA,100331.70,4548.6589338,N,00837.7264897,E,4,13,2.26,212.104,M,48.401,M,,0577*58
$GPGGA,100331.80,4548.6589344,N,00837.7264896,E,4,13,2.26,212.104,M,48.401,M,,0578*52
$GPGGA,100331.90,4548.6589349,N,00837.7264894,E,4,13,2.26,212.103,M,48.401,M,,0579*5A
$GPGGA,100332.00,4548.6589353,N,00837.7264892,E,4,13,2.26,212.103,M,48.401,M,,0580*5B
$GPGGA,100332.10,4548.6589361,N,00837.7264889,E,4,13,2.26,212.103,M,48.401,M,,0581*50
$GPGGA,100332.20,4548.6589368,N,00837.7264887,E,4,13,2.26,212.102,M,48.401,M,,0582*56
$GPGGA,100332.30,4548.6589376,N,00837.7264884,E,4,13,2.26,212.102,M,48.401,M,,0583*5A
$GPGGA,100332.40,4548.6589382,N,00837.7264882,E,4,13,2.26,212.102,M,48.401,M,,0584*57
$GPGGA,100332.50,4548.6589386,N,00837.7264881,E,4,13,2.26,212.102,M,48.401,M,,0585*50
$GPGGA,100332.60,4548.6589386,N,00837.7264879,E,4,13,2.26,212.102,M,48.401,M,,0586*57
$GPGGA,100332.70,4548.6589382,N,00837.7264879,E,4,13,2.26,212.102,M,48.401,M,,0587*53
$GPGGA,100332.80,4548.6589382,N,00837.7264879,E,4,13,2.26,212.102,M,48.401,M,,0588*53
$GPGGA,100332.90,4548.6589382,N,00837.7264879,E,4,13,2.26,212.102,M,48.401,M,,0589*53
$GPGGA,100333.00,4548.6589378,N,00837.7264881,E,4,13,2.26,212.102,M,48.401,M,,0590*51
$GPGGA,100333.10,4548.6589382,N,00837.7264879,E,4,13,2.26,212.102,M,48.401,M,,0591*53
$GPGGA,100333.20,4548.6589378,N,00837.7264881,E,4,13,2.26,212.102,M,48.401,M,,0592*51
$GPGGA,100333.30,4548.6589382,N,00837.7264879,E,4,13,2.26,212.102,M,48.401,M,,0593*53
$GPGGA,100333.40,4548.6589380,N,00837.7264880,E,4,13,2.26,212.102,M,48.401,M,,0594*57
$GPGGA,100333.50,4548.6589379,N,00837.7264880,E,4,13,2.26,212.102,M,48.401,M,,0595*51
$GPGGA,100333.60,4548.6589377,N,00837.7264882,E,4,13,2.26,212.102,M,48.401,M,,0596*5D
$GPGGA,100333.70,4548.6589376,N,00837.7264882,E,4,13,2.26,212.102,M,48.401,M,,0597*5C
$GPGGA,100333.80,4548.6589377,N,00837.7264883,E,4,13,2.26,212.102,M,48.401,M,,0598*5C
$GPGGA,100333.90,4548.6589382,N,00837.7264884,E,4,13,2.26,212.102,M,48.401,M,,0599*51
$GPGGA,100334.00,4548.6589392,N,00837.7264886,E,4,13,2.26,212.102,M,48.401,M,,0600*5F
$GPGGA,100334.10,4548.6589404,N,00837.7264887,E,4,13,2.26,212.102,M,48.401,M,,0601*56
$GPGGA,100334.20,4548.6589415,N,00837.7264888,E,4,13,2.26,212.102,M,48.401,M,,0602*59
$GPGGA,100334.30,4548.6589421,N,00837.7264888,E,4,13,2.26,212.102,M,48.401,M,,0603*5E
$GPGGA,100334.40,4548.6589426,N,00837.7264888,E,4,13,2.26,212.102,M,48.401,M,,0604*59
$GPGGA,100334.50,4548.6589429,N,00837.7264888,E,4,13,2.26,212.103,M,48.401,M,,0605*57
$GPGGA,100334.60,4548.6589431,N,00837.7264887,E,4,13,2.26,212.103,M,48.401,M,,0606*51
$GPGGA,100334.70,4548.6589431,N,00837.7264886,E,4,13,2.26,212.103,M,48.401,M,,0607*50
$GPGGA,100334.80,4548.6589434,N,00837.7264884,E,4,13,2.26,212.103,M,48.401,M,,0608*57
$GPGGA,100334.90,4548.6589440,N,00837.7264882,E,4,13,2.26,212.103,M,48.401,M,,0609*52
$GPGGA,100335.00,4548.6589451,N,00837.7264880,E,4,13,2.26,212.103,M,48.401,M,,0610*50
$GPGGA,100335.10,4548.6589466,N,00837.7264878,E,4,13,2.26,212.103,M,48.401,M,,0611*53
$GPGGA,100335.20,4548.6589484,N,00837.7264877,E,4,13,2.26,212.103,M,48.401,M,,0612*50
$GPGGA,100335.30,4548.6589503,N,00837.7264876,E,4,13,2.26,212.103,M,48.401,M,,0613*5F
$GPGGA,100335.40,4548.6589523,N,00837.7264877,E,4,13,2.26,212.103,M,48.401,M,,0614*5C
$GPGGA,100335.50,4548.6589538,N,00837.7264877,E,4,13,2.26,212.103,M,48.401,M,,0615*56
$GPGGA,100335.60,4548.6589551,N,00837.7264878,E,4,13,2.26,212.102,M,48.401,M,,0616*57
$GPGGA,100335.70,4548.6589558,N,00837.7264878,E,4,13,2.26,212.102,M,48.401,M,,0617*5E
$GPGGA,100335.80,4548.6589560,N,00837.7264879,E,4,13,2.26,212.102,M,48.401,M,,0618*54
$GPGGA,100335.90,4548.6589557,N,00837.7264879,E,4,13,2.26,212.102,M,48.401,M,,0619*50
$GPGGA,100336.00,4548.6589550,N,00837.7264879,E,4,13,2.26,212.103,M,48.401,M,,0620*56
$GPGGA,100336.10,4548.6589541,N,00837.7264878,E,4,13,2.26,212.103,M,48.401,M,,0621*57
$GPGGA,100336.20,4548.6589532,N,00837.7264877,E,4,13,2.26,212.103,M,48.401,M,,0622*5C
$GPGGA,100336.30,4548.6589522,N,00837.7264877,E,4,13,2.26,212.103,M,48.401,M,,0623*5D
$GPGGA,100336.40,4548.6589518,N,00837.7264877,E,4,13,2.26,212.103,M,48.401,M,,0624*54
$GPGGA,100336.50,4548.6589518,N,00837.7264877,E,4,13,2.26,212.104,M,48.401,M,,0625*53
$GPGGA,100336.60,4548.6589519,N,00837.7264878,E,4,13,2.26,212.104,M,48.401,M,,0626*5D
$GPGGA,100336.70,4548.6589521,N,00837.7264879,E,4,13,2.26,212.104,M,48.401,M,,0627*57
$GPGGA,100336.80,4548.6589518,N,00837.7264878,E,4,13,2.26,212.104,M,48.401,M,,0628*5C
$GPGGA,100336.90,4548.6589512,N,00837.7264880,E,4,13,2.26,212.104,M,48.401,M,,0629*51
$GPGGA,100337.00,4548.6589498,N,00837.7264882,E,4,13,2.26,212.105,M,48.401,M,,0630*51
$GPGGA,100337.10,4548.6589482,N,00837.7264883,E,4,13,2.26,212.105,M,48.401,M,,0631*5B
$GPGGA,100337.20,4548.6589462,N,00837.7264882,E,4,13,2.26,212.105,M,48.401,M,,0632*54
$GPGGA,100337.30,4548.6589447,N,00837.7264882,E,4,13,2.26,212.105,M,48.401,M,,0633*53
$GPGGA,100337.40,4548.6589441,N,00837.7264881,E,4,13,2.26,212.105,M,48.401,M,,0634*56
$GPGGA,100337.50,4548.6589441,N,00837.7264881,E,4,13,2.26,212.106,M,48.401,M,,0635*55
$GPGGA,100337.60,4548.6589442,N,00837.7264881,E,4,13,2.26,212.106,M,48.401,M,,0636*56
$GPGGA,100337.70,4548.6589446,N,00837.7264881,E,4,13,2.26,212.106,M,48.401,M,,0637*52
$GPGGA,100337.80,4548.6589452,N,00837.7264880,E,4,13,2.26,212.105,M,48.401,M,,0638*55
$GPGGA,100337.90,4548.6589463,N,00837.7264879,E,4,13,2.26,212.105,M,48.401,M,,0639*51
$GPGGA,100338.00,4548.6589477,N,00837.7264876,E,4,13,2.26,212.105,M,48.401,M,,0640*53
$GPGGA,100338.10,4548.6589500,N,00837.7264875,E,4,13,2.26,212.105,M,48.401,M,,0641*51
$GPGGA,100338.20,4548.6589527,N,00837.7264874,E,4,13,2.26,212.105,M,48.401,M,,0642*55
$GPGGA,100338.30,4548.6589553,N,00837.7264875,E,4,13,2.26,212.104,M,48.401,M,,0643*56
$GPGGA,100338.40,4548.6589573,N,00837.7264875,E,4,13,2.26,212.104,M,48.401,M,,0644*54
$GPGGA,100338.50,4548.6589588,N,00837.7264876,E,4,13,2.26,212.103,M,48.401,M,,0645*54
$GPGGA,100338.60,4548.6589597,N,00837.7264876,E,4,13,2.26,212.103,M,48.401,M,,0646*5A
$GPGGA,100338.70,4548.6589611,N,00837.7264875,E,4,13,2.26,212.102,M,48.401,M,,0647*55
$GPGGA,100338.80,4548.6589632,N,00837.7264873,E,4,13,2.26,212.102,M,48.401,M,,0648*52
$GPGGA,100338.90,4548.6589661,N,00837.7264872,E,4,13,2.26,212.101,M,48.401,M,,0649*56
$GPGGA,100339.00,4548.6589694,N,00837.7264871,E,4,13,2.26,212.100,M,48.401,M,,0650*5E
$GPGGA,100339.10,4548.6589722,N,00837.7264867,E,4,13,2.26,212.098,M,48.401,M,,0651*55
$GPGGA,100339.20,4548.6589749,N,00837.7264862,E,4,13,2.26,212.097,M,48.401,M,,0652*52
$GPGGA,100339.30,4548.6589776,N,00837.7264853,E,4,13,2.26,212.096,M,48.401,M,,0653*5D
$GPGGA,100339.40,4548.6589812,N,00837.7264848,E,4,13,2.26,212.095,M,48.401,M,,0654*59
$GPGGA,100339.50,4548.6589857,N,00837.7264850,E,4,13,2.26,212.093,M,48.401,M,,0655*57
$GPGGA,100339.60,4548.6589884,N,00837.7264854,E,4,13,2.26,212.091,M,48.401,M,,0656*5F
$GPGGA,100339.70,4548.6589886,N,00837.7264844,E,4,13,2.26,212.092,M,48.401,M,,0657*5F
$GPGGA,100339.80,4548.6589894,N,00837.7264848,E,4,13,2.26,212.091,M,48.401,M,,0658*53
$GPGGA,100339.90,4548.6589906,N,00837.7264847,E,4,13,2.26,212.091,M,48.401,M,,0659*56
$GPGGA,100340.00,4548.6589907,N,00837.7264846,E,4,13,2.26,212.091,M,48.401,M,,0660*5B
$GPGGA,100340.10,4548.6589909,N,00837.7264846,E,4,13,2.26,212.091,M,48.401,M,,0661*55
$GPGGA,100340.20,4548.6589919,N,00837.7264849,E,4,13,2.26,212.090,M,48.401,M,,0662*5A
$GPGGA,100340.30,4548.6589940,N,00837.7264852,E,4,13,2.26,212.089,M,48.401,M,,0663*54
$GPGGA,100340.40,4548.6589953,N,00837.7264855,E,4,13,2.26,212.088,M,48.401,M,,0664*50
$GPGGA,100340.50,4548.6589956,N,00837.7264852,E,4,13,2.26,212.088,M,48.401,M,,0665*52
$GPGGA,100340.60,4548.6589947,N,00837.7264852,E,4,13,2.26,212.088,M,48.401,M,,0666*52
$GPGGA,100340.70,4548.6589931,N,00837.7264847,E,4,13,2.26,212.088,M,48.401,M,,0667*57
$GPGGA,100340.80,4548.6589915,N,00837.7264845,E,4,13,2.26,212.089,M,48.401,M,,0668*52
$GPGGA,100340.90,4548.6589901,N,00837.7264842,E,4,13,2.26,212.089,M,48.401,M,,0669*50
$GPGGA,100341.00,4548.6589889,N,00837.7264841,E,4,13,2.26,212.089,M,48.401,M,,0670*52
$GPGGA,100341.10,4548.6589876,N,00837.7264840,E,4,13,2.26,212.089,M,48.401,M,,0671*53
$GPGGA,100341.20,4548.6589855,N,00837.7264842,E,4,13,2.26,212.090,M,48.401,M,,0672*58
$GPGGA,100341.30,4548.6589824,N,00837.7264847,E,4,13,2.26,212.091,M,48.401,M,,0673*5A
$GPGGA,100341.40,4548.6589791,N,00837.7264856,E,4,13,2.26,212.092,M,48.401,M,,0674*58
$GPGGA,100341.50,4548.6589755,N,00837.7264870,E,4,13,2.26,212.092,M,48.401,M,,0675*54
$GPGGA,100341.60,4548.6589717,N,00837.7264876,E,4,13,2.26,212.093,M,48.401,M,,0676*55
$GPGGA,100341.70,4548.6589680,N,00837.7264877,E,4,13,2.26,212.094,M,48.401,M,,0677*5C
$GPGGA,100341.80,4548.6589651,N,00837.7264878,E,4,13,2.26,212.095,M,48.401,M,,0678*5E
$GPGGA,100341.90,4548.6589629,N,00837.7264876,E,4,13,2.26,212.095,M,48.401,M,,0679*5F
$GPGGA,100342.00,4548.6589615,N,00837.7264877,E,4,13,2.26,212.095,M,48.401,M,,0680*5D
$GPGGA,100342.10,4548.6589609,N,00837.7264876,E,4,13,2.26,212.096,M,48.401,M,,0681*52
$GPGGA,100342.20,4548.6589613,N,00837.7264875,E,4,13,2.26,212.095,M,48.401,M,,0682*59
$GPGGA,100342.30,4548.6589620,N,00837.7264876,E,4,13,2.26,212.095,M,48.401,M,,0683*5A
$GPGGA,100342.40,4548.6589623,N,00837.7264878,E,4,13,2.26,212.095,M,48.401,M,,0684*57
$GPGGA,100342.50,4548.6589617,N,00837.7264878,E,4,13,2.26,212.095,M,48.401,M,,0685*50
$GPGGA,100342.60,4548.6589606,N,00837.7264877,E,4,13,2.26,212.095,M,48.401,M,,0686*5F
$GPGGA,100342.70,4548.6589602,N,00837.7264877,E,4,13,2.26,212.095,M,48.401,M,,0687*5B
$GPGGA,100342.80,4548.6589604,N,00837.7264877,E,4,13,2.26,212.094,M,48.401,M,,0688*5C
$GPGGA,100342.90,4548.6589607,N,00837.7264876,E,4,13,2.26,212.094,M,48.401,M,,0689*5E
$GPGGA,100343.00,4548.6589607,N,00837.7264876,E,4,13,2.26,212.094,M,48.401,M,,0690*5E
$GPGGA,100343.10,4548.6589601,N,00837.7264876,E,4,13,2.26,212.095,M,48.401,M,,0691*59
$GPGGA,100343.20,4548.6589597,N,00837.7264875,E,4,13,2.26,212.095,M,48.401,M,,0692*56
$GPGGA,100343.30,4548.6589594,N,00837.7264876,E,4,13,2.26,212.095,M,48.401,M,,0693*56
$GPGGA,100343.40,4548.6589588,N,00837.7264877,E,4,13,2.26,212.096,M,48.401,M,,0694*59
$GPGGA,100343.50,4548.6589581,N,00837.7264877,E,4,13,2.26,212.096,M,48.401,M,,0695*50
$GPGGA,100343.60,4548.6589574,N,00837.7264876,E,4,13,2.26,212.096,M,48.401,M,,0696*5B
