$GPGGA,084931.00,4548.6589409,N,00837.7259880,E,4,11,1.42,212.071,M,48.401,M,,0000*50
$GPGGA,084931.10,4548.6589409,N,00837.7259880,E,4,11,1.42,212.071,M,48.401,M,,0001*50
$GPGGA,084931.20,4548.6589409,N,00837.7259880,E,4,11,1.42,212.071,M,48.401,M,,0002*50
$GPGGA,084931.30,4548.6589409,N,00837.7259880,E,4,11,1.42,212.071,M,48.401,M,,0003*50
$GPGGA,084931.40,4548.6589409,N,00837.7259880,E,4,11,1.42,212.071,M,48.401,M,,0004*50
$GPGGA,084931.50,4548.6589409,N,00837.7259880,E,4,11,1.42,212.071,M,48.401,M,,0005*50
$GPGGA,084931.60,4548.6589409,N,00837.7259880,E,4,11,1.42,212.071,M,48.401,M,,0006*50
$GPGGA,084931.70,4548.6589409,N,00837.7259880,E,4,11,1.42,212.071,M,48.401,M,,0007*50
$GPGGA,084931.80,4548.6589409,N,00837.7259880,E,4,11,1.42,212.071,M,48.401,M,,0008*50
$GPGGA,084931.90,4548.6589409,N,00837.7259880,E,4,11,1.42,212.071,M,48.401,M,,0009*50
$GPGGA,084932.00,4548.6589409,N,00837.7259880,E,4,11,1.42,212.071,M,48.401,M,,0010*52
$GPGGA,084932.10,4548.6589409,N,00837.7259880,E,4,11,1.42,212.071,M,48.401,M,,0011*52
$GPGGA,084932.20,4548.6589409,N,00837.7259880,E,4,11,1.42,212.071,M,48.401,M,,0012*52
$GPGGA,084932.30,4548.6589409,N,00837.7259880,E,4,11,1.42,212.071,M,48.401,M,,0013*52
$GPGGA,084932.40,4548.6589409,N,00837.7259880,E,4,11,1.42,212.071,M,48.401,M,,0014*52
$GPGGA,084932.50,4548.6589409,N,00837.7259880,E,4,11,1.42,212.071,M,48.401,M,,0015*52
$GPGGA,084932.60,4548.6589409,N,00837.7259880,E,4,11,1.42,212.071,M,48.401,M,,0016*52
$GPGGA,084932.70,4548.6589409,N,00837.7259880,E,4,11,1.42,212.071,M,48.401,M,,0017*52
$GPGGA,084932.80,4548.6589409,N,00837.7259880,E,4,11,1.42,212.071,M,48.401,M,,0018*52
$GPGGA,084932.90,4548.6589409,N,00837.7259880,E,4,11,1.42,212.071,M,48.401,M,,0019*52
$GPGGA,084933.00,4548.6589409,N,00837.7259880,E,4,11,1.42,212.071,M,48.401,M,,0020*50
$GPGGA,084933.10,4548.6589409,N,00837.7259880,E,4,11,1.42,212.071,M,48.401,M,,0021*50
$GPGGA,084933.20,4548.6589409,N,00837.7259880,E,4,11,1.42,212.071,M,48.401,M,,0022*50
$GPGGA,084933.30,4548.6589409,N,00837.7259880,E,4,11,1.42,212.071,M,48.401,M,,0023*50
$GPGGA,084933.40,4548.6589409,N,00837.7259880,E,4,11,1.42,212.071,M,48.401,M,,0024*50
$GPGGA,084933.50,4548.6589409,N,00837.7259880,E,4,11,1.42,212.071,M,48.401,M,,0025*50
$GPGGA,084933.60,4548.6589409,N,00837.7259880,E,4,11,1.42,212.071,M,48.401,M,,0026*50
$GPGGA,084933.70,4548.6589409,N,00837.7259880,E,4,11,1.42,212.071,M,48.401,M,,0027*50
$GPGGA,084933.80,4548.6589409,N,00837.7259880,E,4,11,1.42,212.071,M,48.401,M,,0028*50
$GPGGA,084933.90,4548.6589409,N,00837.7259880,E,4,11,1.42,212.071,M,48.401,M,,0029*50
$GPGGA,084934.00,4548.6589409,N,00837.7259880,E,4,11,1.42,212.071,M,48.401,M,,0030*56
$GPGGA,084934.10,4548.6589409,N,00837.7259880,E,4,11,1.42,212.071,M,48.401,M,,0031*56
$GPGGA,084934.20,4548.6589409,N,00837.7259880,E,4,11,1.42,212.071,M,48.401,M,,0032*56
$GPGGA,084934.30,4548.6589409,N,00837.7259880,E,4,11,1.42,212.071,M,48.401,M,,0033*56
$GPGGA,084934.40,4548.6589409,N,00837.7259880,E,4,11,1.42,212.071,M,48.401,M,,0034*56
$GPGGA,084934.50,4548.6589409,N,00837.7259880,E,4,11,1.42,212.071,M,48.401,M,,0035*56
$GPGGA,084934.60,4548.6589409,N,00837.7259880,E,4,11,1.42,212.071,M,48.401,M,,0036*56
$GPGGA,084934.70,4548.6589409,N,00837.7259880,E,4,11,1.42,212.071,M,48.401,M,,0037*56
$GPGGA,084934.80,4548.6589409,N,00837.7259880,E,4,11,1.42,212.071,M,48.401,M,,0038*56
$GPGGA,084934.90,4548.6589409,N,00837.7259880,E,4,11,1.42,212.071,M,48.401,M,,0039*56
$GPGGA,084935.00,4548.6589409,N,00837.7259880,E,4,11,1.42,212.071,M,48.401,M,,0040*50
$GPGGA,084935.10,4548.6589409,N,00837.7259880,E,4,11,1.42,212.071,M,48.401,M,,0041*50
$GPGGA,084935.20,4548.6589409,N,00837.7259880,E,4,11,1.42,212.071,M,48.401,M,,0042*50
$GPGGA,084935.30,4548.6589409,N,00837.7259880,E,4,11,1.42,212.071,M,48.401,M,,0043*50
$GPGGA,084935.40,4548.6589409,N,00837.7259880,E,4,11,1.42,212.071,M,48.401,M,,0044*50
$GPGGA,084935.50,4548.6589409,N,00837.7259880,E,4,11,1.42,212.071,M,48.401,M,,0045*50
$GPGGA,084935.60,4548.6589409,N,00837.7259880,E,4,11,1.42,212.071,M,48.401,M,,0046*50
$GPGGA,084935.70,4548.6589409,N,00837.7259880,E,4,11,1.42,212.071,M,48.401,M,,0047*50
$GPGGA,084935.80,4548.6589409,N,00837.7259880,E,4,11,1.42,212.071,M,48.401,M,,0048*50
$GPGGA,084935.90,4548.6589409,N,00837.7259880,E,4,11,1.42,212.071,M,48.401,M,,0049*50
$GPGGA,084936.00,4548.6589409,N,00837.7259880,E,4,11,1.42,212.071,M,48.401,M,,0050*52
$GPGGA,084936.10,4548.6589409,N,00837.7259880,E,4,11,1.42,212.071,M,48.401,M,,0051*52
$GPGGA,084936.20,4548.6589409,N,00837.7259880,E,4,11,1.42,212.071,M,48.401,M,,0052*52
$GPGGA,084936.30,4548.6589409,N,00837.7259880,E,4,11,1.42,212.071,M,48.401,M,,0053*52
$GPGGA,084936.40,4548.6589409,N,00837.7259880,E,4,11,1.42,212.071,M,48.401,M,,0054*52
$GPGGA,084936.50,4548.6589409,N,00837.7259880,E,4,11,1.42,212.071,M,48.401,M,,0055*52
$GPGGA,084936.60,4548.6589409,N,00837.7259880,E,4,11,1.42,212.071,M,48.401,M,,0056*52
$GPGGA,084936.70,4548.6589409,N,00837.7259880,E,4,11,1.42,212.071,M,48.401,M,,0057*52
$GPGGA,084936.80,4548.6589409,N,00837.7259880,E,4,11,1.42,212.071,M,48.401,M,,0058*52
$GPGGA,084936.90,4548.6589409,N,00837.7259880,E,4,11,1.42,212.071,M,48.401,M,,0059*52
$GPGGA,084937.00,4548.6589409,N,00837.7259880,E,4,11,1.42,212.071,M,48.401,M,,0060*50
$GPGGA,084937.10,4548.6589409,N,00837.7259880,E,4,11,1.42,212.071,M,48.401,M,,0061*50
$GPGGA,084937.20,4548.6589409,N,00837.7259880,E,4,11,1.42,212.071,M,48.401,M,,0062*50
$GPGGA,084937.30,4548.6589409,N,00837.7259880,E,4,11,1.42,212.071,M,48.401,M,,0063*50
$GPGGA,084937.40,4548.6589409,N,00837.7259880,E,4,11,1.42,212.071,M,48.401,M,,0064*50
$GPGGA,084937.50,4548.6589409,N,00837.7259880,E,4,11,1.42,212.071,M,48.401,M,,0065*50
$GPGGA,084937.60,4548.6589409,N,00837.7259880,E,4,11,1.42,212.071,M,48.401,M,,0066*50
$GPGGA,084937.70,4548.6589409,N,00837.7259880,E,4,11,1.42,212.071,M,48.401,M,,0067*50
$GPGGA,084937.80,4548.6589409,N,00837.7259880,E,4,11,1.42,212.071,M,48.401,M,,0068*50
$GPGGA,084937.90,4548.6589409,N,00837.7259880,E,4,11,1.42,212.071,M,48.401,M,,0069*50
$GPGGA,084938.00,4548.6589409,N,00837.7259880,E,4,11,1.42,212.071,M,48.401,M,,0070*5E
$GPGGA,084938.10,4548.6589409,N,00837.7259880,E,4,11,1.42,212.071,M,48.401,M,,0071*5E
$GPGGA,084938.20,4548.6589409,N,00837.7259880,E,4,11,1.42,212.071,M,48.401,M,,0072*5E
$GPGGA,084938.30,4548.6589409,N,00837.7259880,E,4,11,1.42,212.071,M,48.401,M,,0073*5E
$GPGGA,084938.40,4548.6589409,N,00837.7259880,E,4,11,1.42,212.071,M,48.401,M,,0074*5E
$GPGGA,084938.50,4548.6589409,N,00837.7259880,E,4,11,1.42,212.071,M,48.401,M,,0075*5E
$GPGGA,084938.60,4548.6589409,N,00837.7259880,E,4,11,1.42,212.071,M,48.401,M,,0076*5E
$GPGGA,084938.70,4548.6589409,N,00837.7259880,E,4,11,1.42,212.071,M,48.401,M,,0077*5E
$GPGGA,084938.80,4548.6589409,N,00837.7259880,E,4,11,1.42,212.071,M,48.401,M,,0078*5E
$GPGGA,084938.90,4548.6589409,N,00837.7259880,E,4,11,1.42,212.071,M,48.401,M,,0079*5E
$GPGGA,084939.00,4548.6589409,N,00837.7259880,E,4,11,1.42,212.071,M,48.401,M,,0080*50
$GPGGA,084939.10,4548.6589409,N,00837.7259880,E,4,11,1.42,212.071,M,48.401,M,,0081*50
$GPGGA,084939.20,4548.6589409,N,00837.7259880,E,4,11,1.42,212.071,M,48.401,M,,0082*50
$GPGGA,084939.30,4548.6589409,N,00837.7259880,E,4,11,1.42,212.071,M,48.401,M,,0083*50
$GPGGA,084939.40,4548.6589409,N,00837.7259880,E,4,11,1.42,212.071,M,48.401,M,,0084*50
$GPGGA,084939.50,4548.6589409,N,00837.7259880,E,4,11,1.42,212.071,M,48.401,M,,0085*50
$GPGGA,084939.60,4548.6589409,N,00837.7259880,E,4,11,1.42,212.071,M,48.401,M,,0086*50
$GPGGA,084939.70,4548.6589409,N,00837.7259880,E,4,11,1.42,212.071,M,48.401,M,,0087*50
$GPGGA,084939.80,4548.6589409,N,00837.7259880,E,4,11,1.42,212.071,M,48.401,M,,0088*50
$GPGGA,084939.90,4548.6589409,N,00837.7259880,E,4,11,1.42,212.071,M,48.401,M,,0089*50
$GPGGA,084940.00,4548.6589409,N,00837.7259880,E,4,11,1.42,212.071,M,48.401,M,,0090*5F
$GPGGA,084940.10,4548.6589409,N,00837.7259880,E,4,11,1.42,212.071,M,48.401,M,,0091*5F
$GPGGA,084940.20,4548.6589409,N,00837.7259880,E,4,11,1.42,212.071,M,48.401,M,,0092*5F
$GPGGA,084940.30,4548.6589409,N,00837.7259880,E,4,11,1.42,212.071,M,48.401,M,,0093*5F
$GPGGA,084940.40,4548.6589409,N,00837.7259880,E,4,11,1.42,212.071,M,48.401,M,,0094*5F
$GPGGA,084940.50,4548.6589409,N,00837.7259880,E,4,11,1.42,212.071,M,48.401,M,,0095*5F
$GPGGA,084940.60,4548.6589409,N,00837.7259880,E,4,11,1.42,212.071,M,48.401,M,,0096*5F
$GPGGA,084940.70,4548.6589409,N,00837.7259880,E,4,11,1.42,212.071,M,48.401,M,,0097*5F
$GPGGA,084940.80,4548.6589409,N,00837.7259880,E,4,11,1.42,212.071,M,48.401,M,,0098*5F
$GPGGA,084940.90,4548.6589409,N,00837.7259880,E,4,11,1.42,212.071,M,48.401,M,,0099*5F
$GPGGA,084941.00,4548.6589409,N,00837.7259880,E,4,11,1.42,212.071,M,48.401,M,,0100*56
$GPGGA,084941.10,4548.6589409,N,00837.7259880,E,4,11,1.42,212.071,M,48.401,M,,0101*56
$GPGGA,084941.20,4548.6589409,N,00837.7259880,E,4,11,1.42,212.071,M,48.401,M,,0102*56
$GPGGA,084941.30,4548.6589409,N,00837.7259880,E,4,11,1.42,212.071,M,48.401,M,,0103*56
$GPGGA,084941.40,4548.6589409,N,00837.7259880,E,4,11,1.42,212.071,M,48.401,M,,0104*56
$GPGGA,084941.50,4548.6589409,N,00837.7259880,E,4,11,1.42,212.071,M,48.401,M,,0105*56
$GPGGA,084941.60,4548.6589409,N,00837.7259880,E,4,11,1.42,212.071,M,48.401,M,,0106*56
$GPGGA,084941.70,4548.6589409,N,00837.7259880,E,4,11,1.42,212.071,M,48.401,M,,0107*56
$GPGGA,084941.80,4548.6589409,N,00837.7259880,E,4,11,1.42,212.071,M,48.401,M,,0108*56
$GPGGA,084941.90,4548.6589409,N,00837.7259880,E,4,11,1.42,212.071,M,48.401,M,,0109*56
$GPGGA,084942.00,4548.6589409,N,00837.7259880,E,4,11,1.42,212.071,M,48.401,M,,0110*54
$GPGGA,084942.10,4548.6589409,N,00837.7259880,E,4,11,1.42,212.071,M,48.401,M,,0111*54
$GPGGA,084942.20,4548.6589409,N,00837.7259880,E,4,11,1.42,212.071,M,48.401,M,,0112*54
$GPGGA,084942.30,4548.6589409,N,00837.7259880,E,4,11,1.42,212.071,M,48.401,M,,0113*54
$GPGGA,084942.40,4548.6589409,N,00837.7259880,E,4,11,1.42,212.071,M,48.401,M,,0114*54
$GPGGA,084942.50,4548.6589409,N,00837.7259880,E,4,12,1.38,212.071,M,48.401,M,,0115*5A
$GPGGA,084942.60,4548.6589409,N,00837.7259880,E,4,12,1.38,212.071,M,48.401,M,,0116*5A
$GPGGA,084942.70,4548.6589409,N,00837.7259880,E,4,12,1.38,212.071,M,48.401,M,,0117*5A
$GPGGA,084942.80,4548.6589409,N,00837.7259880,E,4,12,1.38,212.071,M,48.401,M,,0118*5A
$GPGGA,084942.90,4548.6589409,N,00837.7259880,E,4,12,1.38,212.071,M,48.401,M,,0119*5A
$GPGGA,084943.00,4548.6589409,N,00837.7259880,E,4,12,1.38,212.071,M,48.401,M,,0120*58
$GPGGA,084943.10,4548.6589409,N,00837.7259880,E,4,12,1.38,212.071,M,48.401,M,,0121*58
$GPGGA,084943.20,4548.6589409,N,00837.7259880,E,4,12,1.38,212.071,M,48.401,M,,0122*58
$GPGGA,084943.30,4548.6589409,N,00837.7259880,E,4,12,1.38,212.071,M,48.401,M,,0123*58
$GPGGA,084943.40,4548.6589409,N,00837.7259880,E,4,12,1.38,212.071,M,48.401,M,,0124*58
$GPGGA,084943.50,4548.6589409,N,00837.7259880,E,4,12,1.38,212.071,M,48.401,M,,0125*58
$GPGGA,084943.60,4548.6589409,N,00837.7259880,E,4,12,1.38,212.071,M,48.401,M,,0126*58
$GPGGA,084943.70,4548.6589409,N,00837.7259880,E,4,12,1.38,212.071,M,48.401,M,,0127*58
$GPGGA,084943.80,4548.6589409,N,00837.7259880,E,4,12,1.38,212.071,M,48.401,M,,0128*58
$GPGGA,084943.90,4548.6589409,N,00837.7259880,E,4,12,1.38,212.071,M,48.401,M,,0129*58
$GPGGA,084944.00,4548.6589409,N,00837.7259880,E,4,12,1.38,212.071,M,48.401,M,,0130*5E
$GPGGA,084944.10,4548.6589409,N,00837.7259880,E,4,12,1.38,212.071,M,48.401,M,,0131*5E
$GPGGA,084944.20,4548.6589409,N,00837.7259880,E,4,11,1.50,212.071,M,48.401,M,,0132*53
$GPGGA,084944.30,4548.6589409,N,00837.7259880,E,4,12,1.38,212.071,M,48.401,M,,0133*5E
$GPGGA,084944.40,4548.6589409,N,00837.7259880,E,4,12,1.38,212.071,M,48.401,M,,0134*5E
$GPGGA,084944.50,4548.6589409,N,00837.7259880,E,4,12,1.38,212.071,M,48.401,M,,0135*5E
$GPGGA,084944.60,4548.6589409,N,00837.7259880,E,4,12,1.38,212.071,M,48.401,M,,0136*5E
$GPGGA,084944.70,4548.6589409,N,00837.7259880,E,4,12,1.38,212.071,M,48.401,M,,0137*5E
$GPGGA,084944.80,4548.6589409,N,00837.7259880,E,4,12,1.38,212.071,M,48.401,M,,0138*5E
$GPGGA,084944.90,4548.6589409,N,00837.7259880,E,4,12,1.38,212.071,M,48.401,M,,0139*5E
$GPGGA,084945.00,4548.6589409,N,00837.7259880,E,4,12,1.38,212.071,M,48.401,M,,0140*58
$GPGGA,084945.10,4548.6589409,N,00837.7259880,E,4,12,1.38,212.071,M,48.401,M,,0141*58
$GPGGA,084945.20,4548.6589409,N,00837.7259880,E,4,12,1.38,212.071,M,48.401,M,,0142*58
$GPGGA,084945.30,4548.6589409,N,00837.7259880,E,4,12,1.38,212.071,M,48.401,M,,0143*58
$GPGGA,084945.40,4548.6589409,N,00837.7259880,E,4,12,1.38,212.071,M,48.401,M,,0144*58
$GPGGA,084945.50,4548.6589409,N,00837.7259880,E,4,12,1.38,212.071,M,48.401,M,,0145*58
$GPGGA,084945.60,4548.6589409,N,00837.7259880,E,4,12,1.38,212.071,M,48.401,M,,0146*58
$GPGGA,084945.70,4548.6589409,N,00837.7259880,E,4,12,1.38,212.071,M,48.401,M,,0147*58
$GPGGA,084945.80,4548.6589409,N,00837.7259880,E,4,12,1.38,212.071,M,48.401,M,,0148*58
$GPGGA,084945.90,4548.6589409,N,00837.7259880,E,4,12,1.38,212.071,M,48.401,M,,0149*58
$GPGGA,084946.00,4548.6589409,N,00837.7259880,E,4,12,1.38,212.071,M,48.401,M,,0150*5A
$GPGGA,084946.10,4548.6589400,N,00837.7259884,E,4,12,1.38,212.072,M,48.401,M,,0151*54
$GPGGA,084946.20,4548.6589391,N,00837.7259882,E,4,12,1.38,212.072,M,48.401,M,,0152*5D
$GPGGA,084946.30,4548.6589385,N,00837.7259881,E,4,12,1.38,212.072,M,48.401,M,,0153*5B
$GPGGA,084946.40,4548.6589382,N,00837.7259875,E,4,12,1.38,212.073,M,48.401,M,,0154*56
$GPGGA,084946.50,4548.6589387,N,00837.7259870,E,4,12,1.38,212.073,M,48.401,M,,0155*56
$GPGGA,084946.60,4548.6589389,N,00837.7259865,E,4,12,1.38,212.073,M,48.401,M,,0156*5C
$GPGGA,084946.70,4548.6589392,N,00837.7259862,E,4,12,1.38,212.073,M,48.401,M,,0157*51
$GPGGA,084946.80,4548.6589392,N,00837.7259863,E,4,12,1.38,212.073,M,48.401,M,,0158*50
$GPGGA,084946.90,4548.6589389,N,00837.7259864,E,4,12,1.38,212.073,M,48.401,M,,0159*5D
$GPGGA,084947.00,4548.6589390,N,00837.7259865,E,4,12,1.38,212.073,M,48.401,M,,0160*56
$GPGGA,084947.10,4548.6589395,N,00837.7259864,E,4,12,1.38,212.073,M,48.401,M,,0161*52
$GPGGA,084947.20,4548.6589407,N,00837.7259861,E,4,12,1.38,212.073,M,48.401,M,,0162*5B
$GPGGA,084947.30,4548.6589418,N,00837.7259857,E,4,12,1.38,212.073,M,48.401,M,,0163*50
$GPGGA,084947.40,4548.6589429,N,00837.7259854,E,4,12,1.38,212.074,M,48.401,M,,0164*56
$GPGGA,084947.50,4548.6589441,N,00837.7259854,E,4,12,1.38,212.074,M,48.401,M,,0165*58
$GPGGA,084947.60,4548.6589444,N,00837.7259859,E,4,12,1.38,212.074,M,48.401,M,,0166*50
$GPGGA,084947.70,4548.6589437,N,00837.7259868,E,4,12,1.38,212.075,M,48.401,M,,0167*57
$GPGGA,084947.80,4548.6589418,N,00837.7259880,E,4,12,1.38,212.076,M,48.401,M,,0168*5F
$GPGGA,084947.90,4548.6589389,N,00837.7259890,E,4,12,1.38,212.077,M,48.401,M,,0169*50
$GPGGA,084948.00,4548.6589360,N,00837.7259901,E,4,12,1.38,212.077,M,48.401,M,,0170*50
$GPGGA,084948.10,4548.6589343,N,00837.7259911,E,4,12,1.38,212.078,M,48.401,M,,0171*5F
$GPGGA,084948.20,4548.6589343,N,00837.7259920,E,4,12,1.38,212.079,M,48.401,M,,0172*5C
$GPGGA,084948.30,4548.6589355,N,00837.7259921,E,4,12,1.38,212.080,M,48.401,M,,0173*5C
$GPGGA,084948.40,4548.6589367,N,00837.7259916,E,4,12,1.38,212.080,M,48.401,M,,0174*59
$GPGGA,084948.50,4548.6589377,N,00837.7259908,E,4,12,1.38,212.081,M,48.401,M,,0175*56
$GPGGA,084948.60,4548.6589383,N,00837.7259903,E,4,12,1.38,212.081,M,48.401,M,,0176*56
$GPGGA,084948.70,4548.6589387,N,00837.7259901,E,4,12,1.38,212.082,M,48.401,M,,0177*53
$GPGGA,084948.80,4548.6589387,N,00837.7259902,E,4,12,1.38,212.082,M,48.401,M,,0178*50
$GPGGA,084948.90,4548.6589390,N,00837.7259904,E,4,12,1.38,212.083,M,48.401,M,,0179*51
$GPGGA,084949.00,4548.6589395,N,00837.7259907,E,4,12,1.38,212.083,M,48.401,M,,0180*59
$GPGGA,084949.10,4548.6589395,N,00837.7259914,E,4,12,1.38,212.083,M,48.401,M,,0181*5B
$GPGGA,084949.20,4548.6589392,N,00837.7259921,E,4,12,1.38,212.084,M,48.401,M,,0182*5D
$GPGGA,084949.30,4548.6589392,N,00837.7259928,E,4,12,1.38,212.084,M,48.401,M,,0183*54
$GPGGA,084949.40,4548.6589388,N,00837.7259934,E,4,12,1.38,212.085,M,48.401,M,,0184*53
$GPGGA,084949.50,4548.6589386,N,00837.7259934,E,4,12,1.38,212.085,M,48.401,M,,0185*5D
$GPGGA,084949.60,4548.6589387,N,00837.7259928,E,4,12,1.38,212.086,M,48.401,M,,0186*52
$GPGGA,084949.70,4548.6589384,N,00837.7259918,E,4,12,1.38,212.086,M,48.401,M,,0187*52
$GPGGA,084949.80,4548.6589380,N,00837.7259909,E,4,12,1.38,212.087,M,48.401,M,,0188*57
$GPGGA,084949.90,4548.6589377,N,00837.7259910,E,4,12,1.38,212.087,M,48.401,M,,0189*57
$GPGGA,084950.00,4548.6589372,N,00837.7259921,E,4,12,1.39,212.087,M,48.401,M,,0190*58
$GPGGA,084950.10,4548.6589370,N,00837.7259938,E,4,12,1.39,212.088,M,48.401,M,,0191*5D
$GPGGA,084950.20,4548.6589369,N,00837.7259953,E,4,12,1.39,212.088,M,48.401,M,,0192*58
$GPGGA,084950.30,4548.6589368,N,00837.7259963,E,4,12,1.39,212.089,M,48.401,M,,0193*5B
$GPGGA,084950.40,4548.6589365,N,00837.7259965,E,4,12,1.39,212.089,M,48.401,M,,0194*50
$GPGGA,084950.50,4548.6589363,N,00837.7259957,E,4,12,1.39,212.089,M,48.401,M,,0195*57
$GPGGA,084950.60,4548.6589367,N,00837.7259945,E,4,12,1.39,212.089,M,48.401,M,,0196*50
$GPGGA,084950.70,4548.6589374,N,00837.7259935,E,4,12,1.39,212.089,M,48.401,M,,0197*55
$GPGGA,084950.80,4548.6589392,N,00837.7259932,E,4,12,1.39,212.089,M,48.401,M,,0198*5A
$GPGGA,084950.90,4548.6589423,N,00837.7259932,E,4,12,1.39,212.089,M,48.401,M,,0199*57
$GPGGA,084951.00,4548.6589445,N,00837.7259931,E,4,12,1.39,212.089,M,48.401,M,,0200*5F
$GPGGA,084951.10,4548.6589448,N,00837.7259926,E,4,12,1.39,212.089,M,48.401,M,,0201*54
$GPGGA,084951.20,4548.6589446,N,00837.7259916,E,4,12,1.39,212.088,M,48.401,M,,0202*58
$GPGGA,084951.30,4548.6589453,N,00837.7259903,E,4,12,1.39,212.088,M,48.401,M,,0203*58
$GPGGA,084951.40,4548.6589472,N,00837.7259889,E,4,12,1.39,212.088,M,48.401,M,,0204*58
$GPGGA,084951.50,4548.6589483,N,00837.7259882,E,4,12,1.39,212.088,M,48.401,M,,0205*5D
$GPGGA,084951.60,4548.6589481,N,00837.7259891,E,4,12,1.39,212.088,M,48.401,M,,0206*5D
$GPGGA,084951.70,4548.6589472,N,00837.7259908,E,4,12,1.39,212.088,M,48.401,M,,0207*50
$GPGGA,084951.80,4548.6589476,N,00837.7259925,E,4,12,1.39,212.088,M,48.401,M,,0208*5B
$GPGGA,084951.90,4548.6589492,N,00837.7259931,E,4,12,1.39,212.088,M,48.401,M,,0209*54
$GPGGA,084952.00,4548.6589525,N,00837.7259924,E,4,12,1.39,212.089,M,48.401,M,,0210*5E
$GPGGA,084952.10,4548.6589554,N,00837.7259910,E,4,12,1.39,212.089,M,48.401,M,,0211*5F
$GPGGA,084952.20,4548.6589572,N,00837.7259894,E,4,12,1.39,212.089,M,48.401,M,,0212*56
$GPGGA,084952.30,4548.6589578,N,00837.7259882,E,4,12,1.39,212.089,M,48.401,M,,0213*5B
$GPGGA,084952.40,4548.6589569,N,00837.7259875,E,4,12,1.39,212.089,M,48.401,M,,0214*53
$GPGGA,084952.50,4548.6589551,N,00837.7259877,E,4,12,1.39,212.088,M,48.401,M,,0215*5B
$GPGGA,084952.60,4548.6589542,N,00837.7259878,E,4,12,1.39,212.087,M,48.401,M,,0216*59
$GPGGA,084952.70,4548.6589559,N,00837.7259867,E,4,12,1.39,212.086,M,48.401,M,,0217*5C
$GPGGA,084952.80,4548.6589588,N,00837.7259849,E,4,12,1.39,212.085,M,48.401,M,,0218*5F
$GPGGA,084952.90,4548.6589620,N,00837.7259828,E,4,12,1.39,212.084,M,48.401,M,,0219*58
$GPGGA,084953.00,4548.6589653,N,00837.7259808,E,4,12,1.39,212.082,M,48.401,M,,0220*5A
$GPGGA,084953.10,4548.6589678,N,00837.7259795,E,4,12,1.39,212.081,M,48.401,M,,0221*5B
$GPGGA,084953.20,4548.6589693,N,00837.7259791,E,4,12,1.39,212.079,M,48.401,M,,0222*5D
$GPGGA,084953.30,4548.6589710,N,00837.7259795,E,4,12,1.39,212.078,M,48.401,M,,0223*52
$GPGGA,084953.40,4548.6589714,N,00837.7259805,E,4,12,1.39,212.077,M,48.401,M,,0224*5F
$GPGGA,084953.50,4548.6589702,N,00837.7259817,E,4,12,1.39,212.076,M,48.401,M,,0225*5A
$GPGGA,084953.60,4548.6589684,N,00837.7259826,E,4,12,1.39,212.076,M,48.401,M,,0226*57
$GPGGA,084953.70,4548.6589657,N,00837.7259829,E,4,12,1.39,212.076,M,48.401,M,,0227*56
$GPGGA,084953.80,4548.6589624,N,00837.7259831,E,4,12,1.39,212.077,M,48.401,M,,0228*5A
$GPGGA,084953.90,4548.6589586,N,00837.7259833,E,4,12,1.39,212.077,M,48.401,M,,0229*53
$GPGGA,084954.00,4548.6589549,N,00837.7259836,E,4,12,1.39,212.078,M,48.401,M,,0230*5C
$GPGGA,084954.10,4548.6589504,N,00837.7259842,E,4,12,1.39,212.078,M,48.401,M,,0231*56
$GPGGA,084954.20,4548.6589456,N,00837.7259846,E,4,12,1.39,212.078,M,48.401,M,,0232*54
$GPGGA,084954.30,4548.6589421,N,00837.7259847,E,4,12,1.39,212.078,M,48.401,M,,0233*55
$GPGGA,084954.40,4548.6589393,N,00837.7259843,E,4,12,1.39,212.079,M,48.401,M,,0234*5E
$GPGGA,084954.50,4548.6589382,N,00837.7259835,E,4,12,1.39,212.079,M,48.401,M,,0235*5F
$GPGGA,084954.60,4548.6589356,N,00837.7259823,E,4,12,1.39,212.080,M,48.401,M,,0236*57
$GPGGA,084954.70,4548.6589325,N,00837.7259812,E,4,12,1.39,212.080,M,48.401,M,,0237*51
$GPGGA,084954.80,4548.6589306,N,00837.7259817,E,4,12,1.39,212.081,M,48.401,M,,0238*54
$GPGGA,084954.90,4548.6589325,N,00837.7259848,E,4,12,1.39,212.082,M,48.401,M,,0239*5C
$GPGGA,084955.00,4548.6589384,N,00837.7259895,E,4,11,1.42,212.085,M,48.401,M,,0240*59
$GPGGA,084955.10,4548.6589444,N,00837.7259940,E,4,12,1.39,212.087,M,48.401,M,,0241*56
$GPGGA,084955.20,4548.6589494,N,00837.7259969,E,4,12,1.39,212.089,M,48.401,M,,0242*5E
$GPGGA,084955.30,4548.6589527,N,00837.7259983,E,4,12,1.39,212.091,M,48.401,M,,0243*5A
$GPGGA,084955.40,4548.6589549,N,00837.7259980,E,4,12,1.39,212.091,M,48.401,M,,0244*51
$GPGGA,084955.50,4548.6589556,N,00837.7259964,E,4,12,1.39,212.091,M,48.401,M,,0245*55
$GPGGA,084955.60,4548.6589560,N,00837.7259939,E,4,12,1.39,212.092,M,48.401,M,,0246*5B
$GPGGA,084955.70,4548.6589570,N,00837.7259910,E,4,12,1.39,212.091,M,48.401,M,,0247*52
$GPGGA,084955.80,4548.6589589,N,00837.7259883,E,4,12,1.39,212.090,M,48.401,M,,0248*5E
$GPGGA,084955.90,4548.6589615,N,00837.7259861,E,4,12,1.39,212.090,M,48.401,M,,0249*54
$GPGGA,084956.00,4548.6589638,N,00837.7259845,E,4,12,1.39,212.089,M,48.401,M,,0250*57
$GPGGA,084956.10,4548.6589659,N,00837.7259835,E,4,12,1.39,212.087,M,48.401,M,,0251*59
$GPGGA,084956.20,4548.6589659,N,00837.7259835,E,4,12,1.39,212.087,M,48.401,M,,0252*59
$GPGGA,084956.30,4548.6589659,N,00837.7259835,E,4,12,1.39,212.087,M,48.401,M,,0253*59
$GPGGA,084956.40,4548.6589659,N,00837.7259835,E,4,12,1.39,212.087,M,48.401,M,,0254*59
$GPGGA,084956.50,4548.6589659,N,00837.7259835,E,4,12,1.39,212.087,M,48.401,M,,0255*59
$GPGGA,084956.60,4548.6589659,N,00837.7259835,E,4,12,1.39,212.087,M,48.401,M,,0256*59
$GPGGA,084956.70,4548.6589659,N,00837.7259835,E,4,12,1.39,212.087,M,48.401,M,,0257*59
$GPGGA,084956.80,4548.6589659,N,00837.7259835,E,4,12,1.39,212.087,M,48.401,M,,0258*59
$GPGGA,084956.90,4548.6589659,N,00837.7259835,E,4,12,1.39,212.087,M,48.401,M,,0259*59
$GPGGA,084957.00,4548.6589659,N,00837.7259835,E,4,12,1.39,212.087,M,48.401,M,,0260*5B
$GPGGA,084957.10,4548.6589659,N,00837.7259835,E,4,12,1.39,212.087,M,48.401,M,,0261*5B
$GPGGA,084957.20,4548.6589659,N,00837.7259835,E,4,12,1.39,212.087,M,48.401,M,,0262*5B
$GPGGA,084957.30,4548.6589659,N,00837.7259835,E,4,12,1.39,212.087,M,48.401,M,,0263*5B
$GPGGA,084957.40,4548.6589659,N,00837.7259835,E,4,12,1.39,212.087,M,48.401,M,,0264*5B
$GPGGA,084957.50,4548.6589659,N,00837.7259835,E,4,12,1.39,212.087,M,48.401,M,,0265*5B
$GPGGA,084957.60,4548.6589659,N,00837.7259835,E,4,12,1.39,212.087,M,48.401,M,,0266*5B
$GPGGA,084957.70,4548.6589659,N,00837.7259835,E,4,12,1.39,212.087,M,48.401,M,,0267*5B
$GPGGA,084957.80,4548.6589659,N,00837.7259835,E,4,12,1.39,212.087,M,48.401,M,,0268*5B
$GPGGA,084957.90,4548.6589659,N,00837.7259835,E,4,12,1.39,212.087,M,48.401,M,,0269*5B
$GPGGA,084958.00,4548.6589659,N,00837.7259835,E,4,12,1.39,212.087,M,48.401,M,,0270*55
$GPGGA,084958.10,4548.6589659,N,00837.7259835,E,4,12,1.39,212.087,M,48.401,M,,0271*55
$GPGGA,084958.20,4548.6589659,N,00837.7259835,E,4,12,1.39,212.087,M,48.401,M,,0272*55
$GPGGA,084958.30,4548.6589659,N,00837.7259835,E,4,12,1.39,212.087,M,48.401,M,,0273*55
$GPGGA,084958.40,4548.6589659,N,00837.7259835,E,4,12,1.39,212.087,M,48.401,M,,0274*55
$GPGGA,084958.50,4548.6589659,N,00837.7259835,E,4,12,1.39,212.087,M,48.401,M,,0275*55
$GPGGA,084958.60,4548.6589659,N,00837.7259835,E,4,12,1.39,212.087,M,48.401,M,,0276*55
$GPGGA,084958.70,4548.6589659,N,00837.7259835,E,4,12,1.39,212.087,M,48.401,M,,0277*55
$GPGGA,084958.80,4548.6589659,N,00837.7259835,E,4,12,1.39,212.087,M,48.401,M,,0278*55
$GPGGA,084958.90,4548.6589659,N,00837.7259835,E,4,12,1.39,212.087,M,48.401,M,,0279*55
$GPGGA,084959.00,4548.6589659,N,00837.7259835,E,4,12,1.39,212.087,M,48.401,M,,0280*5B
$GPGGA,084959.10,4548.6589659,N,00837.7259835,E,4,12,1.39,212.087,M,48.401,M,,0281*5B
$GPGGA,084959.20,4548.6589659,N,00837.7259835,E,4,12,1.39,212.087,M,48.401,M,,0282*5B
$GPGGA,084959.30,4548.6589659,N,00837.7259835,E,4,12,1.39,212.087,M,48.401,M,,0283*5B
$GPGGA,084959.40,4548.6589659,N,00837.7259835,E,4,12,1.39,212.087,M,48.401,M,,0284*5B
$GPGGA,084959.50,4548.6589659,N,00837.7259835,E,4,12,1.39,212.087,M,48.401,M,,0285*5B
$GPGGA,084959.60,4548.6589659,N,00837.7259835,E,4,12,1.39,212.087,M,48.401,M,,0286*5B
$GPGGA,084959.70,4548.6589659,N,00837.7259835,E,4,12,1.39,212.087,M,48.401,M,,0287*5B
$GPGGA,084959.80,4548.6589659,N,00837.7259835,E,4,12,1.39,212.087,M,48.401,M,,0288*5B
$GPGGA,084959.90,4548.6589659,N,00837.7259835,E,4,12,1.39,212.087,M,48.401,M,,0289*5B
$GPGGA,085000.00,4548.6589659,N,00837.7259835,E,4,12,1.39,212.087,M,48.401,M,,0290*5E
$GPGGA,085000.10,4548.6589659,N,00837.7259835,E,4,12,1.39,212.087,M,48.401,M,,0291*5E
$GPGGA,085000.20,4548.6589659,N,00837.7259835,E,4,12,1.39,212.087,M,48.401,M,,0292*5E
$GPGGA,085000.30,4548.6589659,N,00837.7259835,E,4,12,1.39,212.087,M,48.401,M,,0293*5E
$GPGGA,085000.40,4548.6589659,N,00837.7259835,E,4,12,1.39,212.087,M,48.401,M,,0294*5E
$GPGGA,085000.50,4548.6589659,N,00837.7259835,E,4,12,1.39,212.087,M,48.401,M,,0295*5E
$GPGGA,085000.60,4548.6589659,N,00837.7259835,E,4,12,1.39,212.087,M,48.401,M,,0296*5E
$GPGGA,085000.70,4548.6589659,N,00837.7259835,E,4,12,1.39,212.087,M,48.401,M,,0297*5E
$GPGGA,085000.80,4548.6589659,N,00837.7259835,E,4,12,1.39,212.087,M,48.401,M,,0298*5E
$GPGGA,085000.90,4548.6589659,N,00837.7259835,E,4,12,1.39,212.087,M,48.401,M,,0299*5E
$GPGGA,085001.00,4548.6589659,N,00837.7259835,E,4,12,1.39,212.087,M,48.401,M,,0300*57
$GPGGA,085001.10,4548.6589659,N,00837.7259835,E,4,12,1.39,212.087,M,48.401,M,,0301*57
$GPGGA,085001.20,4548.6589659,N,00837.7259835,E,4,12,1.39,212.087,M,48.401,M,,0302*57
$GPGGA,085001.30,4548.6589659,N,00837.7259835,E,4,12,1.39,212.087,M,48.401,M,,0303*57
$GPGGA,085001.40,4548.6589659,N,00837.7259835,E,4,12,1.39,212.087,M,48.401,M,,0304*57
$GPGGA,085001.50,4548.6589659,N,00837.7259835,E,4,12,1.39,212.087,M,48.401,M,,0305*57
$GPGGA,085001.60,4548.6589659,N,00837.7259835,E,4,12,1.39,212.087,M,48.401,M,,0306*57
$GPGGA,085001.70,4548.6589659,N,00837.7259835,E,4,12,1.39,212.087,M,48.401,M,,0307*57
$GPGGA,085001.80,4548.6589659,N,00837.7259835,E,4,12,1.39,212.087,M,48.401,M,,0308*57
$GPGGA,085001.90,4548.6589659,N,00837.7259835,E,4,12,1.39,212.087,M,48.401,M,,0309*57
$GPGGA,085002.00,4548.6589659,N,00837.7259835,E,4,12,1.39,212.087,M,48.401,M,,0310*55
$GPGGA,085002.10,4548.6589659,N,00837.7259835,E,4,12,1.39,212.087,M,48.401,M,,0311*55
$GPGGA,085002.20,4548.6589659,N,00837.7259835,E,4,12,1.39,212.087,M,48.401,M,,0312*55
$GPGGA,085002.30,4548.6589659,N,00837.7259835,E,4,12,1.39,212.087,M,48.401,M,,0313*55
$GPGGA,085002.40,4548.6589659,N,00837.7259835,E,4,12,1.39,212.087,M,48.401,M,,0314*55
$GPGGA,085002.50,4548.6589659,N,00837.7259835,E,4,12,1.39,212.087,M,48.401,M,,0315*55
$GPGGA,085002.60,4548.6589659,N,00837.7259835,E,4,12,1.39,212.087,M,48.401,M,,0316*55
$GPGGA,085002.70,4548.6589659,N,00837.7259835,E,4,12,1.39,212.087,M,48.401,M,,0317*55
$GPGGA,085002.80,4548.6589659,N,00837.7259835,E,4,12,1.39,212.087,M,48.401,M,,0318*55
$GPGGA,085002.90,4548.6589659,N,00837.7259835,E,4,12,1.39,212.087,M,48.401,M,,0319*55
$GPGGA,085003.00,4548.6589659,N,00837.7259835,E,4,12,1.39,212.087,M,48.401,M,,0320*57
$GPGGA,085003.10,4548.6589659,N,00837.7259835,E,4,12,1.39,212.087,M,48.401,M,,0321*57
$GPGGA,085003.20,4548.6589659,N,00837.7259835,E,4,12,1.39,212.087,M,48.401,M,,0322*57
$GPGGA,085003.30,4548.6589659,N,00837.7259835,E,4,12,1.39,212.087,M,48.401,M,,0323*57
$GPGGA,085003.40,4548.6589659,N,00837.7259835,E,4,12,1.39,212.087,M,48.401,M,,0324*57
$GPGGA,085003.50,4548.6589659,N,00837.7259835,E,4,12,1.39,212.087,M,48.401,M,,0325*57
$GPGGA,085003.60,4548.6589659,N,00837.7259835,E,4,12,1.39,212.087,M,48.401,M,,0326*57
$GPGGA,085003.70,4548.6589659,N,00837.7259835,E,4,12,1.39,212.087,M,48.401,M,,0327*57
$GPGGA,085003.80,4548.6589659,N,00837.7259835,E,4,12,1.39,212.087,M,48.401,M,,0328*57
$GPGGA,085003.90,4548.6589659,N,00837.7259835,E,4,12,1.39,212.087,M,48.401,M,,0329*57
$GPGGA,085004.00,4548.6589659,N,00837.7259835,E,4,12,1.39,212.087,M,48.401,M,,0330*51
$GPGGA,085004.10,4548.6589659,N,00837.7259835,E,4,12,1.39,212.087,M,48.401,M,,0331*51
$GPGGA,085004.20,4548.6589659,N,00837.7259835,E,4,12,1.39,212.087,M,48.401,M,,0332*51
$GPGGA,085004.30,4548.6589659,N,00837.7259835,E,4,12,1.39,212.087,M,48.401,M,,0333*51
$GPGGA,085004.40,4548.6589659,N,00837.7259835,E,4,12,1.39,212.087,M,48.401,M,,0334*51
$GPGGA,085004.50,4548.6589659,N,00837.7259835,E,4,12,1.39,212.087,M,48.401,M,,0335*51
$GPGGA,085004.60,4548.6589659,N,00837.7259835,E,4,12,1.39,212.087,M,48.401,M,,0336*51
$GPGGA,085004.70,4548.6589659,N,00837.7259835,E,4,12,1.39,212.087,M,48.401,M,,0337*51
$GPGGA,085004.80,4548.6589659,N,00837.7259835,E,4,12,1.39,212.087,M,48.401,M,,0338*51
$GPGGA,085004.90,4548.6589659,N,00837.7259835,E,4,12,1.39,212.087,M,48.401,M,,0339*51
$GPGGA,085005.00,4548.6589659,N,00837.7259835,E,4,12,1.39,212.087,M,48.401,M,,0340*57
$GPGGA,085005.10,4548.6589659,N,00837.7259835,E,4,12,1.39,212.087,M,48.401,M,,0341*57
$GPGGA,085005.20,4548.6589659,N,00837.7259835,E,4,12,1.39,212.087,M,48.401,M,,0342*57
$GPGGA,085005.30,4548.6589659,N,00837.7259835,E,4,12,1.39,212.087,M,48.401,M,,0343*57
$GPGGA,085005.40,4548.6589659,N,00837.7259835,E,4,12,1.39,212.087,M,48.401,M,,0344*57
$GPGGA,085005.50,4548.6589659,N,00837.7259835,E,4,12,1.39,212.087,M,48.401,M,,0345*57
$GPGGA,085005.60,4548.6589659,N,00837.7259835,E,4,12,1.39,212.087,M,48.401,M,,0346*57
$GPGGA,085005.70,4548.6589659,N,00837.7259835,E,4,12,1.39,212.087,M,48.401,M,,0347*57
$GPGGA,085005.80,4548.6589659,N,00837.7259835,E,4,12,1.39,212.087,M,48.401,M,,0348*57
$GPGGA,085005.90,4548.6589659,N,00837.7259835,E,4,12,1.39,212.087,M,48.401,M,,0349*57
$GPGGA,085006.00,4548.6589659,N,00837.7259835,E,4,12,1.39,212.087,M,48.401,M,,0350*55
$GPGGA,085006.10,4548.6589659,N,00837.7259835,E,4,12,1.39,212.087,M,48.401,M,,0351*55
$GPGGA,085006.20,4548.6589659,N,00837.7259835,E,4,12,1.39,212.087,M,48.401,M,,0352*55
$GPGGA,085006.30,4548.6589659,N,00837.7259835,E,4,12,1.39,212.087,M,48.401,M,,0353*55
$GPGGA,085006.40,4548.6589659,N,00837.7259835,E,4,12,1.39,212.087,M,48.401,M,,0354*55
$GPGGA,085006.50,4548.6589659,N,00837.7259835,E,4,12,1.39,212.087,M,48.401,M,,0355*55
$GPGGA,085006.60,4548.6589659,N,00837.7259835,E,4,12,1.39,212.087,M,48.401,M,,0356*55
$GPGGA,085006.70,4548.6589659,N,00837.7259835,E,4,12,1.39,212.087,M,48.401,M,,0357*55
$GPGGA,085006.80,4548.6589659,N,00837.7259835,E,4,12,1.39,212.087,M,48.401,M,,0358*55
$GPGGA,085006.90,4548.6589659,N,00837.7259835,E,4,12,1.39,212.087,M,48.401,M,,0359*55
$GPGGA,085007.00,4548.6589659,N,00837.7259835,E,4,12,1.39,212.087,M,48.401,M,,0360*57
$GPGGA,085007.10,4548.6589659,N,00837.7259835,E,4,12,1.39,212.087,M,48.401,M,,0361*57
$GPGGA,085007.20,4548.6589659,N,00837.7259835,E,4,12,1.39,212.087,M,48.401,M,,0362*57
$GPGGA,085007.30,4548.6589659,N,00837.7259835,E,4,12,1.39,212.087,M,48.401,M,,0363*57
$GPGGA,085007.40,4548.6589659,N,00837.7259835,E,4,12,1.39,212.087,M,48.401,M,,0364*57
$GPGGA,085007.50,4548.6589659,N,00837.7259835,E,4,12,1.39,212.087,M,48.401,M,,0365*57
$GPGGA,085007.60,4548.6589659,N,00837.7259835,E,4,12,1.39,212.087,M,48.401,M,,0366*57
$GPGGA,085007.70,4548.6589659,N,00837.7259835,E,4,12,1.39,212.087,M,48.401,M,,0367*57
$GPGGA,085007.80,4548.6589659,N,00837.7259835,E,4,12,1.39,212.087,M,48.401,M,,0368*57
$GPGGA,085007.90,4548.6589659,N,00837.7259835,E,4,12,1.39,212.087,M,48.401,M,,0369*57
$GPGGA,085008.00,4548.6589659,N,00837.7259835,E,4,12,1.39,212.087,M,48.401,M,,0370*59
$GPGGA,085008.10,4548.6589659,N,00837.7259835,E,4,12,1.39,212.087,M,48.401,M,,0371*59
$GPGGA,085008.20,4548.6589659,N,00837.7259835,E,4,12,1.39,212.087,M,48.401,M,,0372*59
$GPGGA,085008.30,4548.6589659,N,00837.7259835,E,4,12,1.39,212.087,M,48.401,M,,0373*59
$GPGGA,085008.40,4548.6589659,N,00837.7259835,E,4,12,1.39,212.087,M,48.401,M,,0374*59
$GPGGA,085008.50,4548.6589659,N,00837.7259835,E,4,12,1.39,212.087,M,48.401,M,,0375*59
$GPGGA,085008.60,4548.6589659,N,00837.7259835,E,4,12,1.39,212.087,M,48.401,M,,0376*59
$GPGGA,085008.70,4548.6589659,N,00837.7259835,E,4,12,1.39,212.087,M,48.401,M,,0377*59
$GPGGA,085008.80,4548.6589659,N,00837.7259835,E,4,12,1.39,212.087,M,48.401,M,,0378*59
$GPGGA,085008.90,4548.6589659,N,00837.7259835,E,4,12,1.39,212.087,M,48.401,M,,0379*59
$GPGGA,085009.00,4548.6589659,N,00837.7259835,E,4,12,1.39,212.087,M,48.401,M,,0380*57
$GPGGA,085009.10,4548.6589659,N,00837.7259835,E,4,12,1.39,212.087,M,48.401,M,,0381*57
$GPGGA,085009.20,4548.6589659,N,00837.7259835,E,4,12,1.39,212.087,M,48.401,M,,0382*57
$GPGGA,085009.30,4548.6589659,N,00837.7259835,E,4,12,1.39,212.087,M,48.401,M,,0383*57
$GPGGA,085009.40,4548.6589659,N,00837.7259835,E,4,12,1.39,212.087,M,48.401,M,,0384*57
$GPGGA,085009.50,4548.6589659,N,00837.7259835,E,4,12,1.39,212.087,M,48.401,M,,0385*57
$GPGGA,085009.60,4548.6589659,N,00837.7259835,E,4,12,1.39,212.087,M,48.401,M,,0386*57
$GPGGA,085009.70,4548.6589659,N,00837.7259835,E,4,12,1.39,212.087,M,48.401,M,,0387*57
$GPGGA,085009.80,4548.6589659,N,00837.7259835,E,4,12,1.39,212.087,M,48.401,M,,0388*57
$GPGGA,085009.90,4548.6589659,N,00837.7259835,E,4,12,1.39,212.087,M,48.401,M,,0389*57
$GPGGA,085010.00,4548.6589659,N,00837.7259835,E,4,12,1.39,212.087,M,48.401,M,,0390*5E
$GPGGA,085010.10,4548.6589659,N,00837.7259835,E,4,12,1.39,212.087,M,48.401,M,,0391*5E
$GPGGA,085010.20,4548.6589659,N,00837.7259835,E,4,12,1.39,212.087,M,48.401,M,,0392*5E
$GPGGA,085010.30,4548.6589659,N,00837.7259835,E,4,12,1.39,212.087,M,48.401,M,,0393*5E
$GPGGA,085010.40,4548.6589659,N,00837.7259835,E,4,12,1.39,212.087,M,48.401,M,,0394*5E
$GPGGA,085010.50,4548.6589659,N,00837.7259835,E,4,12,1.39,212.087,M,48.401,M,,0395*5E
$GPGGA,085010.60,4548.6589659,N,00837.7259835,E,4,12,1.39,212.087,M,48.401,M,,0396*5E
$GPGGA,085010.70,4548.6589659,N,00837.7259835,E,4,12,1.39,212.087,M,48.401,M,,0397*5E
$GPGGA,085010.80,4548.6589659,N,00837.7259835,E,4,12,1.39,212.087,M,48.401,M,,0398*5E
$GPGGA,085010.90,4548.6589659,N,00837.7259835,E,4,12,1.39,212.087,M,48.401,M,,0399*5E
$GPGGA,085011.00,4548.6589659,N,00837.7259835,E,4,12,1.39,212.087,M,48.401,M,,0400*51
$GPGGA,085011.10,4548.6589659,N,00837.7259835,E,4,12,1.39,212.087,M,48.401,M,,0401*51
$GPGGA,085011.20,4548.6589659,N,00837.7259835,E,4,12,1.39,212.087,M,48.401,M,,0402*51
$GPGGA,085011.30,4548.6589659,N,00837.7259835,E,4,12,1.39,212.087,M,48.401,M,,0403*51
$GPGGA,085011.40,4548.6589659,N,00837.7259835,E,4,12,1.39,212.087,M,48.401,M,,0404*51
$GPGGA,085011.50,4548.6589659,N,00837.7259835,E,4,12,1.39,212.087,M,48.401,M,,0405*51
$GPGGA,085011.60,4548.6589659,N,00837.7259835,E,4,12,1.39,212.087,M,48.401,M,,0406*51
$GPGGA,085011.70,4548.6589659,N,00837.7259835,E,4,12,1.39,212.087,M,48.401,M,,0407*51
$GPGGA,085011.80,4548.6589659,N,00837.7259835,E,4,12,1.39,212.087,M,48.401,M,,0408*51
$GPGGA,085011.90,4548.6589659,N,00837.7259835,E,4,12,1.39,212.087,M,48.401,M,,0409*51
$GPGGA,085012.00,4548.6589659,N,00837.7259835,E,4,12,1.39,212.087,M,48.401,M,,0410*53
$GPGGA,085012.10,4548.6589659,N,00837.7259835,E,4,12,1.39,212.087,M,48.401,M,,0411*53
$GPGGA,085012.20,4548.6589659,N,00837.7259835,E,4,12,1.39,212.087,M,48.401,M,,0412*53
$GPGGA,085012.30,4548.6589659,N,00837.7259835,E,4,12,1.39,212.087,M,48.401,M,,0413*53
$GPGGA,085012.40,4548.6589659,N,00837.7259835,E,4,12,1.39,212.087,M,48.401,M,,0414*53
$GPGGA,085012.50,4548.6589659,N,00837.7259835,E,4,12,1.39,212.087,M,48.401,M,,0415*53
$GPGGA,085012.60,4548.6589659,N,00837.7259835,E,4,12,1.39,212.087,M,48.401,M,,0416*53
$GPGGA,085012.70,4548.6589659,N,00837.7259835,E,4,12,1.39,212.087,M,48.401,M,,0417*53
$GPGGA,085012.80,4548.6589659,N,00837.7259835,E,4,12,1.39,212.087,M,48.401,M,,0418*53
$GPGGA,085012.90,4548.6589659,N,00837.7259835,E,4,12,1.39,212.087,M,48.401,M,,0419*53
$GPGGA,085013.00,4548.6589659,N,00837.7259835,E,4,12,1.39,212.087,M,48.401,M,,0420*51
$GPGGA,085013.10,4548.6589659,N,00837.7259835,E,4,12,1.39,212.087,M,48.401,M,,0421*51
$GPGGA,085013.20,4548.6589659,N,00837.7259835,E,4,12,1.39,212.087,M,48.401,M,,0422*51
$GPGGA,085013.30,4548.6589659,N,00837.7259835,E,4,12,1.39,212.087,M,48.401,M,,0423*51
$GPGGA,085013.40,4548.6589659,N,00837.7259835,E,4,12,1.39,212.087,M,48.401,M,,0424*51
$GPGGA,085013.50,4548.6589659,N,00837.7259835,E,4,12,1.39,212.087,M,48.401,M,,0425*51
$GPGGA,085013.60,4548.6589659,N,00837.7259835,E,4,12,1.39,212.087,M,48.401,M,,0426*51
$GPGGA,085013.70,4548.6589659,N,00837.7259835,E,4,12,1.39,212.087,M,48.401,M,,0427*51
$GPGGA,085013.80,4548.6589659,N,00837.7259835,E,4,12,1.39,212.087,M,48.401,M,,0428*51
$GPGGA,085013.90,4548.6589659,N,00837.7259835,E,4,12,1.39,212.087,M,48.401,M,,0429*51
$GPGGA,085014.00,4548.6589659,N,00837.7259835,E,4,12,1.39,212.087,M,48.401,M,,0430*57
$GPGGA,085014.10,4548.6589659,N,00837.7259835,E,4,12,1.39,212.087,M,48.401,M,,0431*57
$GPGGA,085014.20,4548.6589659,N,00837.7259835,E,4,12,1.39,212.087,M,48.401,M,,0432*57
$GPGGA,085014.30,4548.6589659,N,00837.7259835,E,4,12,1.39,212.087,M,48.401,M,,0433*57
$GPGGA,085014.40,4548.6589659,N,00837.7259835,E,4,12,1.39,212.087,M,48.401,M,,0434*57
$GPGGA,085014.50,4548.6589659,N,00837.7259835,E,4,12,1.39,212.087,M,48.401,M,,0435*57
$GPGGA,085014.60,4548.6589659,N,00837.7259835,E,4,12,1.39,212.087,M,48.401,M,,0436*57
$GPGGA,085014.70,4548.6589659,N,00837.7259835,E,4,12,1.39,212.087,M,48.401,M,,0437*57
$GPGGA,085014.80,4548.6589659,N,00837.7259835,E,4,12,1.39,212.087,M,48.401,M,,0438*57
$GPGGA,085014.90,4548.6589659,N,00837.7259835,E,4,12,1.39,212.087,M,48.401,M,,0439*57
$GPGGA,085015.00,4548.6589659,N,00837.7259835,E,4,12,1.39,212.087,M,48.401,M,,0440*51
$GPGGA,085015.10,4548.6589659,N,00837.7259835,E,4,12,1.39,212.087,M,48.401,M,,0441*51
$GPGGA,085015.20,4548.6589659,N,00837.7259835,E,4,12,1.39,212.087,M,48.401,M,,0442*51
$GPGGA,085015.30,4548.6589659,N,00837.7259835,E,4,12,1.39,212.087,M,48.401,M,,0443*51
$GPGGA,085015.40,4548.6589659,N,00837.7259835,E,4,12,1.39,212.087,M,48.401,M,,0444*51
$GPGGA,085015.50,4548.6589659,N,00837.7259835,E,4,12,1.39,212.087,M,48.401,M,,0445*51
$GPGGA,085015.60,4548.6589659,N,00837.7259835,E,4,12,1.39,212.087,M,48.401,M,,0446*51
$GPGGA,085015.70,4548.6589659,N,00837.7259835,E,4,12,1.39,212.087,M,48.401,M,,0447*51
$GPGGA,085015.80,4548.6589659,N,00837.7259835,E,4,12,1.39,212.087,M,48.401,M,,0448*51
$GPGGA,085015.90,4548.6589659,N,00837.7259835,E,4,12,1.39,212.087,M,48.401,M,,0449*51
$GPGGA,085016.00,4548.6589659,N,00837.7259835,E,4,12,1.39,212.087,M,48.401,M,,0450*53
$GPGGA,085016.10,4548.6589659,N,00837.7259835,E,4,12,1.39,212.087,M,48.401,M,,0451*53
$GPGGA,085016.20,4548.6589659,N,00837.7259835,E,4,12,1.39,212.087,M,48.401,M,,0452*53
$GPGGA,085016.30,4548.6589659,N,00837.7259835,E,4,12,1.39,212.087,M,48.401,M,,0453*53
$GPGGA,085016.40,4548.6589659,N,00837.7259835,E,4,12,1.39,212.087,M,48.401,M,,0454*53
$GPGGA,085016.50,4548.6589659,N,00837.7259835,E,4,12,1.39,212.087,M,48.401,M,,0455*53
$GPGGA,085016.60,4548.6589659,N,00837.7259835,E,4,12,1.39,212.087,M,48.401,M,,0456*53
$GPGGA,085016.70,4548.6589659,N,00837.7259835,E,4,12,1.39,212.087,M,48.401,M,,0457*53
$GPGGA,085016.80,4548.6589659,N,00837.7259835,E,4,12,1.39,212.087,M,48.401,M,,0458*53
$GPGGA,085016.90,4548.6589659,N,00837.7259835,E,4,12,1.39,212.087,M,48.401,M,,0459*53
$GPGGA,085017.00,4548.6589659,N,00837.7259835,E,4,12,1.39,212.087,M,48.401,M,,0460*51
$GPGGA,085017.10,4548.6589659,N,00837.7259835,E,4,12,1.39,212.087,M,48.401,M,,0461*51
$GPGGA,085017.20,4548.6589659,N,00837.7259835,E,4,12,1.39,212.087,M,48.401,M,,0462*51
$GPGGA,085017.30,4548.6589659,N,00837.7259835,E,4,12,1.39,212.087,M,48.401,M,,0463*51
$GPGGA,085017.40,4548.6589659,N,00837.7259835,E,4,12,1.39,212.087,M,48.401,M,,0464*51
$GPGGA,085017.50,4548.6589659,N,00837.7259835,E,4,12,1.39,212.087,M,48.401,M,,0465*51
$GPGGA,085017.60,4548.6589659,N,00837.7259835,E,4,12,1.39,212.087,M,48.401,M,,0466*51
$GPGGA,085017.70,4548.6589659,N,00837.7259835,E,4,12,1.39,212.087,M,48.401,M,,0467*51
$GPGGA,085017.80,4548.6589659,N,00837.7259835,E,4,12,1.39,212.087,M,48.401,M,,0468*51
$GPGGA,085017.90,4548.6589659,N,00837.7259835,E,4,12,1.39,212.087,M,48.401,M,,0469*51
$GPGGA,085018.00,4548.6589659,N,00837.7259835,E,4,12,1.39,212.087,M,48.401,M,,0470*5F
$GPGGA,085018.10,4548.6589659,N,00837.7259835,E,4,12,1.39,212.087,M,48.401,M,,0471*5F
$GPGGA,085018.20,4548.6589659,N,00837.7259835,E,4,12,1.39,212.087,M,48.401,M,,0472*5F
$GPGGA,085018.30,4548.6589659,N,00837.7259835,E,4,12,1.39,212.087,M,48.401,M,,0473*5F
$GPGGA,085018.40,4548.6589659,N,00837.7259835,E,4,12,1.39,212.087,M,48.401,M,,0474*5F
$GPGGA,085018.50,4548.6589659,N,00837.7259835,E,4,12,1.39,212.087,M,48.401,M,,0475*5F
$GPGGA,085018.60,4548.6589659,N,00837.7259835,E,4,12,1.39,212.087,M,48.401,M,,0476*5F
$GPGGA,085018.70,4548.6589659,N,00837.7259835,E,4,12,1.39,212.087,M,48.401,M,,0477*5F
$GPGGA,085018.80,4548.6589659,N,00837.7259835,E,4,12,1.39,212.087,M,48.401,M,,0478*5F
$GPGGA,085018.90,4548.6589659,N,00837.7259835,E,4,12,1.39,212.087,M,48.401,M,,0479*5F
$GPGGA,085019.00,4548.6589659,N,00837.7259835,E,4,12,1.39,212.087,M,48.401,M,,0480*51
$GPGGA,085019.10,4548.6589659,N,00837.7259835,E,4,12,1.39,212.087,M,48.401,M,,0481*51
$GPGGA,085019.20,4548.6589659,N,00837.7259835,E,4,12,1.39,212.087,M,48.401,M,,0482*51
$GPGGA,085019.30,4548.6589659,N,00837.7259835,E,4,12,1.39,212.087,M,48.401,M,,0483*51
$GPGGA,085019.40,4548.6589659,N,00837.7259835,E,4,12,1.39,212.087,M,48.401,M,,0484*51
$GPGGA,085019.50,4548.6589659,N,00837.7259835,E,4,12,1.39,212.087,M,48.401,M,,0485*51
$GPGGA,085019.60,4548.6589659,N,00837.7259835,E,4,12,1.39,212.087,M,48.401,M,,0486*51
$GPGGA,085019.70,4548.6589659,N,00837.7259835,E,4,12,1.39,212.087,M,48.401,M,,0487*51
$GPGGA,085019.80,4548.6589659,N,00837.7259835,E,4,12,1.39,212.087,M,48.401,M,,0488*51
$GPGGA,085019.90,4548.6589659,N,00837.7259835,E,4,12,1.39,212.087,M,48.401,M,,0489*51
$GPGGA,085020.00,4548.6589659,N,00837.7259835,E,4,12,1.39,212.087,M,48.401,M,,0490*5A
$GPGGA,085020.10,4548.6589659,N,00837.7259835,E,4,12,1.39,212.087,M,48.401,M,,0491*5A
$GPGGA,085020.20,4548.6589659,N,00837.7259835,E,4,12,1.39,212.087,M,48.401,M,,0492*5A
$GPGGA,085020.30,4548.6589659,N,00837.7259835,E,4,12,1.39,212.087,M,48.401,M,,0493*5A
$GPGGA,085020.40,4548.6589659,N,00837.7259835,E,4,12,1.39,212.087,M,48.401,M,,0494*5A
$GPGGA,085020.50,4548.6589659,N,00837.7259835,E,4,12,1.39,212.087,M,48.401,M,,0495*5A
$GPGGA,085020.60,4548.6589659,N,00837.7259835,E,4,12,1.39,212.087,M,48.401,M,,0496*5A
$GPGGA,085020.70,4548.6589659,N,00837.7259835,E,4,12,1.39,212.087,M,48.401,M,,0497*5A
$GPGGA,085020.80,4548.6589659,N,00837.7259835,E,4,12,1.39,212.087,M,48.401,M,,0498*5A
$GPGGA,085020.90,4548.6589659,N,00837.7259835,E,4,12,1.39,212.087,M,48.401,M,,0499*5A
$GPGGA,085021.00,4548.6589659,N,00837.7259835,E,4,12,1.39,212.087,M,48.401,M,,0500*53
$GPGGA,085021.10,4548.6589659,N,00837.7259835,E,4,12,1.39,212.087,M,48.401,M,,0501*53
$GPGGA,085021.20,4548.6589659,N,00837.7259835,E,4,12,1.39,212.087,M,48.401,M,,0502*53
$GPGGA,085021.30,4548.6589659,N,00837.7259835,E,4,12,1.39,212.087,M,48.401,M,,0503*53
$GPGGA,085021.40,4548.6589659,N,00837.7259835,E,4,12,1.39,212.087,M,48.401,M,,0504*53
$GPGGA,085021.50,4548.6589659,N,00837.7259835,E,4,12,1.39,212.087,M,48.401,M,,0505*53
$GPGGA,085021.60,4548.6589659,N,00837.7259835,E,4,12,1.39,212.087,M,48.401,M,,0506*53
$GPGGA,085021.70,4548.6589659,N,00837.7259835,E,4,12,1.39,212.087,M,48.401,M,,0507*53
$GPGGA,085021.80,4548.6589659,N,00837.7259835,E,4,12,1.39,212.087,M,48.401,M,,0508*53
$GPGGA,085021.90,4548.6589659,N,00837.7259835,E,4,12,1.39,212.087,M,48.401,M,,0509*53
$GPGGA,085022.00,4548.6589659,N,00837.7259835,E,4,12,1.39,212.087,M,48.401,M,,0510*51
$GPGGA,085022.10,4548.6589659,N,00837.7259835,E,4,12,1.39,212.087,M,48.401,M,,0511*51
$GPGGA,085022.20,4548.6589659,N,00837.7259835,E,4,12,1.39,212.087,M,48.401,M,,0512*51
$GPGGA,085022.30,4548.6589659,N,00837.7259835,E,4,12,1.39,212.087,M,48.401,M,,0513*51
$GPGGA,085022.40,4548.6589659,N,00837.7259835,E,4,12,1.39,212.087,M,48.401,M,,0514*51
$GPGGA,085022.50,4548.6589659,N,00837.7259835,E,4,12,1.39,212.087,M,48.401,M,,0515*51
$GPGGA,085022.60,4548.6589659,N,00837.7259835,E,4,12,1.39,212.087,M,48.401,M,,0516*51
$GPGGA,085022.70,4548.6589659,N,00837.7259835,E,4,12,1.39,212.087,M,48.401,M,,0517*51
$GPGGA,085022.80,4548.6589659,N,00837.7259835,E,4,12,1.39,212.087,M,48.401,M,,0518*51
$GPGGA,085022.90,4548.6589659,N,00837.7259835,E,4,12,1.39,212.087,M,48.401,M,,0519*51
$GPGGA,085023.00,4548.6589659,N,00837.7259835,E,4,12,1.39,212.087,M,48.401,M,,0520*53
$GPGGA,085023.10,4548.6589659,N,00837.7259835,E,4,12,1.39,212.087,M,48.401,M,,0521*53
$GPGGA,085023.20,4548.6589659,N,00837.7259835,E,4,12,1.39,212.087,M,48.401,M,,0522*53
$GPGGA,085023.30,4548.6589659,N,00837.7259835,E,4,12,1.39,212.087,M,48.401,M,,0523*53
$GPGGA,085023.40,4548.6589659,N,00837.7259835,E,4,12,1.39,212.087,M,48.401,M,,0524*53
$GPGGA,085023.50,4548.6589659,N,00837.7259835,E,4,12,1.39,212.087,M,48.401,M,,0525*53
$GPGGA,085023.60,4548.6589659,N,00837.7259835,E,4,12,1.39,212.087,M,48.401,M,,0526*53
$GPGGA,085023.70,4548.6589659,N,00837.7259835,E,4,12,1.39,212.087,M,48.401,M,,0527*53
$GPGGA,085023.80,4548.6589659,N,00837.7259835,E,4,12,1.39,212.087,M,48.401,M,,0528*53
$GPGGA,085023.90,4548.6589659,N,00837.7259835,E,4,12,1.39,212.087,M,48.401,M,,0529*53
$GPGGA,085024.00,4548.6589659,N,00837.7259835,E,4,12,1.39,212.087,M,48.401,M,,0530*55
$GPGGA,085024.10,4548.6589659,N,00837.7259835,E,4,12,1.39,212.087,M,48.401,M,,0531*55
$GPGGA,085024.20,4548.6589659,N,00837.7259835,E,4,12,1.39,212.087,M,48.401,M,,0532*55
$GPGGA,085024.30,4548.6589659,N,00837.7259835,E,4,12,1.39,212.087,M,48.401,M,,0533*55
$GPGGA,085024.40,4548.6589659,N,00837.7259835,E,4,12,1.39,212.087,M,48.401,M,,0534*55
$GPGGA,085024.50,4548.6589659,N,00837.7259835,E,4,12,1.39,212.087,M,48.401,M,,0535*55
$GPGGA,085024.60,4548.6589659,N,00837.7259835,E,4,12,1.39,212.087,M,48.401,M,,0536*55
$GPGGA,085024.70,4548.6589659,N,00837.7259835,E,4,12,1.39,212.087,M,48.401,M,,0537*55
$GPGGA,085024.80,4548.6589659,N,00837.7259835,E,4,12,1.39,212.087,M,48.401,M,,0538*55
$GPGGA,085024.90,4548.6589659,N,00837.7259835,E,4,12,1.39,212.087,M,48.401,M,,0539*55
$GPGGA,085025.00,4548.6589659,N,00837.7259835,E,4,12,1.39,212.087,M,48.401,M,,0540*53
$GPGGA,085025.10,4548.6589659,N,00837.7259835,E,4,12,1.39,212.087,M,48.401,M,,0541*53
$GPGGA,085025.20,4548.6589659,N,00837.7259835,E,4,12,1.39,212.087,M,48.401,M,,0542*53
$GPGGA,085025.30,4548.6589659,N,00837.7259835,E,4,12,1.39,212.087,M,48.401,M,,0543*53
$GPGGA,085025.40,4548.6589659,N,00837.7259835,E,4,12,1.39,212.087,M,48.401,M,,0544*53
$GPGGA,085025.50,4548.6589659,N,00837.7259835,E,4,12,1.39,212.087,M,48.401,M,,0545*53
$GPGGA,085025.60,4548.6589659,N,00837.7259835,E,4,12,1.39,212.087,M,48.401,M,,0546*53
$GPGGA,085025.70,4548.6589659,N,00837.7259835,E,4,12,1.39,212.087,M,48.401,M,,0547*53
$GPGGA,085025.80,4548.6589659,N,00837.7259835,E,4,12,1.39,212.087,M,48.401,M,,0548*53
$GPGGA,085025.90,4548.6589659,N,00837.7259835,E,4,12,1.39,212.087,M,48.401,M,,0549*53
$GPGGA,085026.00,4548.6589659,N,00837.7259835,E,4,12,1.39,212.087,M,48.401,M,,0550*51
$GPGGA,085026.10,4548.6589659,N,00837.7259835,E,4,12,1.39,212.087,M,48.401,M,,0551*51
$GPGGA,085026.20,4548.6589659,N,00837.7259835,E,4,12,1.39,212.087,M,48.401,M,,0552*51
$GPGGA,085026.30,4548.6589659,N,00837.7259835,E,4,12,1.39,212.087,M,48.401,M,,0553*51
$GPGGA,085026.40,4548.6589659,N,00837.7259835,E,4,12,1.39,212.087,M,48.401,M,,0554*51
$GPGGA,085026.50,4548.6589659,N,00837.7259835,E,4,12,1.39,212.087,M,48.401,M,,0555*51
$GPGGA,085026.60,4548.6589659,N,00837.7259835,E,4,12,1.39,212.087,M,48.401,M,,0556*51
$GPGGA,085026.70,4548.6589659,N,00837.7259835,E,4,12,1.39,212.087,M,48.401,M,,0557*51
$GPGGA,085026.80,4548.6589659,N,00837.7259835,E,4,12,1.39,212.087,M,48.401,M,,0558*51
$GPGGA,085026.90,4548.6589659,N,00837.7259835,E,4,12,1.39,212.087,M,48.401,M,,0559*51
$GPGGA,085027.00,4548.6589659,N,00837.7259835,E,4,12,1.39,212.087,M,48.401,M,,0560*53
$GPGGA,085027.10,4548.6589659,N,00837.7259835,E,4,12,1.39,212.087,M,48.401,M,,0561*53
$GPGGA,085027.20,4548.6589659,N,00837.7259835,E,4,12,1.39,212.087,M,48.401,M,,0562*53
$GPGGA,085027.30,4548.6589659,N,00837.7259835,E,4,12,1.39,212.087,M,48.401,M,,0563*53
$GPGGA,085027.40,4548.6589659,N,00837.7259835,E,4,12,1.39,212.087,M,48.401,M,,0564*53
$GPGGA,085027.50,4548.6589659,N,00837.7259835,E,4,12,1.39,212.087,M,48.401,M,,0565*53
$GPGGA,085027.60,4548.6589659,N,00837.7259835,E,4,12,1.39,212.087,M,48.401,M,,0566*53
$GPGGA,085027.70,4548.6589659,N,00837.7259835,E,4,12,1.39,212.087,M,48.401,M,,0567*53
$GPGGA,085027.80,4548.6589659,N,00837.7259835,E,4,12,1.39,212.087,M,48.401,M,,0568*53
$GPGGA,085027.90,4548.6589659,N,00837.7259835,E,4,12,1.39,212.087,M,48.401,M,,0569*53
$GPGGA,085028.00,4548.6589659,N,00837.7259835,E,4,12,1.39,212.087,M,48.401,M,,0570*5D
$GPGGA,085028.10,4548.6589659,N,00837.7259835,E,4,12,1.39,212.087,M,48.401,M,,0571*5D
$GPGGA,085028.20,4548.6589659,N,00837.7259835,E,4,12,1.39,212.087,M,48.401,M,,0572*5D
$GPGGA,085028.30,4548.6589659,N,00837.7259835,E,4,12,1.39,212.087,M,48.401,M,,0573*5D
$GPGGA,085028.40,4548.6589659,N,00837.7259835,E,4,12,1.39,212.087,M,48.401,M,,0574*5D
$GPGGA,085028.50,4548.6589659,N,00837.7259835,E,4,12,1.39,212.087,M,48.401,M,,0575*5D
$GPGGA,085028.60,4548.6589659,N,00837.7259835,E,4,12,1.39,212.087,M,48.401,M,,0576*5D
$GPGGA,085028.70,4548.6589659,N,00837.7259835,E,4,12,1.39,212.087,M,48.401,M,,0577*5D
$GPGGA,085028.80,4548.6589659,N,00837.7259835,E,4,12,1.39,212.087,M,48.401,M,,0578*5D
$GPGGA,085028.90,4548.6589659,N,00837.7259835,E,4,12,1.39,212.087,M,48.401,M,,0579*5D
$GPGGA,085029.00,4548.6589659,N,00837.7259835,E,4,12,1.39,212.087,M,48.401,M,,0580*53
$GPGGA,085029.10,4548.6589659,N,00837.7259835,E,4,12,1.39,212.087,M,48.401,M,,0581*53
$GPGGA,085029.20,4548.6589659,N,00837.7259835,E,4,12,1.39,212.087,M,48.401,M,,0582*53
$GPGGA,085029.30,4548.6589659,N,00837.7259835,E,4,12,1.39,212.087,M,48.401,M,,0583*53
$GPGGA,085029.40,4548.6589659,N,00837.7259835,E,4,12,1.39,212.087,M,48.401,M,,0584*53
$GPGGA,085029.50,4548.6589659,N,00837.7259835,E,4,12,1.39,212.087,M,48.401,M,,0585*53
$GPGGA,085029.60,4548.6589659,N,00837.7259835,E,4,12,1.39,212.087,M,48.401,M,,0586*53
$GPGGA,085029.70,4548.6589659,N,00837.7259835,E,4,12,1.39,212.087,M,48.401,M,,0587*53
$GPGGA,085029.80,4548.6589659,N,00837.7259835,E,4,12,1.39,212.087,M,48.401,M,,0588*53
$GPGGA,085029.90,4548.6589659,N,00837.7259835,E,4,12,1.39,212.087,M,48.401,M,,0589*53
$GPGGA,085030.00,4548.6589659,N,00837.7259835,E,4,12,1.39,212.087,M,48.401,M,,0590*5A
$GPGGA,085030.10,4548.6589659,N,00837.7259835,E,4,12,1.39,212.087,M,48.401,M,,0591*5A
$GPGGA,085030.20,4548.6589659,N,00837.7259835,E,4,12,1.39,212.087,M,48.401,M,,0592*5A
$GPGGA,085030.30,4548.6589659,N,00837.7259835,E,4,12,1.39,212.087,M,48.401,M,,0593*5A
$GPGGA,085030.40,4548.6589659,N,00837.7259835,E,4,12,1.39,212.087,M,48.401,M,,0594*5A
$GPGGA,085030.50,4548.6589659,N,00837.7259835,E,4,12,1.39,212.087,M,48.401,M,,0595*5A
$GPGGA,085030.60,4548.6589659,N,00837.7259835,E,4,12,1.39,212.087,M,48.401,M,,0596*5A
$GPGGA,085030.70,4548.6589659,N,00837.7259835,E,4,12,1.39,212.087,M,48.401,M,,0597*5A
$GPGGA,085030.80,4548.6589659,N,00837.7259835,E,4,12,1.39,212.087,M,48.401,M,,0598*5A
$GPGGA,085030.90,4548.6589659,N,00837.7259835,E,4,12,1.39,212.087,M,48.401,M,,0599*5A
$GPGGA,085031.00,4548.6589659,N,00837.7259835,E,4,12,1.39,212.087,M,48.401,M,,0600*51
$GPGGA,085031.10,4548.6589659,N,00837.7259835,E,4,12,1.39,212.087,M,48.401,M,,0601*51
$GPGGA,085031.20,4548.6589659,N,00837.7259835,E,4,12,1.39,212.087,M,48.401,M,,0602*51
$GPGGA,085031.30,4548.6589659,N,00837.7259835,E,4,12,1.39,212.087,M,48.401,M,,0603*51
$GPGGA,085031.40,4548.6589659,N,00837.7259835,E,4,12,1.39,212.087,M,48.401,M,,0604*51
$GPGGA,085031.50,4548.6589659,N,00837.7259835,E,4,12,1.39,212.087,M,48.401,M,,0605*51
$GPGGA,085031.60,4548.6589659,N,00837.7259835,E,4,12,1.39,212.087,M,48.401,M,,0606*51
$GPGGA,085031.70,4548.6589659,N,00837.7259835,E,4,12,1.39,212.087,M,48.401,M,,0607*51
$GPGGA,085031.80,4548.6589659,N,00837.7259835,E,4,12,1.39,212.087,M,48.401,M,,0608*51
$GPGGA,085031.90,4548.6589659,N,00837.7259835,E,4,12,1.39,212.087,M,48.401,M,,0609*51
$GPGGA,085032.00,4548.6589659,N,00837.7259835,E,4,12,1.39,212.087,M,48.401,M,,0610*53
$GPGGA,085032.10,4548.6589659,N,00837.7259835,E,4,12,1.39,212.087,M,48.401,M,,0611*53
$GPGGA,085032.20,4548.6589659,N,00837.7259835,E,4,12,1.39,212.087,M,48.401,M,,0612*53
$GPGGA,085032.30,4548.6589659,N,00837.7259835,E,4,12,1.39,212.087,M,48.401,M,,0613*53
$GPGGA,085032.40,4548.6589659,N,00837.7259835,E,4,12,1.39,212.087,M,48.401,M,,0614*53
$GPGGA,085032.50,4548.6589659,N,00837.7259835,E,4,12,1.39,212.087,M,48.401,M,,0615*53
$GPGGA,085032.60,4548.6589659,N,00837.7259835,E,4,12,1.39,212.087,M,48.401,M,,0616*53
$GPGGA,085032.70,4548.6589659,N,00837.7259835,E,4,12,1.39,212.087,M,48.401,M,,0617*53
$GPGGA,085032.80,4548.6589659,N,00837.7259835,E,4,12,1.39,212.087,M,48.401,M,,0618*53
$GPGGA,085032.90,4548.6589659,N,00837.7259835,E,4,12,1.39,212.087,M,48.401,M,,0619*53
$GPGGA,085033.00,4548.6589659,N,00837.7259835,E,4,12,1.39,212.087,M,48.401,M,,0620*51
$GPGGA,085033.10,4548.6589659,N,00837.7259835,E,4,12,1.39,212.087,M,48.401,M,,0621*51
$GPGGA,085033.20,4548.6589659,N,00837.7259835,E,4,12,1.39,212.087,M,48.401,M,,0622*51
$GPGGA,085033.30,4548.6589659,N,00837.7259835,E,4,12,1.39,212.087,M,48.401,M,,0623*51
$GPGGA,085033.40,4548.6589659,N,00837.7259835,E,4,12,1.39,212.087,M,48.401,M,,0624*51
$GPGGA,085033.50,4548.6589659,N,00837.7259835,E,4,12,1.39,212.087,M,48.401,M,,0625*51
$GPGGA,085033.60,4548.6589659,N,00837.7259835,E,4,12,1.39,212.087,M,48.401,M,,0626*51
$GPGGA,085033.70,4548.6589659,N,00837.7259835,E,4,12,1.39,212.087,M,48.401,M,,0627*51
$GPGGA,085033.80,4548.6589659,N,00837.7259835,E,4,12,1.39,212.087,M,48.401,M,,0628*51
$GPGGA,085033.90,4548.6589659,N,00837.7259835,E,4,12,1.39,212.087,M,48.401,M,,0629*51
$GPGGA,085034.00,4548.6589659,N,00837.7259835,E,4,12,1.39,212.087,M,48.401,M,,0630*57
$GPGGA,085034.10,4548.6589659,N,00837.7259835,E,4,12,1.39,212.087,M,48.401,M,,0631*57
$GPGGA,085034.20,4548.6589659,N,00837.7259835,E,4,12,1.39,212.087,M,48.401,M,,0632*57
$GPGGA,085034.30,4548.6589659,N,00837.7259835,E,4,12,1.39,212.087,M,48.401,M,,0633*57
$GPGGA,085034.40,4548.6589659,N,00837.7259835,E,4,12,1.39,212.087,M,48.401,M,,0634*57
$GPGGA,085034.50,4548.6589659,N,00837.7259835,E,4,12,1.39,212.087,M,48.401,M,,0635*57
$GPGGA,085034.60,4548.6589659,N,00837.7259835,E,4,12,1.39,212.087,M,48.401,M,,0636*57
$GPGGA,085034.70,4548.6589659,N,00837.7259835,E,4,12,1.39,212.087,M,48.401,M,,0637*57
$GPGGA,085034.80,4548.6589659,N,00837.7259835,E,4,12,1.39,212.087,M,48.401,M,,0638*57
$GPGGA,085034.90,4548.6589659,N,00837.7259835,E,4,12,1.39,212.087,M,48.401,M,,0639*57
$GPGGA,085035.00,4548.6589659,N,00837.7259835,E,4,12,1.39,212.087,M,48.401,M,,0640*51
$GPGGA,085035.10,4548.6589659,N,00837.7259835,E,4,12,1.39,212.087,M,48.401,M,,0641*51
$GPGGA,085035.20,4548.6589659,N,00837.7259835,E,4,12,1.39,212.087,M,48.401,M,,0642*51
$GPGGA,085035.30,4548.6589659,N,00837.7259835,E,4,12,1.39,212.087,M,48.401,M,,0643*51
$GPGGA,085035.40,4548.6589659,N,00837.7259835,E,4,12,1.39,212.087,M,48.401,M,,0644*51
$GPGGA,085035.50,4548.6589659,N,00837.7259835,E,4,12,1.39,212.087,M,48.401,M,,0645*51
$GPGGA,085035.60,4548.6589659,N,00837.7259835,E,4,12,1.39,212.087,M,48.401,M,,0646*51
$GPGGA,085035.70,4548.6589659,N,00837.7259835,E,4,12,1.39,212.087,M,48.401,M,,0647*51
$GPGGA,085035.80,4548.6589659,N,00837.7259835,E,4,12,1.39,212.087,M,48.401,M,,0648*51
$GPGGA,085035.90,4548.6589659,N,00837.7259835,E,4,12,1.39,212.087,M,48.401,M,,0649*51
$GPGGA,085036.00,4548.6589659,N,00837.7259835,E,4,12,1.39,212.087,M,48.401,M,,0650*53
$GPGGA,085036.10,4548.6589659,N,00837.7259835,E,4,12,1.39,212.087,M,48.401,M,,0651*53
$GPGGA,085036.20,4548.6589659,N,00837.7259835,E,4,12,1.39,212.087,M,48.401,M,,0652*53
$GPGGA,085036.30,4548.6589659,N,00837.7259835,E,4,12,1.39,212.087,M,48.401,M,,0653*53
$GPGGA,085036.40,4548.6589659,N,00837.7259835,E,4,12,1.39,212.087,M,48.401,M,,0654*53
$GPGGA,085036.50,4548.6589659,N,00837.7259835,E,4,12,1.39,212.087,M,48.401,M,,0655*53
$GPGGA,085036.60,4548.6589659,N,00837.7259835,E,4,12,1.39,212.087,M,48.401,M,,0656*53
$GPGGA,085036.70,4548.6589659,N,00837.7259835,E,4,12,1.39,212.087,M,48.401,M,,0657*53
$GPGGA,085036.80,4548.6589659,N,00837.7259835,E,4,12,1.39,212.087,M,48.401,M,,0658*53
$GPGGA,085036.90,4548.6589659,N,00837.7259835,E,4,12,1.39,212.087,M,48.401,M,,0659*53
$GPGGA,085037.00,4548.6589659,N,00837.7259835,E,4,12,1.39,212.087,M,48.401,M,,0660*51
$GPGGA,085037.10,4548.6589659,N,00837.7259835,E,4,12,1.39,212.087,M,48.401,M,,0661*51
$GPGGA,085037.20,4548.6589659,N,00837.7259835,E,4,12,1.40,212.087,M,48.401,M,,0662*5F
$GPGGA,085037.30,4548.6589659,N,00837.7259835,E,4,12,1.40,212.087,M,48.401,M,,0663*5F
$GPGGA,085037.40,4548.6589659,N,00837.7259835,E,4,12,1.40,212.087,M,48.401,M,,0664*5F
$GPGGA,085037.50,4548.6589659,N,00837.7259835,E,4,12,1.40,212.087,M,48.401,M,,0665*5F
$GPGGA,085037.60,4548.6589659,N,00837.7259835,E,4,12,1.40,212.087,M,48.401,M,,0666*5F
$GPGGA,085037.70,4548.6589659,N,00837.7259835,E,4,12,1.40,212.087,M,48.401,M,,0667*5F
$GPGGA,085037.80,4548.6589659,N,00837.7259835,E,4,12,1.40,212.087,M,48.401,M,,0668*5F
$GPGGA,085037.90,4548.6589659,N,00837.7259835,E,4,12,1.40,212.087,M,48.401,M,,0669*5F
$GPGGA,085038.00,4548.6589659,N,00837.7259835,E,4,12,1.40,212.087,M,48.401,M,,0670*51
$GPGGA,085038.10,4548.6589659,N,00837.7259835,E,4,12,1.40,212.087,M,48.401,M,,0671*51
$GPGGA,085038.20,4548.6589659,N,00837.7259835,E,4,12,1.40,212.087,M,48.401,M,,0672*51
$GPGGA,085038.30,4548.6589659,N,00837.7259835,E,4,12,1.40,212.087,M,48.401,M,,0673*51
$GPGGA,085038.40,4548.6589659,N,00837.7259835,E,4,12,1.40,212.087,M,48.401,M,,0674*51
$GPGGA,085038.50,4548.6589659,N,00837.7259835,E,4,12,1.40,212.087,M,48.401,M,,0675*51
$GPGGA,085038.60,4548.6589659,N,00837.7259835,E,4,12,1.40,212.087,M,48.401,M,,0676*51
$GPGGA,085038.70,4548.6589659,N,00837.7259835,E,4,12,1.40,212.087,M,48.401,M,,0677*51
$GPGGA,085038.80,4548.6589659,N,00837.7259835,E,4,12,1.40,212.087,M,48.401,M,,0678*51
$GPGGA,085038.90,4548.6589659,N,00837.7259835,E,4,12,1.40,212.087,M,48.401,M,,0679*51
$GPGGA,085039.00,4548.6589659,N,00837.7259835,E,4,12,1.40,212.087,M,48.401,M,,0680*5F
$GPGGA,085039.10,4548.6589659,N,00837.7259835,E,4,12,1.40,212.087,M,48.401,M,,0681*5F
$GPGGA,085039.20,4548.6589659,N,00837.7259835,E,4,12,1.40,212.087,M,48.401,M,,0682*5F
$GPGGA,085039.30,4548.6589659,N,00837.7259835,E,4,12,1.40,212.087,M,48.401,M,,0683*5F
$GPGGA,085039.40,4548.6589659,N,00837.7259835,E,4,12,1.40,212.087,M,48.401,M,,0684*5F
$GPGGA,085039.50,4548.6589659,N,00837.7259835,E,4,12,1.40,212.087,M,48.401,M,,0685*5F
$GPGGA,085039.60,4548.6589659,N,00837.7259835,E,4,12,1.40,212.087,M,48.401,M,,0686*5F
$GPGGA,085039.70,4548.6589659,N,00837.7259835,E,4,12,1.40,212.087,M,48.401,M,,0687*5F
$GPGGA,085039.80,4548.6589659,N,00837.7259835,E,4,12,1.40,212.087,M,48.401,M,,0688*5F
$GPGGA,085039.90,4548.6589659,N,00837.7259835,E,4,12,1.40,212.087,M,48.401,M,,0689*5F
$GPGGA,085040.00,4548.6589659,N,00837.7259835,E,4,12,1.40,212.087,M,48.401,M,,0690*50
$GPGGA,085040.10,4548.6589659,N,00837.7259835,E,4,12,1.40,212.087,M,48.401,M,,0691*50
$GPGGA,085040.20,4548.6589659,N,00837.7259835,E,4,12,1.40,212.087,M,48.401,M,,0692*50
$GPGGA,085040.30,4548.6589659,N,00837.7259835,E,4,12,1.40,212.087,M,48.401,M,,0693*50
$GPGGA,085040.40,4548.6589659,N,00837.7259835,E,4,12,1.40,212.087,M,48.401,M,,0694*50
$GPGGA,085040.50,4548.6589659,N,00837.7259835,E,4,12,1.40,212.087,M,48.401,M,,0695*50
$GPGGA,085040.60,4548.6589659,N,00837.7259835,E,4,12,1.40,212.087,M,48.401,M,,0696*50
