$GPGGA,150623.00,4548.6588780,N,00837.7263544,E,4,12,0.98,212.066,M,48.401,M,,0000*58
$GPGGA,150623.10,4548.6588783,N,00837.7263543,E,4,12,0.98,212.066,M,48.401,M,,0001*5C
$GPGGA,150623.20,4548.6588784,N,00837.7263541,E,4,12,0.98,212.067,M,48.401,M,,0002*58
$GPGGA,150623.30,4548.6588783,N,00837.7263539,E,4,12,0.98,212.067,M,48.401,M,,0003*50
$GPGGA,150623.40,4548.6588780,N,00837.7263537,E,4,12,0.98,212.067,M,48.401,M,,0004*5D
$GPGGA,150623.50,4548.6588776,N,00837.7263537,E,4,12,0.98,212.067,M,48.401,M,,0005*54
$GPGGA,150623.60,4548.6588774,N,00837.7263537,E,4,12,0.98,212.067,M,48.401,M,,0006*56
$GPGGA,150623.70,4548.6588771,N,00837.7263538,E,4,12,0.98,212.067,M,48.401,M,,0007*5C
$GPGGA,150623.80,4548.6588768,N,00837.7263539,E,4,12,0.98,212.068,M,48.401,M,,0008*5A
$GPGGA,150623.90,4548.6588767,N,00837.7263541,E,4,12,0.98,212.068,M,48.401,M,,0009*5A
$GPGGA,150624.00,4548.6588766,N,00837.7263542,E,4,12,0.98,212.068,M,48.401,M,,0010*5E
$GPGGA,150624.10,4548.6588766,N,00837.7263540,E,4,12,0.98,212.068,M,48.401,M,,0011*5C
$GPGGA,150624.20,4548.6588767,N,00837.7263538,E,4,12,0.98,212.068,M,48.401,M,,0012*52
$GPGGA,150624.30,4548.6588769,N,00837.7263536,E,4,12,0.98,212.068,M,48.401,M,,0013*52
$GPGGA,150624.40,4548.6588771,N,00837.7263535,E,4,12,0.98,212.068,M,48.401,M,,0014*58
$GPGGA,150624.50,4548.6588773,N,00837.7263533,E,4,12,0.98,212.067,M,48.401,M,,0015*53
$GPGGA,150624.60,4548.6588774,N,00837.7263531,E,4,12,0.98,212.067,M,48.401,M,,0016*56
$GPGGA,150624.70,4548.6588773,N,00837.7263530,E,4,12,0.98,212.067,M,48.401,M,,0017*50
$GPGGA,150624.80,4548.6588772,N,00837.7263531,E,4,12,0.98,212.067,M,48.401,M,,0018*50
$GPGGA,150624.90,4548.6588772,N,00837.7263530,E,4,12,0.98,212.067,M,48.401,M,,0019*51
$GPGGA,150625.00,4548.6588773,N,00837.7263531,E,4,12,0.98,212.067,M,48.401,M,,0020*53
$GPGGA,150625.10,4548.6588773,N,00837.7263532,E,4,12,0.98,212.067,M,48.401,M,,0021*50
$GPGGA,150625.20,4548.6588773,N,00837.7263533,E,4,12,0.98,212.066,M,48.401,M,,0022*50
$GPGGA,150625.30,4548.6588774,N,00837.7263533,E,4,12,0.98,212.066,M,48.401,M,,0023*57
$GPGGA,150625.40,4548.6588776,N,00837.7263533,E,4,12,0.98,212.066,M,48.401,M,,0024*55
$GPGGA,150625.50,4548.6588777,N,00837.7263535,E,4,12,0.98,212.066,M,48.401,M,,0025*52
$GPGGA,150625.60,4548.6588777,N,00837.7263536,E,4,12,0.98,212.066,M,48.401,M,,0026*51
$GPGGA,150625.70,4548.6588777,N,00837.7263538,E,4,12,0.98,212.066,M,48.401,M,,0027*5F
$GPGGA,150625.80,4548.6588778,N,00837.7263537,E,4,12,0.98,212.066,M,48.401,M,,0028*5F
$GPGGA,150625.90,4548.6588781,N,00837.7263538,E,4,12,0.98,212.066,M,48.401,M,,0029*56
$GPGGA,150626.00,4548.6588782,N,00837.7263540,E,4,12,0.98,212.066,M,48.401,M,,0030*58
$GPGGA,150626.10,4548.6588783,N,00837.7263543,E,4,12,0.98,212.066,M,48.401,M,,0031*5A
$GPGGA,150626.20,4548.6588783,N,00837.7263542,E,4,12,0.98,212.066,M,48.401,M,,0032*5B
$GPGGA,150626.30,4548.6588784,N,00837.7263544,E,4,12,0.98,212.065,M,48.401,M,,0033*59
$GPGGA,150626.40,4548.6588788,N,00837.7263545,E,4,12,0.98,212.065,M,48.401,M,,0034*54
$GPGGA,150626.50,4548.6588791,N,00837.7263545,E,4,12,0.98,212.065,M,48.401,M,,0035*5C
$GPGGA,150626.60,4548.6588792,N,00837.7263544,E,4,12,0.98,212.065,M,48.401,M,,0036*5E
$GPGGA,150626.70,4548.6588790,N,00837.7263545,E,4,12,0.98,212.065,M,48.401,M,,0037*5D
$GPGGA,150626.80,4548.6588786,N,00837.7263546,E,4,12,0.98,212.065,M,48.401,M,,0038*59
$GPGGA,150626.90,4548.6588783,N,00837.7263546,E,4,12,0.98,212.065,M,48.401,M,,0039*5C
$GPGGA,150627.00,4548.6588780,N,00837.7263546,E,4,12,0.98,212.065,M,48.401,M,,0040*59
$GPGGA,150627.10,4548.6588779,N,00837.7263546,E,4,12,0.98,212.065,M,48.401,M,,0041*5F
$GPGGA,150627.20,4548.6588780,N,00837.7263547,E,4,12,0.98,212.065,M,48.401,M,,0042*58
$GPGGA,150627.30,4548.6588778,N,00837.7263548,E,4,12,0.98,212.065,M,48.401,M,,0043*50
$GPGGA,150627.40,4548.6588777,N,00837.7263549,E,4,12,0.98,212.065,M,48.401,M,,0044*5E
$GPGGA,150627.50,4548.6588778,N,00837.7263547,E,4,12,0.98,212.065,M,48.401,M,,0045*5F
$GPGGA,150627.60,4548.6588779,N,00837.7263545,E,4,12,0.98,212.065,M,48.401,M,,0046*5C
$GPGGA,150627.70,4548.6588779,N,00837.7263542,E,4,12,0.98,212.065,M,48.401,M,,0047*5B
$GPGGA,150627.80,4548.6588779,N,00837.7263541,E,4,12,0.98,212.065,M,48.401,M,,0048*58
$GPGGA,150627.90,4548.6588779,N,00837.7263540,E,4,12,0.98,212.065,M,48.401,M,,0049*59
$GPGGA,150628.00,4548.6588779,N,00837.7263540,E,4,12,0.98,212.064,M,48.401,M,,0050*56
$GPGGA,150628.10,4548.6588780,N,00837.7263540,E,4,12,0.98,212.065,M,48.401,M,,0051*51
$GPGGA,150628.20,4548.6588782,N,00837.7263543,E,4,12,0.98,212.065,M,48.401,M,,0052*50
$GPGGA,150628.30,4548.6588783,N,00837.7263546,E,4,12,0.98,212.065,M,48.401,M,,0053*54
$GPGGA,150628.40,4548.6588782,N,00837.7263547,E,4,12,0.98,212.065,M,48.401,M,,0054*54
$GPGGA,150628.50,4548.6588780,N,00837.7263549,E,4,12,0.98,212.065,M,48.401,M,,0055*58
$GPGGA,150628.60,4548.6588778,N,00837.7263550,E,4,12,0.98,212.065,M,48.401,M,,0056*57
$GPGGA,150628.70,4548.6588777,N,00837.7263552,E,4,12,0.98,212.065,M,48.401,M,,0057*5A
$GPGGA,150628.80,4548.6588777,N,00837.7263553,E,4,12,0.98,212.065,M,48.401,M,,0058*5B
$GPGGA,150628.90,4548.6588779,N,00837.7263555,E,4,12,0.98,212.065,M,48.401,M,,0059*53
$GPGGA,150629.00,4548.6588781,N,00837.7263555,E,4,12,0.98,212.065,M,48.401,M,,0060*56
$GPGGA,150629.10,4548.6588781,N,00837.7263555,E,4,12,0.98,212.065,M,48.401,M,,0061*56
$GPGGA,150629.20,4548.6588780,N,00837.7263555,E,4,12,0.98,212.065,M,48.401,M,,0062*57
$GPGGA,150629.30,4548.6588779,N,00837.7263553,E,4,12,0.98,212.065,M,48.401,M,,0063*57
$GPGGA,150629.40,4548.6588779,N,00837.7263551,E,4,12,0.98,212.066,M,48.401,M,,0064*56
$GPGGA,150629.50,4548.6588779,N,00837.7263550,E,4,12,0.98,212.066,M,48.401,M,,0065*57
$GPGGA,150629.60,4548.6588777,N,00837.7263549,E,4,12,0.98,212.066,M,48.401,M,,0066*51
$GPGGA,150629.70,4548.6588776,N,00837.7263550,E,4,12,0.98,212.066,M,48.401,M,,0067*58
$GPGGA,150629.80,4548.6588773,N,00837.7263550,E,4,12,0.98,212.066,M,48.401,M,,0068*5D
$GPGGA,150629.90,4548.6588773,N,00837.7263551,E,4,12,0.98,212.066,M,48.401,M,,0069*5C
$GPGGA,150630.00,4548.6588774,N,00837.7263551,E,4,12,0.98,212.066,M,48.401,M,,0070*52
$GPGGA,150630.10,4548.6588774,N,00837.7263551,E,4,12,0.98,212.067,M,48.401,M,,0071*53
$GPGGA,150630.20,4548.6588773,N,00837.7263551,E,4,12,0.98,212.066,M,48.401,M,,0072*55
$GPGGA,150630.30,4548.6588774,N,00837.7263554,E,4,12,0.98,212.066,M,48.401,M,,0073*57
$GPGGA,150630.40,4548.6588774,N,00837.7263556,E,4,12,0.98,212.066,M,48.401,M,,0074*55
$GPGGA,150630.50,4548.6588776,N,00837.7263558,E,4,12,0.98,212.066,M,48.401,M,,0075*59
$GPGGA,150630.60,4548.6588778,N,00837.7263559,E,4,12,0.98,212.066,M,48.401,M,,0076*56
$GPGGA,150630.70,4548.6588780,N,00837.7263559,E,4,12,0.98,212.066,M,48.401,M,,0077*51
$GPGGA,150630.80,4548.6588782,N,00837.7263559,E,4,12,0.98,212.065,M,48.401,M,,0078*50
$GPGGA,150630.90,4548.6588783,N,00837.7263558,E,4,12,0.98,212.065,M,48.401,M,,0079*50
$GPGGA,150631.00,4548.6588784,N,00837.7263558,E,4,12,0.98,212.065,M,48.401,M,,0080*59
$GPGGA,150631.10,4548.6588783,N,00837.7263558,E,4,12,0.98,212.064,M,48.401,M,,0081*5F
$GPGGA,150631.20,4548.6588783,N,00837.7263556,E,4,12,0.98,212.064,M,48.401,M,,0082*51
$GPGGA,150631.30,4548.6588785,N,00837.7263556,E,4,12,0.98,212.064,M,48.401,M,,0083*57
$GPGGA,150631.40,4548.6588786,N,00837.7263555,E,4,12,0.98,212.063,M,48.401,M,,0084*50
$GPGGA,150631.50,4548.6588786,N,00837.7263555,E,4,12,0.98,212.063,M,48.401,M,,0085*50
$GPGGA,150631.60,4548.6588786,N,00837.7263556,E,4,12,0.98,212.063,M,48.401,M,,0086*53
$GPGGA,150631.70,4548.6588787,N,00837.7263557,E,4,12,0.98,212.063,M,48.401,M,,0087*53
$GPGGA,150631.80,4548.6588787,N,00837.7263556,E,4,12,0.98,212.062,M,48.401,M,,0088*53
$GPGGA,150631.90,4548.6588788,N,00837.7263556,E,4,12,0.98,212.062,M,48.401,M,,0089*5C
$GPGGA,150632.00,4548.6588788,N,00837.7263556,E,4,12,0.98,212.062,M,48.401,M,,0090*5E
$GPGGA,150632.10,4548.6588789,N,00837.7263556,E,4,12,0.98,212.061,M,48.401,M,,0091*5C
$GPGGA,150632.20,4548.6588789,N,00837.7263555,E,4,13,0.94,212.061,M,48.401,M,,0092*52
$GPGGA,150632.30,4548.6588790,N,00837.7263554,E,4,13,0.94,212.061,M,48.401,M,,0093*5B
$GPGGA,150632.40,4548.6588792,N,00837.7263551,E,4,13,0.94,212.061,M,48.401,M,,0094*5C
$GPGGA,150632.50,4548.6588794,N,00837.7263550,E,4,13,0.94,212.060,M,48.401,M,,0095*5A
$GPGGA,150632.60,4548.6588794,N,00837.7263547,E,4,13,0.94,212.060,M,48.401,M,,0096*5C
$GPGGA,150632.70,4548.6588796,N,00837.7263545,E,4,13,0.94,212.060,M,48.401,M,,0097*5C
$GPGGA,150632.80,4548.6588798,N,00837.7263545,E,4,13,0.94,212.060,M,48.401,M,,0098*52
$GPGGA,150632.90,4548.6588800,N,00837.7263545,E,4,13,0.94,212.060,M,48.401,M,,0099*5C
$GPGGA,150633.00,4548.6588802,N,00837.7263545,E,4,13,0.94,212.060,M,48.401,M,,0100*57
$GPGGA,150633.10,4548.6588805,N,00837.7263545,E,4,13,0.94,212.060,M,48.401,M,,0101*50
$GPGGA,150633.20,4548.6588807,N,00837.7263546,E,4,13,0.94,212.060,M,48.401,M,,0102*51
$GPGGA,150633.30,4548.6588807,N,00837.7263546,E,4,13,0.94,212.060,M,48.401,M,,0103*51
$GPGGA,150633.40,4548.6588809,N,00837.7263545,E,4,13,0.94,212.060,M,48.401,M,,0104*5C
$GPGGA,150633.50,4548.6588811,N,00837.7263545,E,4,13,0.94,212.061,M,48.401,M,,0105*54
$GPGGA,150633.60,4548.6588813,N,00837.7263544,E,4,13,0.94,212.061,M,48.401,M,,0106*57
$GPGGA,150633.70,4548.6588815,N,00837.7263545,E,4,13,0.94,212.061,M,48.401,M,,0107*50
$GPGGA,150633.80,4548.6588816,N,00837.7263546,E,4,13,0.94,212.061,M,48.401,M,,0108*50
$GPGGA,150633.90,4548.6588815,N,00837.7263549,E,4,13,0.94,212.061,M,48.401,M,,0109*5C
$GPGGA,150634.00,4548.6588813,N,00837.7263549,E,4,13,0.94,212.061,M,48.401,M,,0110*5C
$GPGGA,150634.10,4548.6588811,N,00837.7263548,E,4,13,0.94,212.062,M,48.401,M,,0111*5C
$GPGGA,150634.20,4548.6588809,N,00837.7263548,E,4,13,0.94,212.062,M,48.401,M,,0112*55
$GPGGA,150634.30,4548.6588807,N,00837.7263547,E,4,13,0.94,212.062,M,48.401,M,,0113*54
$GPGGA,150634.40,4548.6588806,N,00837.7263548,E,4,13,0.94,212.062,M,48.401,M,,0114*5A
$GPGGA,150634.50,4548.6588805,N,00837.7263548,E,4,13,0.94,212.062,M,48.401,M,,0115*59
$GPGGA,150634.60,4548.6588805,N,00837.7263547,E,4,13,0.94,212.062,M,48.401,M,,0116*56
$GPGGA,150634.70,4548.6588806,N,00837.7263547,E,4,13,0.94,212.062,M,48.401,M,,0117*55
$GPGGA,150634.80,4548.6588805,N,00837.7263548,E,4,13,0.94,212.062,M,48.401,M,,0118*59
$GPGGA,150634.90,4548.6588803,N,00837.7263549,E,4,13,0.94,212.062,M,48.401,M,,0119*5E
$GPGGA,150635.00,4548.6588799,N,00837.7263551,E,4,13,0.94,212.062,M,48.401,M,,0120*59
$GPGGA,150635.10,4548.6588794,N,00837.7263554,E,4,13,0.94,212.062,M,48.401,M,,0121*51
$GPGGA,150635.20,4548.6588790,N,00837.7263556,E,4,13,0.94,212.062,M,48.401,M,,0122*57
$GPGGA,150635.30,4548.6588789,N,00837.7263557,E,4,13,0.94,212.062,M,48.401,M,,0123*5E
$GPGGA,150635.40,4548.6588790,N,00837.7263558,E,4,13,0.94,212.062,M,48.401,M,,0124*59
$GPGGA,150635.50,4548.6588792,N,00837.7263558,E,4,13,0.94,212.062,M,48.401,M,,0125*5B
$GPGGA,150635.60,4548.6588795,N,00837.7263557,E,4,13,0.94,212.062,M,48.401,M,,0126*53
$GPGGA,150635.70,4548.6588796,N,00837.7263556,E,4,13,0.94,212.062,M,48.401,M,,0127*51
$GPGGA,150635.80,4548.6588798,N,00837.7263556,E,4,13,0.94,212.062,M,48.401,M,,0128*5F
$GPGGA,150635.90,4548.6588802,N,00837.7263556,E,4,13,0.94,212.062,M,48.401,M,,0129*53
$GPGGA,150636.00,4548.6588806,N,00837.7263556,E,4,13,0.94,212.062,M,48.401,M,,0130*55
$GPGGA,150636.10,4548.6588811,N,00837.7263555,E,4,13,0.94,212.062,M,48.401,M,,0131*50
$GPGGA,150636.20,4548.6588815,N,00837.7263558,E,4,13,0.94,212.062,M,48.401,M,,0132*59
$GPGGA,150636.30,4548.6588819,N,00837.7263562,E,4,13,0.94,212.062,M,48.401,M,,0133*5C
$GPGGA,150636.40,4548.6588821,N,00837.7263565,E,4,13,0.94,212.062,M,48.401,M,,0134*50
$GPGGA,150636.50,4548.6588821,N,00837.7263565,E,4,13,0.94,212.062,M,48.401,M,,0135*50
$GPGGA,150636.60,4548.6588819,N,00837.7263561,E,4,13,0.94,212.062,M,48.401,M,,0136*5F
$GPGGA,150636.70,4548.6588815,N,00837.7263560,E,4,13,0.94,212.062,M,48.401,M,,0137*52
$GPGGA,150636.80,4548.6588810,N,00837.7263559,E,4,13,0.94,212.062,M,48.401,M,,0138*5D
$GPGGA,150636.90,4548.6588805,N,00837.7263558,E,4,13,0.94,212.061,M,48.401,M,,0139*5B
$GPGGA,150637.00,4548.6588802,N,00837.7263560,E,4,13,0.94,212.061,M,48.401,M,,0140*51
$GPGGA,150637.10,4548.6588799,N,00837.7263563,E,4,13,0.94,212.061,M,48.401,M,,0141*5F
$GPGGA,150637.20,4548.6588796,N,00837.7263565,E,4,13,0.94,212.061,M,48.401,M,,0142*56
$GPGGA,150637.30,4548.6588792,N,00837.7263565,E,4,13,0.94,212.061,M,48.401,M,,0143*52
$GPGGA,150637.40,4548.6588789,N,00837.7263563,E,4,13,0.94,212.061,M,48.401,M,,0144*5E
$GPGGA,150637.50,4548.6588788,N,00837.7263562,E,4,13,0.94,212.060,M,48.401,M,,0145*5F
$GPGGA,150637.60,4548.6588786,N,00837.7263562,E,4,13,0.94,212.060,M,48.401,M,,0146*51
$GPGGA,150637.70,4548.6588785,N,00837.7263562,E,4,13,0.94,212.060,M,48.401,M,,0147*52
$GPGGA,150637.80,4548.6588786,N,00837.7263562,E,4,13,0.94,212.060,M,48.401,M,,0148*51
$GPGGA,150637.90,4548.6588786,N,00837.7263562,E,4,13,0.94,212.060,M,48.401,M,,0149*51
$GPGGA,150638.00,4548.6588784,N,00837.7263562,E,4,13,0.94,212.060,M,48.401,M,,0150*5D
$GPGGA,150638.10,4548.6588781,N,00837.7263559,E,4,13,0.94,212.060,M,48.401,M,,0151*50
$GPGGA,150638.20,4548.6588780,N,00837.7263557,E,4,13,0.94,212.060,M,48.401,M,,0152*5F
$GPGGA,150638.30,4548.6588780,N,00837.7263557,E,4,13,0.94,212.060,M,48.401,M,,0153*5F
$GPGGA,150638.40,4548.6588782,N,00837.7263558,E,4,13,0.94,212.060,M,48.401,M,,0154*52
$GPGGA,150638.50,4548.6588783,N,00837.7263559,E,4,13,0.94,212.060,M,48.401,M,,0155*52
$GPGGA,150638.60,4548.6588784,N,00837.7263557,E,4,13,0.94,212.060,M,48.401,M,,0156*5B
$GPGGA,150638.70,4548.6588784,N,00837.7263556,E,4,13,0.94,212.060,M,48.401,M,,0157*5A
$GPGGA,150638.80,4548.6588784,N,00837.7263556,E,4,13,0.94,212.060,M,48.401,M,,0158*5A
$GPGGA,150638.90,4548.6588786,N,00837.7263558,E,4,13,0.94,212.060,M,48.401,M,,0159*56
$GPGGA,150639.00,4548.6588787,N,00837.7263559,E,4,13,0.94,212.060,M,48.401,M,,0160*54
$GPGGA,150639.10,4548.6588789,N,00837.7263559,E,4,13,0.94,212.060,M,48.401,M,,0161*5A
$GPGGA,150639.20,4548.6588791,N,00837.7263559,E,4,13,0.94,212.060,M,48.401,M,,0162*53
$GPGGA,150639.30,4548.6588793,N,00837.7263561,E,4,13,0.94,212.060,M,48.401,M,,0163*5A
$GPGGA,150639.40,4548.6588794,N,00837.7263562,E,4,13,0.94,212.060,M,48.401,M,,0164*5E
$GPGGA,150639.50,4548.6588794,N,00837.7263561,E,4,13,0.94,212.061,M,48.401,M,,0165*5C
$GPGGA,150639.60,4548.6588792,N,00837.7263561,E,4,13,0.94,212.061,M,48.401,M,,0166*5A
$GPGGA,150639.70,4548.6588791,N,00837.7263562,E,4,12,0.98,212.061,M,48.401,M,,0167*57
$GPGGA,150639.80,4548.6588789,N,00837.7263562,E,4,13,0.94,212.061,M,48.401,M,,0168*53
$GPGGA,150639.90,4548.6588784,N,00837.7263560,E,4,13,0.94,212.061,M,48.401,M,,0169*5C
$GPGGA,150640.00,4548.6588780,N,00837.7263560,E,4,13,0.94,212.061,M,48.401,M,,0170*57
$GPGGA,150640.10,4548.6588778,N,00837.7263560,E,4,13,0.94,212.061,M,48.401,M,,0171*50
$GPGGA,150640.20,4548.6588777,N,00837.7263557,E,4,13,0.94,212.061,M,48.401,M,,0172*5B
$GPGGA,150640.30,4548.6588777,N,00837.7263557,E,4,13,0.94,212.062,M,48.401,M,,0173*58
$GPGGA,150640.40,4548.6588774,N,00837.7263558,E,4,13,0.94,212.062,M,48.401,M,,0174*54
$GPGGA,150640.50,4548.6588771,N,00837.7263560,E,4,13,0.94,212.062,M,48.401,M,,0175*5A
$GPGGA,150640.60,4548.6588772,N,00837.7263563,E,4,12,0.98,212.062,M,48.401,M,,0176*57
$GPGGA,150640.70,4548.6588775,N,00837.7263565,E,4,13,0.94,212.062,M,48.401,M,,0177*5B
$GPGGA,150640.80,4548.6588777,N,00837.7263567,E,4,13,0.94,212.062,M,48.401,M,,0178*5B
$GPGGA,150640.90,4548.6588776,N,00837.7263566,E,4,13,0.94,212.062,M,48.401,M,,0179*5B
$GPGGA,150641.00,4548.6588774,N,00837.7263567,E,4,13,0.94,212.063,M,48.401,M,,0180*57
$GPGGA,150641.10,4548.6588773,N,00837.7263567,E,4,13,0.94,212.063,M,48.401,M,,0181*50
$GPGGA,150641.20,4548.6588773,N,00837.7263568,E,4,13,0.94,212.063,M,48.401,M,,0182*5F
$GPGGA,150641.30,4548.6588772,N,00837.7263568,E,4,13,0.94,212.063,M,48.401,M,,0183*5E
$GPGGA,150641.40,4548.6588771,N,00837.7263567,E,4,12,0.98,212.064,M,48.401,M,,0184*58
$GPGGA,150641.50,4548.6588769,N,00837.7263568,E,4,13,0.94,212.064,M,48.401,M,,0185*53
$GPGGA,150641.60,4548.6588766,N,00837.7263568,E,4,12,0.98,212.064,M,48.401,M,,0186*51
$GPGGA,150641.70,4548.6588762,N,00837.7263566,E,4,13,0.94,212.064,M,48.401,M,,0187*56
$GPGGA,150641.80,4548.6588758,N,00837.7263564,E,4,13,0.94,212.064,M,48.401,M,,0188*5D
$GPGGA,150641.90,4548.6588754,N,00837.7263563,E,4,13,0.94,212.064,M,48.401,M,,0189*56
$GPGGA,150642.00,4548.6588750,N,00837.7263563,E,4,13,0.94,212.064,M,48.401,M,,0190*50
$GPGGA,150642.10,4548.6588746,N,00837.7263563,E,4,13,0.94,212.064,M,48.401,M,,0191*57
$GPGGA,150642.20,4548.6588745,N,00837.7263563,E,4,13,0.94,212.064,M,48.401,M,,0192*54
$GPGGA,150642.30,4548.6588750,N,00837.7263563,E,4,13,0.94,212.064,M,48.401,M,,0193*50
$GPGGA,150642.40,4548.6588759,N,00837.7263563,E,4,13,0.94,212.064,M,48.401,M,,0194*59
$GPGGA,150642.50,4548.6588767,N,00837.7263567,E,4,13,0.94,212.063,M,48.401,M,,0195*57
$GPGGA,150642.60,4548.6588772,N,00837.7263570,E,4,13,0.94,212.063,M,48.401,M,,0196*55
$GPGGA,150642.70,4548.6588777,N,00837.7263575,E,4,13,0.94,212.063,M,48.401,M,,0197*55
$GPGGA,150642.80,4548.6588779,N,00837.7263578,E,4,13,0.94,212.062,M,48.401,M,,0198*57
$GPGGA,150642.90,4548.6588779,N,00837.7263579,E,4,13,0.94,212.062,M,48.401,M,,0199*56
$GPGGA,150643.00,4548.6588778,N,00837.7263579,E,4,13,0.94,212.062,M,48.401,M,,0200*5C
$GPGGA,150643.10,4548.6588778,N,00837.7263577,E,4,13,0.94,212.062,M,48.401,M,,0201*52
$GPGGA,150643.20,4548.6588779,N,00837.7263573,E,4,13,0.94,212.062,M,48.401,M,,0202*57
$GPGGA,150643.30,4548.6588777,N,00837.7263566,E,4,13,0.94,212.062,M,48.401,M,,0203*5D
$GPGGA,150643.40,4548.6588775,N,00837.7263562,E,4,13,0.94,212.062,M,48.401,M,,0204*5B
$GPGGA,150643.50,4548.6588773,N,00837.7263562,E,4,12,0.98,212.062,M,48.401,M,,0205*50
$GPGGA,150643.60,4548.6588772,N,00837.7263564,E,4,13,0.94,212.062,M,48.401,M,,0206*5A
$GPGGA,150643.70,4548.6588771,N,00837.7263565,E,4,13,0.94,212.062,M,48.401,M,,0207*58
$GPGGA,150643.80,4548.6588770,N,00837.7263565,E,4,13,0.94,212.062,M,48.401,M,,0208*59
$GPGGA,150643.90,4548.6588768,N,00837.7263565,E,4,13,0.94,212.063,M,48.401,M,,0209*51
$GPGGA,150644.00,4548.6588764,N,00837.7263564,E,4,13,0.94,212.063,M,48.401,M,,0210*5A
$GPGGA,150644.10,4548.6588761,N,00837.7263563,E,4,13,0.94,212.063,M,48.401,M,,0211*58
$GPGGA,150644.20,4548.6588760,N,00837.7263562,E,4,13,0.94,212.064,M,48.401,M,,0212*5F
$GPGGA,150644.30,4548.6588757,N,00837.7263558,E,4,13,0.94,212.064,M,48.401,M,,0213*52
$GPGGA,150644.40,4548.6588755,N,00837.7263558,E,4,13,0.94,212.065,M,48.401,M,,0214*51
$GPGGA,150644.50,4548.6588751,N,00837.7263559,E,4,13,0.94,212.065,M,48.401,M,,0215*54
$GPGGA,150644.60,4548.6588745,N,00837.7263557,E,4,13,0.94,212.066,M,48.401,M,,0216*5C
$GPGGA,150644.70,4548.6588738,N,00837.7263556,E,4,13,0.94,212.067,M,48.401,M,,0217*56
$GPGGA,150644.80,4548.6588733,N,00837.7263556,E,4,13,0.94,212.067,M,48.401,M,,0218*5D
$GPGGA,150644.90,4548.6588728,N,00837.7263554,E,4,13,0.94,212.068,M,48.401,M,,0219*5A
$GPGGA,150645.00,4548.6588724,N,00837.7263551,E,4,13,0.94,212.069,M,48.401,M,,0220*50
$GPGGA,150645.10,4548.6588721,N,00837.7263551,E,4,13,0.94,212.070,M,48.401,M,,0221*5D
$GPGGA,150645.20,4548.6588717,N,00837.7263552,E,4,13,0.94,212.070,M,48.401,M,,0222*5B
$GPGGA,150645.30,4548.6588712,N,00837.7263553,E,4,13,0.94,212.071,M,48.401,M,,0223*5E
$GPGGA,150645.40,4548.6588709,N,00837.7263555,E,4,13,0.94,212.071,M,48.401,M,,0224*52
$GPGGA,150645.50,4548.6588710,N,00837.7263557,E,4,13,0.94,212.072,M,48.401,M,,0225*5B
$GPGGA,150645.60,4548.6588714,N,00837.7263559,E,4,13,0.94,212.072,M,48.401,M,,0226*51
$GPGGA,150645.70,4548.6588718,N,00837.7263561,E,4,13,0.94,212.072,M,48.401,M,,0227*56
$GPGGA,150645.80,4548.6588721,N,00837.7263561,E,4,13,0.94,212.072,M,48.401,M,,0228*5C
$GPGGA,150645.90,4548.6588724,N,00837.7263561,E,4,13,0.94,212.072,M,48.401,M,,0229*59
$GPGGA,150646.00,4548.6588726,N,00837.7263560,E,4,13,0.94,212.072,M,48.401,M,,0230*58
$GPGGA,150646.10,4548.6588727,N,00837.7263560,E,4,13,0.94,212.071,M,48.401,M,,0231*5A
$GPGGA,150646.20,4548.6588731,N,00837.7263559,E,4,13,0.94,212.071,M,48.401,M,,0232*57
$GPGGA,150646.30,4548.6588735,N,00837.7263559,E,4,12,0.98,212.071,M,48.401,M,,0233*5E
$GPGGA,150646.40,4548.6588738,N,00837.7263560,E,4,13,0.94,212.070,M,48.401,M,,0234*55
$GPGGA,150646.50,4548.6588740,N,00837.7263562,E,4,13,0.94,212.070,M,48.401,M,,0235*58
$GPGGA,150646.60,4548.6588744,N,00837.7263566,E,4,13,0.94,212.070,M,48.401,M,,0236*58
$GPGGA,150646.70,4548.6588748,N,00837.7263568,E,4,13,0.94,212.070,M,48.401,M,,0237*5A
$GPGGA,150646.80,4548.6588748,N,00837.7263569,E,4,13,0.94,212.070,M,48.401,M,,0238*5B
$GPGGA,150646.90,4548.6588747,N,00837.7263567,E,4,13,0.94,212.070,M,48.401,M,,0239*5A
$GPGGA,150647.00,4548.6588746,N,00837.7263566,E,4,13,0.94,212.070,M,48.401,M,,0240*5C
$GPGGA,150647.10,4548.6588744,N,00837.7263563,E,4,13,0.94,212.070,M,48.401,M,,0241*5B
$GPGGA,150647.20,4548.6588741,N,00837.7263561,E,4,13,0.94,212.070,M,48.401,M,,0242*5C
$GPGGA,150647.30,4548.6588740,N,00837.7263562,E,4,13,0.94,212.070,M,48.401,M,,0243*5E
$GPGGA,150647.40,4548.6588738,N,00837.7263563,E,4,13,0.94,212.071,M,48.401,M,,0244*51
$GPGGA,150647.50,4548.6588736,N,00837.7263564,E,4,13,0.94,212.071,M,48.401,M,,0245*58
$GPGGA,150647.60,4548.6588734,N,00837.7263564,E,4,13,0.94,212.071,M,48.401,M,,0246*5A
$GPGGA,150647.70,4548.6588733,N,00837.7263563,E,4,13,0.94,212.072,M,48.401,M,,0247*59
$GPGGA,150647.80,4548.6588731,N,00837.7263564,E,4,13,0.94,212.072,M,48.401,M,,0248*5C
$GPGGA,150647.90,4548.6588726,N,00837.7263564,E,4,13,0.94,212.073,M,48.401,M,,0249*5B
$GPGGA,150648.00,4548.6588722,N,00837.7263563,E,4,13,0.94,212.073,M,48.401,M,,0250*56
$GPGGA,150648.10,4548.6588719,N,00837.7263561,E,4,13,0.94,212.074,M,48.401,M,,0251*5B
$GPGGA,150648.20,4548.6588718,N,00837.7263560,E,4,13,0.94,212.074,M,48.401,M,,0252*5B
$GPGGA,150648.30,4548.6588719,N,00837.7263558,E,4,13,0.94,212.075,M,48.401,M,,0253*50
$GPGGA,150648.40,4548.6588717,N,00837.7263557,E,4,12,0.98,212.075,M,48.401,M,,0254*5C
$GPGGA,150648.50,4548.6588715,N,00837.7263556,E,4,13,0.94,212.076,M,48.401,M,,0255*51
$GPGGA,150648.60,4548.6588714,N,00837.7263557,E,4,13,0.94,212.076,M,48.401,M,,0256*51
$GPGGA,150648.70,4548.6588714,N,00837.7263558,E,4,13,0.94,212.077,M,48.401,M,,0257*5F
$GPGGA,150648.80,4548.6588712,N,00837.7263559,E,4,13,0.94,212.077,M,48.401,M,,0258*58
$GPGGA,150648.90,4548.6588711,N,00837.7263561,E,4,13,0.94,212.078,M,48.401,M,,0259*5F
$GPGGA,150649.00,4548.6588709,N,00837.7263561,E,4,13,0.94,212.078,M,48.401,M,,0260*54
$GPGGA,150649.10,4548.6588709,N,00837.7263560,E,4,13,0.94,212.079,M,48.401,M,,0261*54
$GPGGA,150649.20,4548.6588709,N,00837.7263560,E,4,13,0.94,212.080,M,48.401,M,,0262*52
$GPGGA,150649.30,4548.6588709,N,00837.7263559,E,4,12,0.98,212.080,M,48.401,M,,0263*55
$GPGGA,150649.40,4548.6588705,N,00837.7263556,E,4,13,0.94,212.081,M,48.401,M,,0264*5A
$GPGGA,150649.50,4548.6588701,N,00837.7263555,E,4,13,0.94,212.081,M,48.401,M,,0265*5D
$GPGGA,150649.60,4548.6588697,N,00837.7263554,E,4,13,0.94,212.082,M,48.401,M,,0266*51
$GPGGA,150649.70,4548.6588693,N,00837.7263553,E,4,13,0.94,212.083,M,48.401,M,,0267*53
$GPGGA,150649.80,4548.6588692,N,00837.7263553,E,4,13,0.94,212.083,M,48.401,M,,0268*52
$GPGGA,150649.90,4548.6588690,N,00837.7263554,E,4,13,0.94,212.084,M,48.401,M,,0269*50
$GPGGA,150650.00,4548.6588690,N,00837.7263556,E,4,13,0.94,212.085,M,48.401,M,,0270*5A
$GPGGA,150650.10,4548.6588687,N,00837.7263558,E,4,13,0.94,212.085,M,48.401,M,,0271*52
$GPGGA,150650.20,4548.6588686,N,00837.7263559,E,4,13,0.94,212.086,M,48.401,M,,0272*51
$GPGGA,150650.30,4548.6588683,N,00837.7263557,E,4,13,0.94,212.086,M,48.401,M,,0273*5A
$GPGGA,150650.40,4548.6588676,N,00837.7263556,E,4,13,0.94,212.087,M,48.401,M,,0274*50
$GPGGA,150650.50,4548.6588672,N,00837.7263560,E,4,13,0.94,212.087,M,48.401,M,,0275*51
$GPGGA,150650.60,4548.6588669,N,00837.7263564,E,4,13,0.94,212.087,M,48.401,M,,0276*5F
$GPGGA,150650.70,4548.6588668,N,00837.7263567,E,4,13,0.94,212.088,M,48.401,M,,0277*52
$GPGGA,150650.80,4548.6588671,N,00837.7263568,E,4,13,0.94,212.088,M,48.401,M,,0278*55
$GPGGA,150650.90,4548.6588672,N,00837.7263565,E,4,13,0.94,212.088,M,48.401,M,,0279*5B
$GPGGA,150651.00,4548.6588672,N,00837.7263562,E,4,13,0.94,212.088,M,48.401,M,,0280*52
$GPGGA,150651.10,4548.6588670,N,00837.7263558,E,4,13,0.94,212.088,M,48.401,M,,0281*59
$GPGGA,150651.20,4548.6588669,N,00837.7263558,E,4,13,0.94,212.088,M,48.401,M,,0282*51
$GPGGA,150651.30,4548.6588666,N,00837.7263559,E,4,13,0.94,212.088,M,48.401,M,,0283*5F
$GPGGA,150651.40,4548.6588665,N,00837.7263562,E,4,13,0.94,212.088,M,48.401,M,,0284*54
$GPGGA,150651.50,4548.6588671,N,00837.7263565,E,4,13,0.94,212.087,M,48.401,M,,0285*59
$GPGGA,150651.60,4548.6588677,N,00837.7263565,E,4,13,0.94,212.087,M,48.401,M,,0286*5F
$GPGGA,150651.70,4548.6588684,N,00837.7263565,E,4,13,0.94,212.087,M,48.401,M,,0287*53
$GPGGA,150651.80,4548.6588688,N,00837.7263561,E,4,13,0.94,212.086,M,48.401,M,,0288*5A
$GPGGA,150651.90,4548.6588691,N,00837.7263557,E,4,13,0.94,212.086,M,48.401,M,,0289*57
$GPGGA,150652.00,4548.6588694,N,00837.7263553,E,4,13,0.94,212.085,M,48.401,M,,0290*57
$GPGGA,150652.10,4548.6588694,N,00837.7263549,E,4,13,0.94,212.085,M,48.401,M,,0291*5C
$GPGGA,150652.20,4548.6588690,N,00837.7263545,E,4,13,0.94,212.085,M,48.401,M,,0292*54
$GPGGA,150652.30,4548.6588689,N,00837.7263543,E,4,13,0.94,212.085,M,48.401,M,,0293*5A
$GPGGA,150652.40,4548.6588687,N,00837.7263543,E,4,13,0.94,212.085,M,48.401,M,,0294*54
$GPGGA,150652.50,4548.6588685,N,00837.7263545,E,4,13,0.94,212.085,M,48.401,M,,0295*50
$GPGGA,150652.60,4548.6588682,N,00837.7263546,E,4,13,0.94,212.085,M,48.401,M,,0296*54
$GPGGA,150652.70,4548.6588682,N,00837.7263548,E,4,13,0.94,212.085,M,48.401,M,,0297*5A
$GPGGA,150652.80,4548.6588681,N,00837.7263547,E,4,13,0.94,212.085,M,48.401,M,,0298*56
$GPGGA,150652.90,4548.6588680,N,00837.7263546,E,4,13,0.94,212.085,M,48.401,M,,0299*56
$GPGGA,150653.00,4548.6588679,N,00837.7263544,E,4,13,0.94,212.085,M,48.401,M,,0300*5B
$GPGGA,150653.10,4548.6588676,N,00837.7263542,E,4,13,0.94,212.084,M,48.401,M,,0301*53
$GPGGA,150653.20,4548.6588675,N,00837.7263541,E,4,13,0.94,212.084,M,48.401,M,,0302*53
$GPGGA,150653.30,4548.6588676,N,00837.7263539,E,4,13,0.94,212.084,M,48.401,M,,0303*5F
$GPGGA,150653.40,4548.6588676,N,00837.7263539,E,4,13,0.94,212.084,M,48.401,M,,0304*5F
$GPGGA,150653.50,4548.6588676,N,00837.7263539,E,4,13,0.94,212.084,M,48.401,M,,0305*5F
$GPGGA,150653.60,4548.6588679,N,00837.7263540,E,4,13,0.94,212.083,M,48.401,M,,0306*59
$GPGGA,150653.70,4548.6588686,N,00837.7263543,E,4,13,0.94,212.083,M,48.401,M,,0307*5A
$GPGGA,150653.80,4548.6588691,N,00837.7263545,E,4,13,0.94,212.083,M,48.401,M,,0308*5A
$GPGGA,150653.90,4548.6588691,N,00837.7263546,E,4,13,0.94,212.082,M,48.401,M,,0309*58
$GPGGA,150654.00,4548.6588690,N,00837.7263545,E,4,13,0.94,212.082,M,48.401,M,,0310*5C
$GPGGA,150654.10,4548.6588690,N,00837.7263542,E,4,12,0.98,212.082,M,48.401,M,,0311*56
$GPGGA,150654.20,4548.6588690,N,00837.7263540,E,4,12,0.98,212.082,M,48.401,M,,0312*54
$GPGGA,150654.30,4548.6588694,N,00837.7263542,E,4,13,0.94,212.082,M,48.401,M,,0313*5F
$GPGGA,150654.40,4548.6588695,N,00837.7263544,E,4,13,0.94,212.082,M,48.401,M,,0314*58
$GPGGA,150654.50,4548.6588694,N,00837.7263545,E,4,13,0.94,212.081,M,48.401,M,,0315*5B
$GPGGA,150654.60,4548.6588697,N,00837.7263548,E,4,13,0.94,212.081,M,48.401,M,,0316*55
$GPGGA,150654.70,4548.6588700,N,00837.7263550,E,4,13,0.94,212.081,M,48.401,M,,0317*53
$GPGGA,150654.80,4548.6588702,N,00837.7263551,E,4,13,0.94,212.081,M,48.401,M,,0318*50
$GPGGA,150654.90,4548.6588703,N,00837.7263552,E,4,13,0.94,212.081,M,48.401,M,,0319*52
$GPGGA,150655.00,4548.6588702,N,00837.7263553,E,4,13,0.94,212.082,M,48.401,M,,0320*53
$GPGGA,150655.10,4548.6588702,N,00837.7263555,E,4,13,0.94,212.082,M,48.401,M,,0321*55
$GPGGA,150655.20,4548.6588701,N,00837.7263555,E,4,13,0.94,212.082,M,48.401,M,,0322*56
$GPGGA,150655.30,4548.6588701,N,00837.7263554,E,4,13,0.94,212.082,M,48.401,M,,0323*57
$GPGGA,150655.40,4548.6588701,N,00837.7263555,E,4,13,0.94,212.083,M,48.401,M,,0324*57
$GPGGA,150655.50,4548.6588700,N,00837.7263555,E,4,13,0.94,212.083,M,48.401,M,,0325*56
$GPGGA,150655.60,4548.6588699,N,00837.7263556,E,4,13,0.94,212.083,M,48.401,M,,0326*54
$GPGGA,150655.70,4548.6588697,N,00837.7263553,E,4,13,0.94,212.084,M,48.401,M,,0327*58
$GPGGA,150655.80,4548.6588694,N,00837.7263553,E,4,13,0.94,212.084,M,48.401,M,,0328*5B
$GPGGA,150655.90,4548.6588690,N,00837.7263552,E,4,13,0.94,212.084,M,48.401,M,,0329*5E
$GPGGA,150656.00,4548.6588685,N,00837.7263552,E,4,13,0.94,212.085,M,48.401,M,,0330*59
$GPGGA,150656.10,4548.6588680,N,00837.7263552,E,4,13,0.94,212.085,M,48.401,M,,0331*5C
$GPGGA,150656.20,4548.6588677,N,00837.7263553,E,4,13,0.94,212.085,M,48.401,M,,0332*55
$GPGGA,150656.30,4548.6588676,N,00837.7263556,E,4,13,0.94,212.085,M,48.401,M,,0333*51
$GPGGA,150656.40,4548.6588678,N,00837.7263558,E,4,13,0.94,212.085,M,48.401,M,,0334*51
$GPGGA,150656.50,4548.6588679,N,00837.7263558,E,4,13,0.94,212.085,M,48.401,M,,0335*50
$GPGGA,150656.60,4548.6588679,N,00837.7263559,E,4,13,0.94,212.085,M,48.401,M,,0336*51
$GPGGA,150656.70,4548.6588681,N,00837.7263559,E,4,13,0.94,212.085,M,48.401,M,,0337*56
$GPGGA,150656.80,4548.6588683,N,00837.7263559,E,4,13,0.94,212.084,M,48.401,M,,0338*55
$GPGGA,150656.90,4548.6588684,N,00837.7263557,E,4,13,0.94,212.084,M,48.401,M,,0339*5C
$GPGGA,150657.00,4548.6588686,N,00837.7263556,E,4,13,0.94,212.084,M,48.401,M,,0340*59
$GPGGA,150657.10,4548.6588689,N,00837.7263554,E,4,13,0.94,212.083,M,48.401,M,,0341*53
$GPGGA,150657.20,4548.6588691,N,00837.7263552,E,4,13,0.94,212.083,M,48.401,M,,0342*5C
$GPGGA,150657.30,4548.6588695,N,00837.7263551,E,4,13,0.94,212.082,M,48.401,M,,0343*5A
$GPGGA,150657.40,4548.6588698,N,00837.7263550,E,4,13,0.94,212.081,M,48.401,M,,0344*55
$GPGGA,150657.50,4548.6588703,N,00837.7263549,E,4,13,0.94,212.081,M,48.401,M,,0345*5E
$GPGGA,150657.60,4548.6588707,N,00837.7263549,E,4,13,0.94,212.080,M,48.401,M,,0346*5B
$GPGGA,150657.70,4548.6588709,N,00837.7263550,E,4,13,0.94,212.079,M,48.401,M,,0347*5B
$GPGGA,150657.80,4548.6588707,N,00837.7263550,E,4,13,0.94,212.079,M,48.401,M,,0348*55
$GPGGA,150657.90,4548.6588706,N,00837.7263549,E,4,13,0.94,212.079,M,48.401,M,,0349*5C
$GPGGA,150658.00,4548.6588705,N,00837.7263547,E,4,13,0.94,212.078,M,48.401,M,,0350*5E
$GPGGA,150658.10,4548.6588705,N,00837.7263545,E,4,13,0.94,212.078,M,48.401,M,,0351*5C
$GPGGA,150658.20,4548.6588703,N,00837.7263545,E,4,13,0.94,212.078,M,48.401,M,,0352*5A
$GPGGA,150658.30,4548.6588700,N,00837.7263544,E,4,13,0.94,212.078,M,48.401,M,,0353*58
$GPGGA,150658.40,4548.6588697,N,00837.7263543,E,4,13,0.94,212.078,M,48.401,M,,0354*50
$GPGGA,150658.50,4548.6588698,N,00837.7263544,E,4,13,0.94,212.078,M,48.401,M,,0355*58
$GPGGA,150658.60,4548.6588700,N,00837.7263546,E,4,13,0.94,212.078,M,48.401,M,,0356*5A
$GPGGA,150658.70,4548.6588700,N,00837.7263548,E,4,13,0.94,212.078,M,48.401,M,,0357*54
$GPGGA,150658.80,4548.6588697,N,00837.7263549,E,4,13,0.94,212.078,M,48.401,M,,0358*5A
$GPGGA,150658.90,4548.6588695,N,00837.7263550,E,4,13,0.94,212.078,M,48.401,M,,0359*50
$GPGGA,150659.00,4548.6588697,N,00837.7263549,E,4,13,0.94,212.078,M,48.401,M,,0360*58
$GPGGA,150659.10,4548.6588700,N,00837.7263549,E,4,13,0.94,212.078,M,48.401,M,,0361*57
$GPGGA,150659.20,4548.6588701,N,00837.7263549,E,4,13,0.94,212.078,M,48.401,M,,0362*56
$GPGGA,150659.30,4548.6588702,N,00837.7263549,E,4,13,0.94,212.078,M,48.401,M,,0363*55
$GPGGA,150659.40,4548.6588701,N,00837.7263549,E,4,13,0.94,212.078,M,48.401,M,,0364*56
$GPGGA,150659.50,4548.6588702,N,00837.7263549,E,4,13,0.94,212.077,M,48.401,M,,0365*5A
$GPGGA,150659.60,4548.6588702,N,00837.7263549,E,4,13,0.94,212.077,M,48.401,M,,0366*5A
$GPGGA,150659.70,4548.6588703,N,00837.7263547,E,4,13,0.94,212.077,M,48.401,M,,0367*55
$GPGGA,150659.80,4548.6588705,N,00837.7263544,E,4,13,0.94,212.077,M,48.401,M,,0368*50
$GPGGA,150659.90,4548.6588708,N,00837.7263542,E,4,13,0.94,212.077,M,48.401,M,,0369*5B
$GPGGA,150700.00,4548.6588712,N,00837.7263542,E,4,13,0.94,212.077,M,48.401,M,,0370*5C
$GPGGA,150700.10,4548.6588714,N,00837.7263543,E,4,13,0.94,212.077,M,48.401,M,,0371*5B
$GPGGA,150700.20,4548.6588715,N,00837.7263545,E,4,13,0.94,212.077,M,48.401,M,,0372*5C
$GPGGA,150700.30,4548.6588714,N,00837.7263547,E,4,13,0.94,212.077,M,48.401,M,,0373*5F
$GPGGA,150700.40,4548.6588711,N,00837.7263547,E,4,13,0.94,212.078,M,48.401,M,,0374*55
$GPGGA,150700.50,4548.6588708,N,00837.7263545,E,4,13,0.94,212.078,M,48.401,M,,0375*5F
$GPGGA,150700.60,4548.6588707,N,00837.7263544,E,4,13,0.94,212.078,M,48.401,M,,0376*51
$GPGGA,150700.70,4548.6588708,N,00837.7263544,E,4,13,0.94,212.079,M,48.401,M,,0377*5F
$GPGGA,150700.80,4548.6588708,N,00837.7263544,E,4,13,0.94,212.079,M,48.401,M,,0378*5F
$GPGGA,150700.90,4548.6588705,N,00837.7263547,E,4,13,0.94,212.080,M,48.401,M,,0379*57
$GPGGA,150701.00,4548.6588702,N,00837.7263551,E,4,13,0.94,212.080,M,48.401,M,,0380*59
$GPGGA,150701.10,4548.6588699,N,00837.7263554,E,4,13,0.94,212.081,M,48.401,M,,0381*5E
$GPGGA,150701.20,4548.6588696,N,00837.7263555,E,4,13,0.94,212.081,M,48.401,M,,0382*50
$GPGGA,150701.30,4548.6588694,N,00837.7263558,E,4,13,0.94,212.082,M,48.401,M,,0383*5C
$GPGGA,150701.40,4548.6588690,N,00837.7263559,E,4,13,0.94,212.082,M,48.401,M,,0384*59
$GPGGA,150701.50,4548.6588690,N,00837.7263561,E,4,13,0.94,212.082,M,48.401,M,,0385*52
$GPGGA,150701.60,4548.6588692,N,00837.7263562,E,4,13,0.94,212.082,M,48.401,M,,0386*53
$GPGGA,150701.70,4548.6588694,N,00837.7263565,E,4,13,0.94,212.082,M,48.401,M,,0387*52
$GPGGA,150701.80,4548.6588692,N,00837.7263567,E,4,13,0.94,212.082,M,48.401,M,,0388*56
$GPGGA,150701.90,4548.6588689,N,00837.7263568,E,4,13,0.94,212.082,M,48.401,M,,0389*53
$GPGGA,150702.00,4548.6588687,N,00837.7263566,E,4,13,0.94,212.082,M,48.401,M,,0390*51
$GPGGA,150702.10,4548.6588687,N,00837.7263564,E,4,13,0.94,212.082,M,48.401,M,,0391*53
$GPGGA,150702.20,4548.6588690,N,00837.7263561,E,4,13,0.94,212.082,M,48.401,M,,0392*50
$GPGGA,150702.30,4548.6588695,N,00837.7263558,E,4,13,0.94,212.082,M,48.401,M,,0393*5F
$GPGGA,150702.40,4548.6588700,N,00837.7263557,E,4,13,0.94,212.081,M,48.401,M,,0394*5E
$GPGGA,150702.50,4548.6588704,N,00837.7263558,E,4,13,0.94,212.081,M,48.401,M,,0395*55
$GPGGA,150702.60,4548.6588706,N,00837.7263559,E,4,13,0.94,212.080,M,48.401,M,,0396*57
$GPGGA,150702.70,4548.6588706,N,00837.7263558,E,4,13,0.94,212.080,M,48.401,M,,0397*56
$GPGGA,150702.80,4548.6588708,N,00837.7263558,E,4,13,0.94,212.079,M,48.401,M,,0398*5E
$GPGGA,150702.90,4548.6588710,N,00837.7263557,E,4,13,0.94,212.079,M,48.401,M,,0399*58
$GPGGA,150703.00,4548.6588710,N,00837.7263554,E,4,13,0.94,212.079,M,48.401,M,,0400*54
$GPGGA,150703.10,4548.6588708,N,00837.7263551,E,4,13,0.94,212.078,M,48.401,M,,0401*59
$GPGGA,150703.20,4548.6588708,N,00837.7263548,E,4,13,0.94,212.078,M,48.401,M,,0402*51
$GPGGA,150703.30,4548.6588709,N,00837.7263546,E,4,13,0.94,212.077,M,48.401,M,,0403*51
$GPGGA,150703.40,4548.6588710,N,00837.7263546,E,4,13,0.94,212.077,M,48.401,M,,0404*59
$GPGGA,150703.50,4548.6588710,N,00837.7263547,E,4,13,0.94,212.077,M,48.401,M,,0405*58
$GPGGA,150703.60,4548.6588711,N,00837.7263549,E,4,13,0.94,212.077,M,48.401,M,,0406*57
$GPGGA,150703.70,4548.6588713,N,00837.7263550,E,4,13,0.94,212.077,M,48.401,M,,0407*5D
$GPGGA,150703.80,4548.6588714,N,00837.7263551,E,4,13,0.94,212.076,M,48.401,M,,0408*5A
$GPGGA,150703.90,4548.6588713,N,00837.7263549,E,4,13,0.94,212.076,M,48.401,M,,0409*54
$GPGGA,150704.00,4548.6588710,N,00837.7263546,E,4,13,0.94,212.076,M,48.401,M,,0410*5E
$GPGGA,150704.10,4548.6588709,N,00837.7263543,E,4,13,0.94,212.076,M,48.401,M,,0411*53
$GPGGA,150704.20,4548.6588711,N,00837.7263539,E,4,13,0.94,212.076,M,48.401,M,,0412*57
$GPGGA,150704.30,4548.6588713,N,00837.7263537,E,4,13,0.94,212.076,M,48.401,M,,0413*5B
$GPGGA,150704.40,4548.6588712,N,00837.7263540,E,4,13,0.94,212.076,M,48.401,M,,0414*5A
$GPGGA,150704.50,4548.6588710,N,00837.7263542,E,4,13,0.94,212.076,M,48.401,M,,0415*5A
$GPGGA,150704.60,4548.6588708,N,00837.7263545,E,4,13,0.94,212.076,M,48.401,M,,0416*54
$GPGGA,150704.70,4548.6588708,N,00837.7263545,E,4,13,0.94,212.076,M,48.401,M,,0417*54
$GPGGA,150704.80,4548.6588710,N,00837.7263545,E,4,13,0.94,212.075,M,48.401,M,,0418*5E
$GPGGA,150704.90,4548.6588712,N,00837.7263545,E,4,13,0.94,212.075,M,48.401,M,,0419*5C
$GPGGA,150705.00,4548.6588711,N,00837.7263543,E,4,13,0.94,212.075,M,48.401,M,,0420*5B
$GPGGA,150705.10,4548.6588711,N,00837.7263542,E,4,13,0.94,212.075,M,48.401,M,,0421*5A
$GPGGA,150705.20,4548.6588713,N,00837.7263541,E,4,13,0.94,212.075,M,48.401,M,,0422*5B
$GPGGA,150705.30,4548.6588715,N,00837.7263541,E,4,13,0.94,212.075,M,48.401,M,,0423*5D
$GPGGA,150705.40,4548.6588715,N,00837.7263542,E,4,13,0.94,212.075,M,48.401,M,,0424*5E
$GPGGA,150705.50,4548.6588714,N,00837.7263544,E,4,13,0.94,212.074,M,48.401,M,,0425*58
$GPGGA,150705.60,4548.6588712,N,00837.7263544,E,4,13,0.94,212.074,M,48.401,M,,0426*5E
$GPGGA,150705.70,4548.6588712,N,00837.7263543,E,4,13,0.94,212.074,M,48.401,M,,0427*59
$GPGGA,150705.80,4548.6588714,N,00837.7263542,E,4,13,0.94,212.074,M,48.401,M,,0428*5E
$GPGGA,150705.90,4548.6588715,N,00837.7263540,E,4,13,0.94,212.074,M,48.401,M,,0429*5D
$GPGGA,150706.00,4548.6588716,N,00837.7263539,E,4,13,0.94,212.074,M,48.401,M,,0430*52
$GPGGA,150706.10,4548.6588716,N,00837.7263539,E,4,13,0.94,212.074,M,48.401,M,,0431*52
$GPGGA,150706.20,4548.6588718,N,00837.7263539,E,4,13,0.94,212.074,M,48.401,M,,0432*5C
$GPGGA,150706.30,4548.6588720,N,00837.7263540,E,4,13,0.94,212.074,M,48.401,M,,0433*59
$GPGGA,150706.40,4548.6588721,N,00837.7263539,E,4,13,0.94,212.074,M,48.401,M,,0434*56
$GPGGA,150706.50,4548.6588721,N,00837.7263540,E,4,13,0.94,212.074,M,48.401,M,,0435*58
$GPGGA,150706.60,4548.6588718,N,00837.7263540,E,4,13,0.94,212.074,M,48.401,M,,0436*52
$GPGGA,150706.70,4548.6588715,N,00837.7263539,E,4,13,0.94,212.074,M,48.401,M,,0437*51
$GPGGA,150706.80,4548.6588712,N,00837.7263536,E,4,13,0.94,212.074,M,48.401,M,,0438*59
$GPGGA,150706.90,4548.6588710,N,00837.7263534,E,4,13,0.94,212.074,M,48.401,M,,0439*59
$GPGGA,150707.00,4548.6588706,N,00837.7263533,E,4,13,0.94,212.074,M,48.401,M,,0440*5F
$GPGGA,150707.10,4548.6588704,N,00837.7263533,E,4,13,0.94,212.074,M,48.401,M,,0441*5D
$GPGGA,150707.20,4548.6588703,N,00837.7263534,E,4,13,0.94,212.074,M,48.401,M,,0442*5D
$GPGGA,150707.30,4548.6588702,N,00837.7263535,E,4,13,0.94,212.074,M,48.401,M,,0443*5D
$GPGGA,150707.40,4548.6588702,N,00837.7263536,E,4,13,0.94,212.074,M,48.401,M,,0444*5E
$GPGGA,150707.50,4548.6588701,N,00837.7263536,E,4,13,0.94,212.074,M,48.401,M,,0445*5D
$GPGGA,150707.60,4548.6588702,N,00837.7263534,E,4,13,0.94,212.074,M,48.401,M,,0446*5C
$GPGGA,150707.70,4548.6588705,N,00837.7263534,E,4,13,0.94,212.074,M,48.401,M,,0447*5B
$GPGGA,150707.80,4548.6588708,N,00837.7263534,E,4,13,0.94,212.074,M,48.401,M,,0448*56
$GPGGA,150707.90,4548.6588708,N,00837.7263534,E,4,13,0.94,212.074,M,48.401,M,,0449*56
$GPGGA,150708.00,4548.6588707,N,00837.7263534,E,4,13,0.94,212.075,M,48.401,M,,0450*56
$GPGGA,150708.10,4548.6588706,N,00837.7263534,E,4,13,0.94,212.075,M,48.401,M,,0451*57
$GPGGA,150708.20,4548.6588705,N,00837.7263535,E,4,13,0.94,212.075,M,48.401,M,,0452*55
$GPGGA,150708.30,4548.6588703,N,00837.7263536,E,4,13,0.94,212.076,M,48.401,M,,0453*53
$GPGGA,150708.40,4548.6588702,N,00837.7263538,E,4,13,0.94,212.076,M,48.401,M,,0454*5C
$GPGGA,150708.50,4548.6588700,N,00837.7263539,E,4,13,0.94,212.076,M,48.401,M,,0455*5F
$GPGGA,150708.60,4548.6588697,N,00837.7263541,E,4,13,0.94,212.077,M,48.401,M,,0456*5E
$GPGGA,150708.70,4548.6588695,N,00837.7263541,E,4,13,0.94,212.077,M,48.401,M,,0457*5C
$GPGGA,150708.80,4548.6588692,N,00837.7263542,E,4,13,0.94,212.078,M,48.401,M,,0458*57
$GPGGA,150708.90,4548.6588690,N,00837.7263541,E,4,13,0.94,212.078,M,48.401,M,,0459*56
$GPGGA,150709.00,4548.6588689,N,00837.7263542,E,4,13,0.94,212.078,M,48.401,M,,0460*5F
$GPGGA,150709.10,4548.6588686,N,00837.7263543,E,4,13,0.94,212.079,M,48.401,M,,0461*50
$GPGGA,150709.20,4548.6588685,N,00837.7263544,E,4,13,0.94,212.079,M,48.401,M,,0462*54
$GPGGA,150709.30,4548.6588684,N,00837.7263544,E,4,13,0.94,212.079,M,48.401,M,,0463*55
$GPGGA,150709.40,4548.6588684,N,00837.7263544,E,4,13,0.94,212.080,M,48.401,M,,0464*53
$GPGGA,150709.50,4548.6588683,N,00837.7263544,E,4,13,0.94,212.080,M,48.401,M,,0465*54
$GPGGA,150709.60,4548.6588684,N,00837.7263545,E,4,13,0.94,212.080,M,48.401,M,,0466*52
$GPGGA,150709.70,4548.6588687,N,00837.7263546,E,4,13,0.94,212.080,M,48.401,M,,0467*52
$GPGGA,150709.80,4548.6588689,N,00837.7263546,E,4,13,0.94,212.080,M,48.401,M,,0468*5C
$GPGGA,150709.90,4548.6588689,N,00837.7263548,E,4,13,0.94,212.080,M,48.401,M,,0469*52
$GPGGA,150710.00,4548.6588687,N,00837.7263550,E,4,13,0.94,212.081,M,48.401,M,,0470*5D
$GPGGA,150710.10,4548.6588684,N,00837.7263552,E,4,13,0.94,212.081,M,48.401,M,,0471*5C
$GPGGA,150710.20,4548.6588683,N,00837.7263552,E,4,13,0.94,212.081,M,48.401,M,,0472*5B
$GPGGA,150710.30,4548.6588682,N,00837.7263552,E,4,13,0.94,212.081,M,48.401,M,,0473*5A
$GPGGA,150710.40,4548.6588682,N,00837.7263552,E,4,13,0.94,212.081,M,48.401,M,,0474*5A
$GPGGA,150710.50,4548.6588681,N,00837.7263552,E,4,13,0.94,212.081,M,48.401,M,,0475*59
$GPGGA,150710.60,4548.6588682,N,00837.7263552,E,4,13,0.94,212.081,M,48.401,M,,0476*5A
$GPGGA,150710.70,4548.6588684,N,00837.7263552,E,4,13,0.94,212.081,M,48.401,M,,0477*5C
$GPGGA,150710.80,4548.6588686,N,00837.7263552,E,4,13,0.94,212.081,M,48.401,M,,0478*5E
$GPGGA,150710.90,4548.6588689,N,00837.7263554,E,4,13,0.94,212.081,M,48.401,M,,0479*57
$GPGGA,150711.00,4548.6588691,N,00837.7263558,E,4,13,0.94,212.081,M,48.401,M,,0480*5C
$GPGGA,150711.10,4548.6588690,N,00837.7263560,E,4,13,0.94,212.081,M,48.401,M,,0481*56
$GPGGA,150711.20,4548.6588690,N,00837.7263562,E,4,13,0.94,212.081,M,48.401,M,,0482*54
$GPGGA,150711.30,4548.6588691,N,00837.7263564,E,4,13,0.94,212.081,M,48.401,M,,0483*53
$GPGGA,150711.40,4548.6588690,N,00837.7263565,E,4,13,0.94,212.081,M,48.401,M,,0484*53
$GPGGA,150711.50,4548.6588689,N,00837.7263565,E,4,13,0.94,212.081,M,48.401,M,,0485*5B
$GPGGA,150711.60,4548.6588688,N,00837.7263565,E,4,13,0.94,212.081,M,48.401,M,,0486*5A
$GPGGA,150711.70,4548.6588688,N,00837.7263565,E,4,13,0.94,212.081,M,48.401,M,,0487*5A
$GPGGA,150711.80,4548.6588687,N,00837.7263564,E,4,13,0.94,212.081,M,48.401,M,,0488*54
$GPGGA,150711.90,4548.6588684,N,00837.7263564,E,4,13,0.94,212.081,M,48.401,M,,0489*57
$GPGGA,150712.00,4548.6588681,N,00837.7263563,E,4,13,0.94,212.082,M,48.401,M,,0490*54
$GPGGA,150712.10,4548.6588678,N,00837.7263564,E,4,13,0.94,212.082,M,48.401,M,,0491*55
$GPGGA,150712.20,4548.6588678,N,00837.7263566,E,4,13,0.94,212.082,M,48.401,M,,0492*57
$GPGGA,150712.30,4548.6588678,N,00837.7263567,E,4,13,0.94,212.082,M,48.401,M,,0493*56
$GPGGA,150712.40,4548.6588679,N,00837.7263568,E,4,13,0.94,212.082,M,48.401,M,,0494*58
$GPGGA,150712.50,4548.6588679,N,00837.7263569,E,4,13,0.94,212.082,M,48.401,M,,0495*59
$GPGGA,150712.60,4548.6588680,N,00837.7263569,E,4,13,0.94,212.081,M,48.401,M,,0496*5C
$GPGGA,150712.70,4548.6588681,N,00837.7263571,E,4,13,0.94,212.081,M,48.401,M,,0497*54
$GPGGA,150712.80,4548.6588683,N,00837.7263572,E,4,13,0.94,212.081,M,48.401,M,,0498*55
$GPGGA,150712.90,4548.6588684,N,00837.7263572,E,4,13,0.94,212.081,M,48.401,M,,0499*52
$GPGGA,150713.00,4548.6588686,N,00837.7263572,E,4,13,0.94,212.081,M,48.401,M,,0500*59
$GPGGA,150713.10,4548.6588689,N,00837.7263570,E,4,13,0.94,212.081,M,48.401,M,,0501*54
$GPGGA,150713.20,4548.6588692,N,00837.7263570,E,4,13,0.94,212.081,M,48.401,M,,0502*5E
$GPGGA,150713.30,4548.6588693,N,00837.7263569,E,4,13,0.94,212.081,M,48.401,M,,0503*57
$GPGGA,150713.40,4548.6588694,N,00837.7263569,E,4,13,0.94,212.080,M,48.401,M,,0504*51
$GPGGA,150713.50,4548.6588693,N,00837.7263568,E,4,13,0.94,212.080,M,48.401,M,,0505*57
$GPGGA,150713.60,4548.6588692,N,00837.7263566,E,4,13,0.94,212.080,M,48.401,M,,0506*58
$GPGGA,150713.70,4548.6588691,N,00837.7263563,E,4,13,0.94,212.080,M,48.401,M,,0507*5E
$GPGGA,150713.80,4548.6588691,N,00837.7263562,E,4,13,0.94,212.080,M,48.401,M,,0508*5F
$GPGGA,150713.90,4548.6588692,N,00837.7263562,E,4,13,0.94,212.080,M,48.401,M,,0509*5C
$GPGGA,150714.00,4548.6588692,N,00837.7263563,E,4,13,0.94,212.080,M,48.401,M,,0510*5B
$GPGGA,150714.10,4548.6588692,N,00837.7263562,E,4,13,0.94,212.080,M,48.401,M,,0511*5A
$GPGGA,150714.20,4548.6588693,N,00837.7263562,E,4,13,0.94,212.079,M,48.401,M,,0512*5D
$GPGGA,150714.30,4548.6588693,N,00837.7263561,E,4,13,0.94,212.079,M,48.401,M,,0513*5E
$GPGGA,150714.40,4548.6588695,N,00837.7263561,E,4,13,0.94,212.079,M,48.401,M,,0514*58
$GPGGA,150714.50,4548.6588697,N,00837.7263560,E,4,13,0.94,212.079,M,48.401,M,,0515*5B
$GPGGA,150714.60,4548.6588700,N,00837.7263561,E,4,13,0.94,212.079,M,48.401,M,,0516*55
$GPGGA,150714.70,4548.6588701,N,00837.7263561,E,4,13,0.94,212.079,M,48.401,M,,0517*54
$GPGGA,150714.80,4548.6588703,N,00837.7263560,E,4,13,0.94,212.079,M,48.401,M,,0518*57
$GPGGA,150714.90,4548.6588703,N,00837.7263560,E,4,13,0.94,212.079,M,48.401,M,,0519*57
$GPGGA,150715.00,4548.6588703,N,00837.7263559,E,4,13,0.94,212.079,M,48.401,M,,0520*5F
$GPGGA,150715.10,4548.6588703,N,00837.7263558,E,4,13,0.94,212.079,M,48.401,M,,0521*5E
$GPGGA,150715.20,4548.6588704,N,00837.7263557,E,4,13,0.94,212.079,M,48.401,M,,0522*56
$GPGGA,150715.30,4548.6588705,N,00837.7263557,E,4,13,0.94,212.079,M,48.401,M,,0523*57
$GPGGA,150715.40,4548.6588706,N,00837.7263557,E,4,13,0.94,212.079,M,48.401,M,,0524*54
$GPGGA,150715.50,4548.6588707,N,00837.7263556,E,4,13,0.94,212.079,M,48.401,M,,0525*54
$GPGGA,150715.60,4548.6588707,N,00837.7263555,E,4,13,0.94,212.079,M,48.401,M,,0526*57
$GPGGA,150715.70,4548.6588706,N,00837.7263554,E,4,13,0.94,212.079,M,48.401,M,,0527*57
$GPGGA,150715.80,4548.6588705,N,00837.7263554,E,4,13,0.94,212.079,M,48.401,M,,0528*54
$GPGGA,150715.90,4548.6588703,N,00837.7263555,E,4,13,0.94,212.079,M,48.401,M,,0529*53
$GPGGA,150716.00,4548.6588701,N,00837.7263556,E,4,13,0.94,212.079,M,48.401,M,,0530*50
$GPGGA,150716.10,4548.6588699,N,00837.7263557,E,4,13,0.94,212.079,M,48.401,M,,0531*51
$GPGGA,150716.20,4548.6588696,N,00837.7263559,E,4,13,0.94,212.079,M,48.401,M,,0532*50
$GPGGA,150716.30,4548.6588696,N,00837.7263560,E,4,13,0.94,212.079,M,48.401,M,,0533*5A
$GPGGA,150716.40,4548.6588697,N,00837.7263562,E,4,13,0.94,212.079,M,48.401,M,,0534*59
$GPGGA,150716.50,4548.6588698,N,00837.7263565,E,4,13,0.94,212.080,M,48.401,M,,0535*57
$GPGGA,150716.60,4548.6588700,N,00837.7263565,E,4,13,0.94,212.080,M,48.401,M,,0536*57
$GPGGA,150716.70,4548.6588700,N,00837.7263565,E,4,13,0.94,212.080,M,48.401,M,,0537*57
$GPGGA,150716.80,4548.6588700,N,00837.7263566,E,4,13,0.94,212.080,M,48.401,M,,0538*54
$GPGGA,150716.90,4548.6588701,N,00837.7263567,E,4,13,0.94,212.080,M,48.401,M,,0539*54
$GPGGA,150717.00,4548.6588701,N,00837.7263566,E,4,13,0.94,212.080,M,48.401,M,,0540*53
$GPGGA,150717.10,4548.6588701,N,00837.7263566,E,4,13,0.94,212.080,M,48.401,M,,0541*53
$GPGGA,150717.20,4548.6588700,N,00837.7263567,E,4,13,0.94,212.080,M,48.401,M,,0542*53
$GPGGA,150717.30,4548.6588699,N,00837.7263568,E,4,13,0.94,212.080,M,48.401,M,,0543*5D
$GPGGA,150717.40,4548.6588698,N,00837.7263570,E,4,13,0.94,212.081,M,48.401,M,,0544*54
$GPGGA,150717.50,4548.6588698,N,00837.7263572,E,4,13,0.94,212.081,M,48.401,M,,0545*56
$GPGGA,150717.60,4548.6588700,N,00837.7263574,E,4,13,0.94,212.081,M,48.401,M,,0546*50
$GPGGA,150717.70,4548.6588700,N,00837.7263574,E,4,13,0.94,212.081,M,48.401,M,,0547*50
$GPGGA,150717.80,4548.6588699,N,00837.7263574,E,4,13,0.94,212.081,M,48.401,M,,0548*51
$GPGGA,150717.90,4548.6588699,N,00837.7263571,E,4,13,0.94,212.081,M,48.401,M,,0549*54
$GPGGA,150718.00,4548.6588701,N,00837.7263569,E,4,13,0.94,212.081,M,48.401,M,,0550*53
$GPGGA,150718.10,4548.6588704,N,00837.7263568,E,4,13,0.94,212.081,M,48.401,M,,0551*57
$GPGGA,150718.20,4548.6588704,N,00837.7263568,E,4,13,0.94,212.081,M,48.401,M,,0552*57
$GPGGA,150718.30,4548.6588702,N,00837.7263568,E,4,13,0.94,212.081,M,48.401,M,,0553*51
$GPGGA,150718.40,4548.6588701,N,00837.7263568,E,4,13,0.94,212.081,M,48.401,M,,0554*52
$GPGGA,150718.50,4548.6588701,N,00837.7263569,E,4,13,0.94,212.081,M,48.401,M,,0555*53
$GPGGA,150718.60,4548.6588700,N,00837.7263570,E,4,13,0.94,212.081,M,48.401,M,,0556*5A
$GPGGA,150718.70,4548.6588699,N,00837.7263571,E,4,13,0.94,212.081,M,48.401,M,,0557*5A
$GPGGA,150718.80,4548.6588698,N,00837.7263573,E,4,13,0.94,212.081,M,48.401,M,,0558*59
$GPGGA,150718.90,4548.6588698,N,00837.7263573,E,4,13,0.94,212.081,M,48.401,M,,0559*59
$GPGGA,150719.00,4548.6588697,N,00837.7263572,E,4,13,0.94,212.081,M,48.401,M,,0560*55
$GPGGA,150719.10,4548.6588697,N,00837.7263572,E,4,13,0.94,212.082,M,48.401,M,,0561*56
$GPGGA,150719.20,4548.6588697,N,00837.7263572,E,4,13,0.94,212.082,M,48.401,M,,0562*56
$GPGGA,150719.30,4548.6588697,N,00837.7263573,E,4,13,0.94,212.082,M,48.401,M,,0563*57
$GPGGA,150719.40,4548.6588696,N,00837.7263574,E,4,13,0.94,212.082,M,48.401,M,,0564*51
$GPGGA,150719.50,4548.6588695,N,00837.7263575,E,4,13,0.94,212.082,M,48.401,M,,0565*53
$GPGGA,150719.60,4548.6588693,N,00837.7263575,E,4,13,0.94,212.082,M,48.401,M,,0566*55
$GPGGA,150719.70,4548.6588693,N,00837.7263575,E,4,13,0.94,212.082,M,48.401,M,,0567*55
$GPGGA,150719.80,4548.6588692,N,00837.7263574,E,4,13,0.94,212.083,M,48.401,M,,0568*54
$GPGGA,150719.90,4548.6588693,N,00837.7263574,E,4,13,0.94,212.083,M,48.401,M,,0569*55
$GPGGA,150720.00,4548.6588692,N,00837.7263575,E,4,13,0.94,212.083,M,48.401,M,,0570*5E
$GPGGA,150720.10,4548.6588692,N,00837.7263577,E,4,13,0.94,212.083,M,48.401,M,,0571*5C
$GPGGA,150720.20,4548.6588690,N,00837.7263578,E,4,13,0.94,212.083,M,48.401,M,,0572*51
$GPGGA,150720.30,4548.6588688,N,00837.7263578,E,4,13,0.94,212.083,M,48.401,M,,0573*58
$GPGGA,150720.40,4548.6588687,N,00837.7263577,E,4,13,0.94,212.083,M,48.401,M,,0574*58
$GPGGA,150720.50,4548.6588688,N,00837.7263576,E,4,13,0.94,212.083,M,48.401,M,,0575*56
$GPGGA,150720.60,4548.6588687,N,00837.7263576,E,4,13,0.94,212.083,M,48.401,M,,0576*59
$GPGGA,150720.70,4548.6588686,N,00837.7263576,E,4,13,0.94,212.083,M,48.401,M,,0577*58
$GPGGA,150720.80,4548.6588685,N,00837.7263575,E,4,13,0.94,212.084,M,48.401,M,,0578*5F
$GPGGA,150720.90,4548.6588684,N,00837.7263574,E,4,13,0.94,212.084,M,48.401,M,,0579*5F
$GPGGA,150721.00,4548.6588685,N,00837.7263574,E,4,13,0.94,212.084,M,48.401,M,,0580*50
$GPGGA,150721.10,4548.6588687,N,00837.7263575,E,4,13,0.94,212.084,M,48.401,M,,0581*53
$GPGGA,150721.20,4548.6588688,N,00837.7263576,E,4,13,0.94,212.084,M,48.401,M,,0582*5F
$GPGGA,150721.30,4548.6588687,N,00837.7263576,E,4,13,0.94,212.084,M,48.401,M,,0583*50
$GPGGA,150721.40,4548.6588687,N,00837.7263575,E,4,13,0.94,212.084,M,48.401,M,,0584*53
$GPGGA,150721.50,4548.6588688,N,00837.7263575,E,4,13,0.94,212.084,M,48.401,M,,0585*5C
$GPGGA,150721.60,4548.6588690,N,00837.7263575,E,4,13,0.94,212.084,M,48.401,M,,0586*55
$GPGGA,150721.70,4548.6588690,N,00837.7263575,E,4,13,0.94,212.084,M,48.401,M,,0587*55
$GPGGA,150721.80,4548.6588689,N,00837.7263575,E,4,13,0.94,212.084,M,48.401,M,,0588*5D
$GPGGA,150721.90,4548.6588687,N,00837.7263576,E,4,13,0.94,212.084,M,48.401,M,,0589*50
$GPGGA,150722.00,4548.6588684,N,00837.7263576,E,4,13,0.94,212.084,M,48.401,M,,0590*51
$GPGGA,150722.10,4548.6588683,N,00837.7263578,E,4,13,0.94,212.084,M,48.401,M,,0591*58
$GPGGA,150722.20,4548.6588682,N,00837.7263579,E,4,13,0.94,212.085,M,48.401,M,,0592*59
$GPGGA,150722.30,4548.6588682,N,00837.7263579,E,4,13,0.94,212.085,M,48.401,M,,0593*59
$GPGGA,150722.40,4548.6588682,N,00837.7263579,E,4,13,0.94,212.085,M,48.401,M,,0594*59
$GPGGA,150722.50,4548.6588683,N,00837.7263581,E,4,13,0.94,212.085,M,48.401,M,,0595*5F
$GPGGA,150722.60,4548.6588683,N,00837.7263581,E,4,13,0.94,212.085,M,48.401,M,,0596*5F
$GPGGA,150722.70,4548.6588684,N,00837.7263582,E,4,13,0.94,212.085,M,48.401,M,,0597*5B
$GPGGA,150722.80,4548.6588685,N,00837.7263582,E,4,13,0.94,212.085,M,48.401,M,,0598*5A
$GPGGA,150722.90,4548.6588686,N,00837.7263584,E,4,13,0.94,212.085,M,48.401,M,,0599*5F
$GPGGA,150723.00,4548.6588686,N,00837.7263584,E,4,13,0.94,212.085,M,48.401,M,,0600*54
$GPGGA,150723.10,4548.6588687,N,00837.7263585,E,4,13,0.94,212.085,M,48.401,M,,0601*54
$GPGGA,150723.20,4548.6588687,N,00837.7263585,E,4,13,0.94,212.085,M,48.401,M,,0602*54
$GPGGA,150723.30,4548.6588687,N,00837.7263585,E,4,13,0.94,212.085,M,48.401,M,,0603*54
$GPGGA,150723.40,4548.6588687,N,00837.7263585,E,4,13,0.94,212.085,M,48.401,M,,0604*54
$GPGGA,150723.50,4548.6588687,N,00837.7263586,E,4,13,0.94,212.085,M,48.401,M,,0605*57
$GPGGA,150723.60,4548.6588689,N,00837.7263589,E,4,13,0.94,212.086,M,48.401,M,,0606*55
$GPGGA,150723.70,4548.6588690,N,00837.7263590,E,4,13,0.94,212.086,M,48.401,M,,0607*55
$GPGGA,150723.80,4548.6588689,N,00837.7263592,E,4,13,0.94,212.086,M,48.401,M,,0608*5F
$GPGGA,150723.90,4548.6588687,N,00837.7263592,E,4,13,0.94,212.086,M,48.401,M,,0609*51
$GPGGA,150724.00,4548.6588688,N,00837.7263593,E,4,13,0.94,212.086,M,48.401,M,,0610*59
$GPGGA,150724.10,4548.6588689,N,00837.7263591,E,4,13,0.94,212.086,M,48.401,M,,0611*5A
$GPGGA,150724.20,4548.6588689,N,00837.7263590,E,4,13,0.94,212.086,M,48.401,M,,0612*5B
$GPGGA,150724.30,4548.6588688,N,00837.7263591,E,4,13,0.94,212.087,M,48.401,M,,0613*5A
$GPGGA,150724.40,4548.6588689,N,00837.7263593,E,4,13,0.94,212.087,M,48.401,M,,0614*59
$GPGGA,150724.50,4548.6588690,N,00837.7263595,E,4,13,0.94,212.087,M,48.401,M,,0615*57
$GPGGA,150724.60,4548.6588692,N,00837.7263598,E,4,13,0.94,212.087,M,48.401,M,,0616*58
$GPGGA,150724.70,4548.6588694,N,00837.7263600,E,4,13,0.94,212.087,M,48.401,M,,0617*5C
$GPGGA,150724.80,4548.6588698,N,00837.7263602,E,4,13,0.94,212.087,M,48.401,M,,0618*52
$GPGGA,150724.90,4548.6588701,N,00837.7263605,E,4,13,0.94,212.087,M,48.401,M,,0619*54
$GPGGA,150725.00,4548.6588703,N,00837.7263606,E,4,13,0.94,212.088,M,48.401,M,,0620*58
$GPGGA,150725.10,4548.6588704,N,00837.7263608,E,4,13,0.94,212.088,M,48.401,M,,0621*51
$GPGGA,150725.20,4548.6588704,N,00837.7263608,E,4,13,0.94,212.088,M,48.401,M,,0622*51
$GPGGA,150725.30,4548.6588704,N,00837.7263607,E,4,13,0.94,212.088,M,48.401,M,,0623*5E
$GPGGA,150725.40,4548.6588704,N,00837.7263606,E,4,13,0.94,212.088,M,48.401,M,,0624*5F
$GPGGA,150725.50,4548.6588702,N,00837.7263604,E,4,13,0.94,212.088,M,48.401,M,,0625*5B
$GPGGA,150725.60,4548.6588699,N,00837.7263603,E,4,13,0.94,212.088,M,48.401,M,,0626*5F
$GPGGA,150725.70,4548.6588697,N,00837.7263602,E,4,13,0.94,212.088,M,48.401,M,,0627*50
$GPGGA,150725.80,4548.6588695,N,00837.7263603,E,4,13,0.94,212.088,M,48.401,M,,0628*53
$GPGGA,150725.90,4548.6588695,N,00837.7263603,E,4,13,0.94,212.088,M,48.401,M,,0629*53
$GPGGA,150726.00,4548.6588696,N,00837.7263605,E,4,13,0.94,212.088,M,48.401,M,,0630*54
$GPGGA,150726.10,4548.6588697,N,00837.7263606,E,4,13,0.94,212.088,M,48.401,M,,0631*56
$GPGGA,150726.20,4548.6588696,N,00837.7263604,E,4,13,0.94,212.088,M,48.401,M,,0632*55
$GPGGA,150726.30,4548.6588696,N,00837.7263604,E,4,13,0.94,212.088,M,48.401,M,,0633*55
$GPGGA,150726.40,4548.6588696,N,00837.7263604,E,4,13,0.94,212.088,M,48.401,M,,0634*55
$GPGGA,150726.50,4548.6588696,N,00837.7263603,E,4,13,0.94,212.088,M,48.401,M,,0635*52
$GPGGA,150726.60,4548.6588695,N,00837.7263604,E,4,13,0.94,212.088,M,48.401,M,,0636*56
$GPGGA,150726.70,4548.6588694,N,00837.7263606,E,4,13,0.94,212.088,M,48.401,M,,0637*55
$GPGGA,150726.80,4548.6588695,N,00837.7263607,E,4,13,0.94,212.089,M,48.401,M,,0638*54
$GPGGA,150726.90,4548.6588697,N,00837.7263608,E,4,13,0.94,212.089,M,48.401,M,,0639*59
$GPGGA,150727.00,4548.6588698,N,00837.7263608,E,4,13,0.94,212.089,M,48.401,M,,0640*50
$GPGGA,150727.10,4548.6588699,N,00837.7263609,E,4,13,0.94,212.089,M,48.401,M,,0641*50
$GPGGA,150727.20,4548.6588699,N,00837.7263608,E,4,13,0.94,212.089,M,48.401,M,,0642*51
$GPGGA,150727.30,4548.6588697,N,00837.7263606,E,4,13,0.94,212.089,M,48.401,M,,0643*51
$GPGGA,150727.40,4548.6588695,N,00837.7263604,E,4,13,0.94,212.089,M,48.401,M,,0644*51
$GPGGA,150727.50,4548.6588694,N,00837.7263602,E,4,13,0.94,212.089,M,48.401,M,,0645*56
$GPGGA,150727.60,4548.6588692,N,00837.7263601,E,4,13,0.94,212.090,M,48.401,M,,0646*5B
$GPGGA,150727.70,4548.6588692,N,00837.7263602,E,4,13,0.94,212.090,M,48.401,M,,0647*58
$GPGGA,150727.80,4548.6588690,N,00837.7263602,E,4,13,0.94,212.090,M,48.401,M,,0648*5A
$GPGGA,150727.90,4548.6588689,N,00837.7263603,E,4,13,0.94,212.090,M,48.401,M,,0649*53
$GPGGA,150728.00,4548.6588688,N,00837.7263604,E,4,13,0.94,212.090,M,48.401,M,,0650*5B
$GPGGA,150728.10,4548.6588686,N,00837.7263604,E,4,13,0.94,212.089,M,48.401,M,,0651*5D
$GPGGA,150728.20,4548.6588685,N,00837.7263603,E,4,13,0.94,212.089,M,48.401,M,,0652*59
$GPGGA,150728.30,4548.6588683,N,00837.7263601,E,4,13,0.94,212.089,M,48.401,M,,0653*5D
$GPGGA,150728.40,4548.6588681,N,00837.7263599,E,4,13,0.94,212.089,M,48.401,M,,0654*5D
$GPGGA,150728.50,4548.6588680,N,00837.7263598,E,4,13,0.94,212.089,M,48.401,M,,0655*5D
$GPGGA,150728.60,4548.6588680,N,00837.7263598,E,4,13,0.94,212.089,M,48.401,M,,0656*5D
$GPGGA,150728.70,4548.6588679,N,00837.7263598,E,4,13,0.94,212.089,M,48.401,M,,0657*5B
$GPGGA,150728.80,4548.6588677,N,00837.7263598,E,4,13,0.94,212.088,M,48.401,M,,0658*54
$GPGGA,150728.90,4548.6588676,N,00837.7263599,E,4,13,0.94,212.088,M,48.401,M,,0659*54
$GPGGA,150729.00,4548.6588675,N,00837.7263598,E,4,13,0.94,212.088,M,48.401,M,,0660*54
$GPGGA,150729.10,4548.6588675,N,00837.7263598,E,4,13,0.94,212.088,M,48.401,M,,0661*54
$GPGGA,150729.20,4548.6588675,N,00837.7263599,E,4,13,0.94,212.088,M,48.401,M,,0662*55
$GPGGA,150729.30,4548.6588676,N,00837.7263599,E,4,13,0.94,212.088,M,48.401,M,,0663*56
$GPGGA,150729.40,4548.6588677,N,00837.7263600,E,4,13,0.94,212.088,M,48.401,M,,0664*54
$GPGGA,150729.50,4548.6588677,N,00837.7263600,E,4,13,0.94,212.088,M,48.401,M,,0665*54
$GPGGA,150729.60,4548.6588676,N,00837.7263599,E,4,13,0.94,212.088,M,48.401,M,,0666*56
$GPGGA,150729.70,4548.6588675,N,00837.7263598,E,4,13,0.94,212.088,M,48.401,M,,0667*54
$GPGGA,150729.80,4548.6588675,N,00837.7263596,E,4,13,0.94,212.088,M,48.401,M,,0668*5A
$GPGGA,150729.90,4548.6588675,N,00837.7263595,E,4,13,0.94,212.088,M,48.401,M,,0669*59
$GPGGA,150730.00,4548.6588674,N,00837.7263595,E,4,13,0.94,212.088,M,48.401,M,,0670*51
$GPGGA,150730.10,4548.6588674,N,00837.7263597,E,4,13,0.94,212.088,M,48.401,M,,0671*53
$GPGGA,150730.20,4548.6588674,N,00837.7263599,E,4,13,0.94,212.088,M,48.401,M,,0672*5D
$GPGGA,150730.30,4548.6588675,N,00837.7263602,E,4,13,0.94,212.088,M,48.401,M,,0673*5D
$GPGGA,150730.40,4548.6588677,N,00837.7263603,E,4,13,0.94,212.089,M,48.401,M,,0674*5F
$GPGGA,150730.50,4548.6588677,N,00837.7263604,E,4,13,0.94,212.089,M,48.401,M,,0675*58
$GPGGA,150730.60,4548.6588676,N,00837.7263604,E,4,13,0.94,212.089,M,48.401,M,,0676*59
$GPGGA,150730.70,4548.6588674,N,00837.7263605,E,4,13,0.94,212.089,M,48.401,M,,0677*5A
$GPGGA,150730.80,4548.6588672,N,00837.7263606,E,4,13,0.94,212.089,M,48.401,M,,0678*5F
$GPGGA,150730.90,4548.6588672,N,00837.7263607,E,4,13,0.94,212.089,M,48.401,M,,0679*5E
$GPGGA,150731.00,4548.6588674,N,00837.7263609,E,4,13,0.94,212.089,M,48.401,M,,0680*58
$GPGGA,150731.10,4548.6588677,N,00837.7263612,E,4,13,0.94,212.089,M,48.401,M,,0681*51
$GPGGA,150731.20,4548.6588680,N,00837.7263616,E,4,12,0.97,212.089,M,48.401,M,,0682*5F
$GPGGA,150731.30,4548.6588681,N,00837.7263619,E,4,13,0.94,212.090,M,48.401,M,,0683*5B
$GPGGA,150731.40,4548.6588683,N,00837.7263622,E,4,13,0.94,212.090,M,48.401,M,,0684*51
$GPGGA,150731.50,4548.6588684,N,00837.7263624,E,4,13,0.94,212.090,M,48.401,M,,0685*50
$GPGGA,150731.60,4548.6588687,N,00837.7263625,E,4,13,0.94,212.090,M,48.401,M,,0686*52
$GPGGA,150731.70,4548.6588691,N,00837.7263624,E,4,13,0.94,212.091,M,48.401,M,,0687*55
$GPGGA,150731.80,4548.6588694,N,00837.7263623,E,4,13,0.94,212.091,M,48.401,M,,0688*57
$GPGGA,150731.90,4548.6588698,N,00837.7263623,E,4,13,0.94,212.091,M,48.401,M,,0689*5B
$GPGGA,150732.00,4548.6588702,N,00837.7263623,E,4,13,0.94,212.091,M,48.401,M,,0690*5B
$GPGGA,150732.10,4548.6588707,N,00837.7263622,E,4,13,0.94,212.092,M,48.401,M,,0691*5C
$GPGGA,150732.20,4548.6588711,N,00837.7263623,E,4,13,0.94,212.092,M,48.401,M,,0692*5A
$GPGGA,150732.30,4548.6588713,N,00837.7263627,E,4,13,0.94,212.092,M,48.401,M,,0693*5C
$GPGGA,150732.40,4548.6588712,N,00837.7263629,E,4,13,0.94,212.092,M,48.401,M,,0694*53
$GPGGA,150732.50,4548.6588713,N,00837.7263631,E,4,13,0.94,212.092,M,48.401,M,,0695*5B
$GPGGA,150732.60,4548.6588713,N,00837.7263632,E,4,13,0.94,212.092,M,48.401,M,,0696*58
